1.722           GPSD_json            pGPSd           {"class":"SKY","device":"/dev/garmingps","xdop":0.58,"ydop":0.59,"vdop":1.15,"tdop":0.72,"hdop":0.82,"gdop":1.59,"pdop":1.42,"satellites":[{"PRN":10,"el":16,"az":150,"ss":35,"used":true},{"PRN":3,"el":26,"az":314,"ss":43,"used":true},{"PRN":26,"el":23,"az":171,"ss":30,"used":true},{"PRN":22,"el":45,"az":301,"ss":44,"used":true},{"PRN":32,"el":49,"az":83,"ss":49,"used":true},{"PRN":25,"el":34,"az":61,"ss":45,"used":true},{"PRN":1,"el":25,"az":268,"ss":44,"used":true},{"PRN":14,"el":72,"az":37,"ss":46,"used":true},{"PRN":12,"el":6,"az":30,"ss":43,"used":true},{"PRN":31,"el":86,"az":243,"ss":44,"used":true},{"PRN":11,"el":2,"az":263,"ss":-0,"used":false},{"PRN":16,"el":0,"az":184,"ss":-0,"used":false}]} 
2.724           GPSD_json            pGPSd           {"class":"SKY","device":"/dev/garmingps","xdop":0.58,"ydop":0.59,"vdop":1.15,"tdop":0.72,"hdop":0.82,"gdop":1.59,"pdop":1.42,"satellites":[{"PRN":10,"el":16,"az":150,"ss":38,"used":true},{"PRN":3,"el":26,"az":314,"ss":41,"used":true},{"PRN":26,"el":23,"az":171,"ss":32,"used":true},{"PRN":22,"el":45,"az":301,"ss":44,"used":true},{"PRN":32,"el":49,"az":83,"ss":47,"used":true},{"PRN":25,"el":34,"az":61,"ss":45,"used":true},{"PRN":1,"el":25,"az":268,"ss":43,"used":true},{"PRN":14,"el":72,"az":37,"ss":47,"used":true},{"PRN":12,"el":6,"az":30,"ss":42,"used":true},{"PRN":31,"el":86,"az":243,"ss":45,"used":true},{"PRN":11,"el":2,"az":263,"ss":-0,"used":false},{"PRN":16,"el":0,"az":184,"ss":-0,"used":false}]} 
2.724           GPSD_json            pGPSd           {"class":"SKY","device":"/dev/garmingps","xdop":0.58,"ydop":0.59,"vdop":1.15,"tdop":0.72,"hdop":0.82,"gdop":1.59,"pdop":1.42,"satellites":[{"PRN":10,"el":16,"az":150,"ss":38,"used":true},{"PRN":3,"el":26,"az":314,"ss":41,"used":true},{"PRN":26,"el":23,"az":171,"ss":32,"used":true},{"PRN":22,"el":45,"az":301,"ss":44,"used":true},{"PRN":32,"el":49,"az":83,"ss":47,"used":true},{"PRN":25,"el":34,"az":61,"ss":45,"used":true},{"PRN":1,"el":25,"az":268,"ss":43,"used":true},{"PRN":14,"el":72,"az":37,"ss":47,"used":true},{"PRN":12,"el":6,"az":30,"ss":42,"used":true},{"PRN":31,"el":86,"az":243,"ss":45,"used":true},{"PRN":11,"el":2,"az":263,"ss":-0,"used":false},{"PRN":16,"el":0,"az":184,"ss":-0,"used":false}]} 
3.725           GPSD_json            pGPSd           {"class":"SKY","device":"/dev/garmingps","xdop":0.58,"ydop":0.59,"vdop":1.15,"tdop":0.72,"hdop":0.82,"gdop":1.59,"pdop":1.42,"satellites":[{"PRN":10,"el":16,"az":150,"ss":36,"used":true},{"PRN":3,"el":26,"az":314,"ss":41,"used":true},{"PRN":26,"el":23,"az":171,"ss":36,"used":true},{"PRN":22,"el":45,"az":301,"ss":43,"used":true},{"PRN":32,"el":49,"az":83,"ss":46,"used":true},{"PRN":25,"el":34,"az":61,"ss":46,"used":true},{"PRN":1,"el":25,"az":268,"ss":42,"used":true},{"PRN":14,"el":72,"az":37,"ss":46,"used":true},{"PRN":12,"el":6,"az":30,"ss":42,"used":true},{"PRN":31,"el":86,"az":243,"ss":45,"used":true},{"PRN":11,"el":2,"az":263,"ss":-0,"used":false},{"PRN":16,"el":0,"az":184,"ss":-0,"used":false}]} 
3.725           GPSD_json            pGPSd           {"class":"SKY","device":"/dev/garmingps","xdop":0.58,"ydop":0.59,"vdop":1.15,"tdop":0.72,"hdop":0.82,"gdop":1.59,"pdop":1.42,"satellites":[{"PRN":10,"el":16,"az":150,"ss":36,"used":true},{"PRN":3,"el":26,"az":314,"ss":41,"used":true},{"PRN":26,"el":23,"az":171,"ss":36,"used":true},{"PRN":22,"el":45,"az":301,"ss":43,"used":true},{"PRN":32,"el":49,"az":83,"ss":46,"used":true},{"PRN":25,"el":34,"az":61,"ss":46,"used":true},{"PRN":1,"el":25,"az":268,"ss":42,"used":true},{"PRN":14,"el":72,"az":37,"ss":46,"used":true},{"PRN":12,"el":6,"az":30,"ss":42,"used":true},{"PRN":31,"el":86,"az":243,"ss":45,"used":true},{"PRN":11,"el":2,"az":263,"ss":-0,"used":false},{"PRN":16,"el":0,"az":184,"ss":-0,"used":false}]} 
4.726           GPSD_json            pGPSd           {"class":"SKY","device":"/dev/garmingps","xdop":0.58,"ydop":0.59,"vdop":1.15,"tdop":0.72,"hdop":0.82,"gdop":1.59,"pdop":1.42,"satellites":[{"PRN":10,"el":16,"az":150,"ss":37,"used":true},{"PRN":3,"el":26,"az":314,"ss":43,"used":true},{"PRN":26,"el":23,"az":171,"ss":35,"used":true},{"PRN":22,"el":45,"az":301,"ss":45,"used":true},{"PRN":32,"el":49,"az":83,"ss":46,"used":true},{"PRN":25,"el":34,"az":61,"ss":46,"used":true},{"PRN":1,"el":25,"az":268,"ss":44,"used":true},{"PRN":14,"el":72,"az":37,"ss":46,"used":true},{"PRN":12,"el":6,"az":30,"ss":41,"used":true},{"PRN":31,"el":86,"az":243,"ss":45,"used":true},{"PRN":11,"el":2,"az":263,"ss":-0,"used":false},{"PRN":16,"el":0,"az":184,"ss":-0,"used":false}]} 
5.729           GPSD_json            pGPSd           {"class":"SKY","device":"/dev/garmingps","xdop":0.58,"ydop":0.59,"vdop":1.15,"tdop":0.72,"hdop":0.82,"gdop":1.59,"pdop":1.42,"satellites":[{"PRN":10,"el":16,"az":150,"ss":38,"used":true},{"PRN":3,"el":26,"az":314,"ss":42,"used":true},{"PRN":26,"el":23,"az":171,"ss":35,"used":true},{"PRN":22,"el":45,"az":301,"ss":43,"used":true},{"PRN":32,"el":49,"az":83,"ss":46,"used":true},{"PRN":25,"el":34,"az":61,"ss":47,"used":true},{"PRN":1,"el":25,"az":268,"ss":45,"used":true},{"PRN":14,"el":72,"az":37,"ss":46,"used":true},{"PRN":12,"el":6,"az":30,"ss":43,"used":true},{"PRN":31,"el":86,"az":243,"ss":48,"used":true},{"PRN":11,"el":2,"az":263,"ss":-0,"used":false},{"PRN":16,"el":0,"az":184,"ss":-0,"used":false}]} 
6.732           GPSD_json            pGPSd           {"class":"SKY","device":"/dev/garmingps","xdop":0.58,"ydop":0.59,"vdop":1.15,"tdop":0.72,"hdop":0.82,"gdop":1.59,"pdop":1.42,"satellites":[{"PRN":10,"el":16,"az":150,"ss":38,"used":true},{"PRN":3,"el":26,"az":314,"ss":43,"used":true},{"PRN":26,"el":23,"az":171,"ss":34,"used":true},{"PRN":22,"el":45,"az":301,"ss":43,"used":true},{"PRN":32,"el":49,"az":83,"ss":47,"used":true},{"PRN":25,"el":34,"az":61,"ss":47,"used":true},{"PRN":1,"el":25,"az":268,"ss":44,"used":true},{"PRN":14,"el":72,"az":37,"ss":46,"used":true},{"PRN":12,"el":6,"az":30,"ss":40,"used":true},{"PRN":31,"el":86,"az":243,"ss":48,"used":true},{"PRN":11,"el":2,"az":263,"ss":-0,"used":false},{"PRN":16,"el":0,"az":184,"ss":-0,"used":false}]} 
7.735           GPSD_json            pGPSd           {"class":"SKY","device":"/dev/garmingps","xdop":0.58,"ydop":0.59,"vdop":1.15,"tdop":0.72,"hdop":0.82,"gdop":1.59,"pdop":1.42,"satellites":[{"PRN":10,"el":16,"az":150,"ss":39,"used":true},{"PRN":3,"el":26,"az":314,"ss":43,"used":true},{"PRN":26,"el":23,"az":171,"ss":34,"used":true},{"PRN":22,"el":45,"az":301,"ss":44,"used":true},{"PRN":32,"el":49,"az":83,"ss":48,"used":true},{"PRN":25,"el":34,"az":61,"ss":48,"used":true},{"PRN":1,"el":25,"az":268,"ss":44,"used":true},{"PRN":14,"el":72,"az":37,"ss":47,"used":true},{"PRN":12,"el":6,"az":30,"ss":43,"used":true},{"PRN":31,"el":86,"az":243,"ss":47,"used":true},{"PRN":11,"el":2,"az":263,"ss":-0,"used":false},{"PRN":16,"el":0,"az":184,"ss":-0,"used":false}]} 
8.736           GPSD_json            pGPSd           {"class":"SKY","device":"/dev/garmingps","xdop":0.58,"ydop":0.59,"vdop":1.15,"tdop":0.72,"hdop":0.82,"gdop":1.59,"pdop":1.42,"satellites":[{"PRN":10,"el":16,"az":150,"ss":40,"used":true},{"PRN":3,"el":26,"az":314,"ss":44,"used":true},{"PRN":26,"el":23,"az":171,"ss":34,"used":true},{"PRN":22,"el":45,"az":301,"ss":44,"used":true},{"PRN":32,"el":49,"az":83,"ss":46,"used":true},{"PRN":25,"el":34,"az":61,"ss":48,"used":true},{"PRN":1,"el":25,"az":268,"ss":46,"used":true},{"PRN":14,"el":72,"az":37,"ss":47,"used":true},{"PRN":12,"el":6,"az":30,"ss":44,"used":true},{"PRN":31,"el":86,"az":243,"ss":47,"used":true},{"PRN":11,"el":2,"az":263,"ss":-0,"used":false},{"PRN":16,"el":0,"az":184,"ss":-0,"used":false}]} 
9.738           GPSD_json            pGPSd           {"class":"SKY","device":"/dev/garmingps","xdop":0.58,"ydop":0.59,"vdop":1.15,"tdop":0.72,"hdop":0.82,"gdop":1.59,"pdop":1.42,"satellites":[{"PRN":10,"el":16,"az":150,"ss":39,"used":true},{"PRN":3,"el":26,"az":314,"ss":43,"used":true},{"PRN":26,"el":23,"az":171,"ss":26,"used":true},{"PRN":22,"el":45,"az":301,"ss":45,"used":true},{"PRN":32,"el":49,"az":83,"ss":45,"used":true},{"PRN":25,"el":34,"az":61,"ss":48,"used":true},{"PRN":1,"el":25,"az":268,"ss":45,"used":true},{"PRN":14,"el":72,"az":37,"ss":47,"used":true},{"PRN":12,"el":6,"az":30,"ss":45,"used":true},{"PRN":31,"el":86,"az":243,"ss":47,"used":true},{"PRN":11,"el":2,"az":263,"ss":-0,"used":false},{"PRN":16,"el":0,"az":184,"ss":-0,"used":false}]} 
10.739          GPSD_json            pGPSd           {"class":"SKY","device":"/dev/garmingps","xdop":0.58,"ydop":0.59,"vdop":1.15,"tdop":0.72,"hdop":0.82,"gdop":1.59,"pdop":1.42,"satellites":[{"PRN":10,"el":16,"az":150,"ss":38,"used":true},{"PRN":3,"el":26,"az":314,"ss":42,"used":true},{"PRN":26,"el":23,"az":171,"ss":26,"used":true},{"PRN":22,"el":45,"az":301,"ss":44,"used":true},{"PRN":32,"el":49,"az":83,"ss":45,"used":true},{"PRN":25,"el":34,"az":61,"ss":48,"used":true},{"PRN":1,"el":25,"az":268,"ss":44,"used":true},{"PRN":14,"el":72,"az":37,"ss":46,"used":true},{"PRN":12,"el":6,"az":30,"ss":46,"used":true},{"PRN":31,"el":86,"az":243,"ss":48,"used":true},{"PRN":11,"el":2,"az":263,"ss":-0,"used":false},{"PRN":16,"el":0,"az":184,"ss":-0,"used":false}]} 
11.740          GPSD_json            pGPSd           {"class":"SKY","device":"/dev/garmingps","xdop":0.58,"ydop":0.59,"vdop":1.15,"tdop":0.72,"hdop":0.82,"gdop":1.59,"pdop":1.42,"satellites":[{"PRN":10,"el":16,"az":150,"ss":39,"used":true},{"PRN":3,"el":26,"az":314,"ss":43,"used":true},{"PRN":26,"el":23,"az":171,"ss":29,"used":true},{"PRN":22,"el":45,"az":301,"ss":45,"used":true},{"PRN":32,"el":49,"az":83,"ss":43,"used":true},{"PRN":25,"el":34,"az":61,"ss":47,"used":true},{"PRN":1,"el":25,"az":268,"ss":43,"used":true},{"PRN":14,"el":72,"az":37,"ss":46,"used":true},{"PRN":12,"el":6,"az":30,"ss":44,"used":true},{"PRN":31,"el":86,"az":243,"ss":50,"used":true},{"PRN":11,"el":2,"az":263,"ss":-0,"used":false},{"PRN":16,"el":0,"az":184,"ss":-0,"used":false}]} 
12.743          GPSD_json            pGPSd           {"class":"SKY","device":"/dev/garmingps","xdop":0.58,"ydop":0.59,"vdop":1.15,"tdop":0.72,"hdop":0.82,"gdop":1.59,"pdop":1.42,"satellites":[{"PRN":10,"el":15,"az":150,"ss":39,"used":true},{"PRN":3,"el":26,"az":314,"ss":43,"used":true},{"PRN":26,"el":23,"az":171,"ss":31,"used":true},{"PRN":22,"el":45,"az":301,"ss":46,"used":true},{"PRN":32,"el":49,"az":83,"ss":44,"used":true},{"PRN":25,"el":34,"az":61,"ss":46,"used":true},{"PRN":1,"el":25,"az":268,"ss":43,"used":true},{"PRN":14,"el":72,"az":37,"ss":45,"used":true},{"PRN":12,"el":6,"az":30,"ss":43,"used":true},{"PRN":31,"el":86,"az":243,"ss":49,"used":true},{"PRN":11,"el":2,"az":263,"ss":-0,"used":false},{"PRN":16,"el":0,"az":184,"ss":-0,"used":false}]} 
13.745          GPSD_json            pGPSd           {"class":"SKY","device":"/dev/garmingps","xdop":0.58,"ydop":0.59,"vdop":1.15,"tdop":0.72,"hdop":0.82,"gdop":1.59,"pdop":1.42,"satellites":[{"PRN":10,"el":15,"az":150,"ss":37,"used":true},{"PRN":3,"el":26,"az":314,"ss":44,"used":true},{"PRN":26,"el":23,"az":171,"ss":33,"used":true},{"PRN":22,"el":45,"az":301,"ss":46,"used":true},{"PRN":32,"el":49,"az":83,"ss":48,"used":true},{"PRN":25,"el":34,"az":61,"ss":44,"used":true},{"PRN":1,"el":25,"az":268,"ss":42,"used":true},{"PRN":14,"el":72,"az":37,"ss":46,"used":true},{"PRN":12,"el":6,"az":30,"ss":43,"used":true},{"PRN":31,"el":86,"az":243,"ss":44,"used":true},{"PRN":11,"el":2,"az":263,"ss":-0,"used":false},{"PRN":16,"el":0,"az":184,"ss":-0,"used":false}]} 
14.747          GPSD_json            pGPSd           {"class":"SKY","device":"/dev/garmingps","xdop":0.58,"ydop":0.59,"vdop":1.15,"tdop":0.72,"hdop":0.82,"gdop":1.59,"pdop":1.42,"satellites":[{"PRN":10,"el":15,"az":150,"ss":36,"used":true},{"PRN":3,"el":26,"az":314,"ss":43,"used":true},{"PRN":26,"el":23,"az":171,"ss":33,"used":true},{"PRN":22,"el":45,"az":301,"ss":47,"used":true},{"PRN":32,"el":49,"az":83,"ss":49,"used":true},{"PRN":25,"el":34,"az":61,"ss":45,"used":true},{"PRN":1,"el":25,"az":268,"ss":44,"used":true},{"PRN":14,"el":72,"az":37,"ss":47,"used":true},{"PRN":12,"el":6,"az":30,"ss":43,"used":true},{"PRN":31,"el":86,"az":243,"ss":43,"used":true},{"PRN":11,"el":1,"az":262,"ss":-0,"used":false},{"PRN":16,"el":0,"az":184,"ss":-0,"used":false}]} 
15.749          GPSD_json            pGPSd           {"class":"SKY","device":"/dev/garmingps","xdop":0.58,"ydop":0.59,"vdop":1.15,"tdop":0.72,"hdop":0.82,"gdop":1.59,"pdop":1.42,"satellites":[{"PRN":10,"el":15,"az":150,"ss":36,"used":true},{"PRN":3,"el":26,"az":314,"ss":42,"used":true},{"PRN":26,"el":23,"az":171,"ss":33,"used":true},{"PRN":22,"el":45,"az":301,"ss":47,"used":true},{"PRN":32,"el":49,"az":83,"ss":49,"used":true},{"PRN":25,"el":34,"az":61,"ss":47,"used":true},{"PRN":1,"el":25,"az":268,"ss":44,"used":true},{"PRN":14,"el":72,"az":37,"ss":47,"used":true},{"PRN":12,"el":6,"az":30,"ss":42,"used":true},{"PRN":31,"el":86,"az":243,"ss":46,"used":true},{"PRN":11,"el":1,"az":262,"ss":-0,"used":false},{"PRN":16,"el":0,"az":184,"ss":-0,"used":false}]} 
16.751          GPSD_json            pGPSd           {"class":"SKY","device":"/dev/garmingps","xdop":0.58,"ydop":0.59,"vdop":1.15,"tdop":0.72,"hdop":0.82,"gdop":1.59,"pdop":1.42,"satellites":[{"PRN":10,"el":15,"az":150,"ss":36,"used":true},{"PRN":3,"el":26,"az":314,"ss":42,"used":true},{"PRN":26,"el":23,"az":171,"ss":33,"used":true},{"PRN":22,"el":45,"az":301,"ss":45,"used":true},{"PRN":32,"el":49,"az":83,"ss":46,"used":true},{"PRN":25,"el":34,"az":61,"ss":46,"used":true},{"PRN":1,"el":25,"az":268,"ss":44,"used":true},{"PRN":14,"el":72,"az":37,"ss":46,"used":true},{"PRN":12,"el":6,"az":30,"ss":43,"used":true},{"PRN":31,"el":86,"az":243,"ss":47,"used":true},{"PRN":11,"el":1,"az":262,"ss":-0,"used":false},{"PRN":16,"el":0,"az":184,"ss":-0,"used":false}]} 
17.752          GPSD_json            pGPSd           {"class":"SKY","device":"/dev/garmingps","xdop":0.58,"ydop":0.59,"vdop":1.15,"tdop":0.72,"hdop":0.82,"gdop":1.59,"pdop":1.42,"satellites":[{"PRN":10,"el":15,"az":150,"ss":34,"used":true},{"PRN":3,"el":26,"az":314,"ss":43,"used":true},{"PRN":26,"el":23,"az":171,"ss":33,"used":true},{"PRN":22,"el":45,"az":301,"ss":44,"used":true},{"PRN":32,"el":49,"az":83,"ss":47,"used":true},{"PRN":25,"el":34,"az":61,"ss":46,"used":true},{"PRN":1,"el":25,"az":268,"ss":43,"used":true},{"PRN":14,"el":72,"az":37,"ss":47,"used":true},{"PRN":12,"el":6,"az":30,"ss":42,"used":true},{"PRN":31,"el":86,"az":243,"ss":47,"used":true},{"PRN":11,"el":1,"az":262,"ss":-0,"used":false},{"PRN":16,"el":0,"az":184,"ss":-0,"used":false}]} 
18.754          GPSD_json            pGPSd           {"class":"SKY","device":"/dev/garmingps","xdop":0.58,"ydop":0.59,"vdop":1.15,"tdop":0.72,"hdop":0.82,"gdop":1.59,"pdop":1.42,"satellites":[{"PRN":10,"el":15,"az":150,"ss":32,"used":true},{"PRN":3,"el":26,"az":314,"ss":42,"used":true},{"PRN":26,"el":23,"az":171,"ss":33,"used":true},{"PRN":22,"el":45,"az":301,"ss":43,"used":true},{"PRN":32,"el":49,"az":83,"ss":47,"used":true},{"PRN":25,"el":34,"az":61,"ss":47,"used":true},{"PRN":1,"el":25,"az":268,"ss":43,"used":true},{"PRN":14,"el":72,"az":37,"ss":47,"used":true},{"PRN":12,"el":6,"az":30,"ss":44,"used":true},{"PRN":31,"el":86,"az":243,"ss":49,"used":true},{"PRN":11,"el":1,"az":262,"ss":-0,"used":false},{"PRN":16,"el":0,"az":184,"ss":-0,"used":false}]} 
19.755          GPSD_json            pGPSd           {"class":"SKY","device":"/dev/garmingps","xdop":0.58,"ydop":0.59,"vdop":1.15,"tdop":0.72,"hdop":0.82,"gdop":1.59,"pdop":1.42,"satellites":[{"PRN":10,"el":15,"az":150,"ss":33,"used":true},{"PRN":3,"el":26,"az":314,"ss":42,"used":true},{"PRN":26,"el":23,"az":171,"ss":33,"used":true},{"PRN":22,"el":45,"az":301,"ss":44,"used":true},{"PRN":32,"el":49,"az":83,"ss":48,"used":true},{"PRN":25,"el":34,"az":61,"ss":47,"used":true},{"PRN":1,"el":25,"az":268,"ss":43,"used":true},{"PRN":14,"el":72,"az":37,"ss":46,"used":true},{"PRN":12,"el":6,"az":30,"ss":43,"used":true},{"PRN":31,"el":86,"az":243,"ss":45,"used":true},{"PRN":11,"el":1,"az":262,"ss":-0,"used":false},{"PRN":16,"el":0,"az":184,"ss":-0,"used":false}]} 
20.758          GPSD_json            pGPSd           {"class":"SKY","device":"/dev/garmingps","xdop":0.58,"ydop":0.59,"vdop":1.15,"tdop":0.72,"hdop":0.82,"gdop":1.59,"pdop":1.42,"satellites":[{"PRN":10,"el":15,"az":150,"ss":38,"used":true},{"PRN":3,"el":26,"az":314,"ss":43,"used":true},{"PRN":26,"el":23,"az":171,"ss":33,"used":true},{"PRN":22,"el":45,"az":301,"ss":42,"used":true},{"PRN":32,"el":49,"az":83,"ss":49,"used":true},{"PRN":25,"el":34,"az":61,"ss":48,"used":true},{"PRN":1,"el":25,"az":268,"ss":43,"used":true},{"PRN":14,"el":72,"az":38,"ss":46,"used":true},{"PRN":12,"el":6,"az":30,"ss":43,"used":true},{"PRN":31,"el":86,"az":243,"ss":43,"used":true},{"PRN":11,"el":1,"az":262,"ss":-0,"used":false},{"PRN":16,"el":0,"az":184,"ss":-0,"used":false}]} 
21.760          GPSD_json            pGPSd           {"class":"SKY","device":"/dev/garmingps","xdop":0.58,"ydop":0.59,"vdop":1.15,"tdop":0.72,"hdop":0.82,"gdop":1.59,"pdop":1.42,"satellites":[{"PRN":10,"el":15,"az":150,"ss":35,"used":true},{"PRN":3,"el":26,"az":314,"ss":43,"used":true},{"PRN":26,"el":23,"az":171,"ss":34,"used":true},{"PRN":22,"el":45,"az":301,"ss":40,"used":true},{"PRN":32,"el":49,"az":83,"ss":46,"used":true},{"PRN":25,"el":34,"az":61,"ss":49,"used":true},{"PRN":1,"el":25,"az":268,"ss":45,"used":true},{"PRN":14,"el":72,"az":38,"ss":46,"used":true},{"PRN":12,"el":6,"az":30,"ss":41,"used":true},{"PRN":31,"el":86,"az":243,"ss":46,"used":true},{"PRN":11,"el":1,"az":262,"ss":-0,"used":false},{"PRN":16,"el":0,"az":184,"ss":-0,"used":false}]} 
22.763          GPSD_json            pGPSd           {"class":"SKY","device":"/dev/garmingps","xdop":0.58,"ydop":0.59,"vdop":1.15,"tdop":0.72,"hdop":0.82,"gdop":1.59,"pdop":1.42,"satellites":[{"PRN":10,"el":15,"az":150,"ss":35,"used":true},{"PRN":3,"el":26,"az":314,"ss":43,"used":true},{"PRN":26,"el":23,"az":171,"ss":35,"used":true},{"PRN":22,"el":45,"az":301,"ss":42,"used":true},{"PRN":32,"el":49,"az":83,"ss":46,"used":true},{"PRN":25,"el":34,"az":61,"ss":45,"used":true},{"PRN":1,"el":25,"az":268,"ss":45,"used":true},{"PRN":14,"el":72,"az":38,"ss":46,"used":true},{"PRN":12,"el":6,"az":30,"ss":43,"used":true},{"PRN":31,"el":86,"az":243,"ss":47,"used":true},{"PRN":11,"el":1,"az":262,"ss":-0,"used":false},{"PRN":16,"el":0,"az":184,"ss":-0,"used":false}]} 
23.764          GPSD_json            pGPSd           {"class":"SKY","device":"/dev/garmingps","xdop":0.58,"ydop":0.59,"vdop":1.15,"tdop":0.72,"hdop":0.82,"gdop":1.59,"pdop":1.42,"satellites":[{"PRN":10,"el":15,"az":150,"ss":34,"used":true},{"PRN":3,"el":26,"az":314,"ss":41,"used":true},{"PRN":26,"el":23,"az":171,"ss":35,"used":true},{"PRN":22,"el":45,"az":301,"ss":41,"used":true},{"PRN":32,"el":49,"az":83,"ss":44,"used":true},{"PRN":25,"el":34,"az":61,"ss":46,"used":true},{"PRN":1,"el":25,"az":268,"ss":44,"used":true},{"PRN":14,"el":72,"az":38,"ss":45,"used":true},{"PRN":12,"el":6,"az":30,"ss":42,"used":true},{"PRN":31,"el":86,"az":243,"ss":46,"used":true},{"PRN":11,"el":1,"az":262,"ss":-0,"used":false},{"PRN":16,"el":0,"az":184,"ss":-0,"used":false}]} 
24.766          GPSD_json            pGPSd           {"class":"SKY","device":"/dev/garmingps","xdop":0.58,"ydop":0.59,"vdop":1.15,"tdop":0.72,"hdop":0.82,"gdop":1.59,"pdop":1.42,"satellites":[{"PRN":10,"el":15,"az":150,"ss":38,"used":true},{"PRN":3,"el":26,"az":314,"ss":42,"used":true},{"PRN":26,"el":23,"az":171,"ss":34,"used":true},{"PRN":22,"el":45,"az":301,"ss":44,"used":true},{"PRN":32,"el":49,"az":83,"ss":44,"used":true},{"PRN":25,"el":34,"az":61,"ss":44,"used":true},{"PRN":1,"el":25,"az":268,"ss":45,"used":true},{"PRN":14,"el":72,"az":38,"ss":45,"used":true},{"PRN":12,"el":6,"az":30,"ss":42,"used":true},{"PRN":31,"el":86,"az":243,"ss":46,"used":true},{"PRN":11,"el":1,"az":262,"ss":-0,"used":false},{"PRN":16,"el":0,"az":184,"ss":-0,"used":false}]} 
25.767          GPSD_json            pGPSd           {"class":"SKY","device":"/dev/garmingps","xdop":0.58,"ydop":0.59,"vdop":1.15,"tdop":0.72,"hdop":0.82,"gdop":1.59,"pdop":1.42,"satellites":[{"PRN":10,"el":15,"az":150,"ss":38,"used":true},{"PRN":3,"el":26,"az":314,"ss":43,"used":true},{"PRN":26,"el":23,"az":171,"ss":34,"used":true},{"PRN":22,"el":45,"az":301,"ss":46,"used":true},{"PRN":32,"el":49,"az":83,"ss":42,"used":true},{"PRN":25,"el":34,"az":61,"ss":45,"used":true},{"PRN":1,"el":25,"az":268,"ss":44,"used":true},{"PRN":14,"el":72,"az":38,"ss":46,"used":true},{"PRN":12,"el":6,"az":30,"ss":42,"used":true},{"PRN":31,"el":86,"az":243,"ss":45,"used":true},{"PRN":11,"el":1,"az":262,"ss":-0,"used":false},{"PRN":16,"el":0,"az":184,"ss":-0,"used":false}]} 
26.769          GPSD_json            pGPSd           {"class":"SKY","device":"/dev/garmingps","xdop":0.58,"ydop":0.59,"vdop":1.15,"tdop":0.72,"hdop":0.82,"gdop":1.59,"pdop":1.42,"satellites":[{"PRN":10,"el":15,"az":150,"ss":37,"used":true},{"PRN":3,"el":26,"az":314,"ss":43,"used":true},{"PRN":26,"el":23,"az":171,"ss":32,"used":true},{"PRN":22,"el":45,"az":301,"ss":46,"used":true},{"PRN":32,"el":49,"az":83,"ss":42,"used":true},{"PRN":25,"el":34,"az":61,"ss":44,"used":true},{"PRN":1,"el":25,"az":268,"ss":43,"used":true},{"PRN":14,"el":72,"az":38,"ss":46,"used":true},{"PRN":12,"el":6,"az":30,"ss":43,"used":true},{"PRN":31,"el":86,"az":243,"ss":46,"used":true},{"PRN":11,"el":1,"az":262,"ss":-0,"used":false},{"PRN":16,"el":0,"az":184,"ss":-0,"used":false}]} 
27.772          GPSD_json            pGPSd           {"class":"SKY","device":"/dev/garmingps","xdop":0.58,"ydop":0.59,"vdop":1.15,"tdop":0.72,"hdop":0.82,"gdop":1.59,"pdop":1.42,"satellites":[{"PRN":10,"el":15,"az":150,"ss":37,"used":true},{"PRN":3,"el":26,"az":314,"ss":40,"used":true},{"PRN":26,"el":23,"az":171,"ss":31,"used":true},{"PRN":22,"el":45,"az":301,"ss":43,"used":true},{"PRN":32,"el":49,"az":83,"ss":45,"used":true},{"PRN":25,"el":34,"az":61,"ss":45,"used":true},{"PRN":1,"el":25,"az":268,"ss":42,"used":true},{"PRN":14,"el":72,"az":38,"ss":44,"used":true},{"PRN":12,"el":6,"az":30,"ss":45,"used":true},{"PRN":31,"el":86,"az":243,"ss":48,"used":true},{"PRN":11,"el":1,"az":262,"ss":-0,"used":false},{"PRN":16,"el":0,"az":184,"ss":-0,"used":false}]} 
28.774          GPSD_json            pGPSd           {"class":"SKY","device":"/dev/garmingps","xdop":0.58,"ydop":0.59,"vdop":1.15,"tdop":0.72,"hdop":0.82,"gdop":1.59,"pdop":1.42,"satellites":[{"PRN":10,"el":15,"az":150,"ss":33,"used":true},{"PRN":3,"el":26,"az":314,"ss":43,"used":true},{"PRN":26,"el":23,"az":171,"ss":30,"used":true},{"PRN":22,"el":45,"az":301,"ss":43,"used":true},{"PRN":32,"el":49,"az":83,"ss":41,"used":true},{"PRN":25,"el":34,"az":61,"ss":45,"used":true},{"PRN":1,"el":25,"az":268,"ss":42,"used":true},{"PRN":14,"el":72,"az":38,"ss":46,"used":true},{"PRN":12,"el":6,"az":30,"ss":46,"used":true},{"PRN":31,"el":86,"az":243,"ss":48,"used":true},{"PRN":11,"el":1,"az":262,"ss":-0,"used":false},{"PRN":16,"el":0,"az":184,"ss":-0,"used":false}]} 
29.776          GPSD_json            pGPSd           {"class":"SKY","device":"/dev/garmingps","xdop":0.58,"ydop":0.59,"vdop":1.15,"tdop":0.72,"hdop":0.82,"gdop":1.59,"pdop":1.42,"satellites":[{"PRN":10,"el":15,"az":150,"ss":32,"used":true},{"PRN":3,"el":26,"az":314,"ss":43,"used":true},{"PRN":26,"el":23,"az":171,"ss":28,"used":true},{"PRN":22,"el":45,"az":301,"ss":44,"used":true},{"PRN":32,"el":49,"az":83,"ss":45,"used":true},{"PRN":25,"el":34,"az":61,"ss":46,"used":true},{"PRN":1,"el":25,"az":268,"ss":43,"used":true},{"PRN":14,"el":72,"az":38,"ss":46,"used":true},{"PRN":12,"el":6,"az":30,"ss":45,"used":true},{"PRN":31,"el":86,"az":243,"ss":47,"used":true},{"PRN":11,"el":1,"az":262,"ss":-0,"used":false},{"PRN":16,"el":0,"az":184,"ss":-0,"used":false}]} 
30.778          GPSD_json            pGPSd           {"class":"SKY","device":"/dev/garmingps","xdop":0.58,"ydop":0.59,"vdop":1.15,"tdop":0.72,"hdop":0.82,"gdop":1.59,"pdop":1.42,"satellites":[{"PRN":10,"el":15,"az":150,"ss":33,"used":true},{"PRN":3,"el":26,"az":314,"ss":42,"used":true},{"PRN":26,"el":23,"az":171,"ss":30,"used":true},{"PRN":22,"el":45,"az":301,"ss":43,"used":true},{"PRN":32,"el":49,"az":83,"ss":43,"used":true},{"PRN":25,"el":34,"az":61,"ss":46,"used":true},{"PRN":1,"el":25,"az":268,"ss":42,"used":true},{"PRN":14,"el":72,"az":38,"ss":45,"used":true},{"PRN":12,"el":6,"az":30,"ss":46,"used":true},{"PRN":31,"el":86,"az":243,"ss":47,"used":true},{"PRN":11,"el":1,"az":262,"ss":-0,"used":false},{"PRN":16,"el":0,"az":184,"ss":-0,"used":false}]} 
31.779          GPSD_json            pGPSd           {"class":"SKY","device":"/dev/garmingps","xdop":0.58,"ydop":0.59,"vdop":1.15,"tdop":0.72,"hdop":0.82,"gdop":1.59,"pdop":1.42,"satellites":[{"PRN":10,"el":15,"az":150,"ss":33,"used":true},{"PRN":3,"el":26,"az":314,"ss":41,"used":true},{"PRN":26,"el":23,"az":171,"ss":30,"used":true},{"PRN":22,"el":45,"az":301,"ss":45,"used":true},{"PRN":32,"el":49,"az":83,"ss":40,"used":true},{"PRN":25,"el":34,"az":61,"ss":46,"used":true},{"PRN":1,"el":25,"az":268,"ss":43,"used":true},{"PRN":14,"el":72,"az":38,"ss":47,"used":true},{"PRN":12,"el":6,"az":30,"ss":45,"used":true},{"PRN":31,"el":86,"az":243,"ss":45,"used":true},{"PRN":11,"el":1,"az":262,"ss":-0,"used":false},{"PRN":16,"el":0,"az":184,"ss":-0,"used":false}]} 
32.782          GPSD_json            pGPSd           {"class":"SKY","device":"/dev/garmingps","xdop":0.58,"ydop":0.59,"vdop":1.15,"tdop":0.72,"hdop":0.82,"gdop":1.59,"pdop":1.42,"satellites":[{"PRN":10,"el":15,"az":150,"ss":33,"used":true},{"PRN":3,"el":26,"az":314,"ss":41,"used":true},{"PRN":26,"el":23,"az":171,"ss":30,"used":true},{"PRN":22,"el":45,"az":301,"ss":45,"used":true},{"PRN":32,"el":49,"az":83,"ss":45,"used":true},{"PRN":25,"el":34,"az":61,"ss":44,"used":true},{"PRN":1,"el":25,"az":268,"ss":43,"used":true},{"PRN":14,"el":72,"az":38,"ss":47,"used":true},{"PRN":12,"el":6,"az":30,"ss":46,"used":true},{"PRN":31,"el":86,"az":243,"ss":47,"used":true},{"PRN":11,"el":1,"az":262,"ss":-0,"used":false},{"PRN":16,"el":0,"az":184,"ss":-0,"used":false}]} 
33.784          GPSD_json            pGPSd           {"class":"SKY","device":"/dev/garmingps","xdop":0.58,"ydop":0.59,"vdop":1.15,"tdop":0.72,"hdop":0.82,"gdop":1.59,"pdop":1.42,"satellites":[{"PRN":10,"el":15,"az":150,"ss":33,"used":true},{"PRN":3,"el":26,"az":314,"ss":42,"used":true},{"PRN":26,"el":23,"az":171,"ss":29,"used":true},{"PRN":22,"el":45,"az":301,"ss":45,"used":true},{"PRN":32,"el":49,"az":83,"ss":42,"used":true},{"PRN":25,"el":34,"az":61,"ss":46,"used":true},{"PRN":1,"el":25,"az":268,"ss":42,"used":true},{"PRN":14,"el":72,"az":38,"ss":45,"used":true},{"PRN":12,"el":6,"az":30,"ss":44,"used":true},{"PRN":31,"el":86,"az":243,"ss":47,"used":true},{"PRN":11,"el":1,"az":262,"ss":-0,"used":false},{"PRN":16,"el":0,"az":184,"ss":-0,"used":false}]} 
34.785          GPSD_json            pGPSd           {"class":"SKY","device":"/dev/garmingps","xdop":0.58,"ydop":0.59,"vdop":1.15,"tdop":0.72,"hdop":0.82,"gdop":1.59,"pdop":1.42,"satellites":[{"PRN":10,"el":15,"az":150,"ss":34,"used":true},{"PRN":3,"el":26,"az":314,"ss":43,"used":true},{"PRN":26,"el":23,"az":171,"ss":33,"used":true},{"PRN":22,"el":45,"az":301,"ss":45,"used":true},{"PRN":32,"el":49,"az":83,"ss":43,"used":true},{"PRN":25,"el":34,"az":61,"ss":48,"used":true},{"PRN":1,"el":25,"az":268,"ss":41,"used":true},{"PRN":14,"el":72,"az":38,"ss":46,"used":true},{"PRN":12,"el":6,"az":30,"ss":44,"used":true},{"PRN":31,"el":86,"az":243,"ss":48,"used":true},{"PRN":11,"el":1,"az":262,"ss":-0,"used":false},{"PRN":16,"el":0,"az":184,"ss":-0,"used":false}]} 
35.786          GPSD_json            pGPSd           {"class":"SKY","device":"/dev/garmingps","xdop":0.58,"ydop":0.59,"vdop":1.15,"tdop":0.72,"hdop":0.82,"gdop":1.59,"pdop":1.42,"satellites":[{"PRN":10,"el":15,"az":150,"ss":36,"used":true},{"PRN":3,"el":26,"az":314,"ss":44,"used":true},{"PRN":26,"el":23,"az":171,"ss":32,"used":true},{"PRN":22,"el":45,"az":301,"ss":44,"used":true},{"PRN":32,"el":49,"az":83,"ss":43,"used":true},{"PRN":25,"el":34,"az":61,"ss":46,"used":true},{"PRN":1,"el":25,"az":268,"ss":42,"used":true},{"PRN":14,"el":72,"az":38,"ss":47,"used":true},{"PRN":12,"el":6,"az":30,"ss":46,"used":true},{"PRN":31,"el":86,"az":243,"ss":45,"used":true},{"PRN":11,"el":1,"az":262,"ss":-0,"used":false},{"PRN":16,"el":0,"az":184,"ss":-0,"used":false}]} 
36.787          GPSD_json            pGPSd           {"class":"SKY","device":"/dev/garmingps","xdop":0.58,"ydop":0.59,"vdop":1.15,"tdop":0.72,"hdop":0.82,"gdop":1.59,"pdop":1.42,"satellites":[{"PRN":10,"el":15,"az":150,"ss":38,"used":true},{"PRN":3,"el":26,"az":314,"ss":43,"used":true},{"PRN":26,"el":23,"az":171,"ss":34,"used":true},{"PRN":22,"el":45,"az":300,"ss":44,"used":true},{"PRN":32,"el":49,"az":83,"ss":44,"used":true},{"PRN":25,"el":34,"az":61,"ss":46,"used":true},{"PRN":1,"el":25,"az":268,"ss":41,"used":true},{"PRN":14,"el":72,"az":38,"ss":46,"used":true},{"PRN":12,"el":6,"az":30,"ss":46,"used":true},{"PRN":31,"el":86,"az":243,"ss":46,"used":true},{"PRN":11,"el":1,"az":262,"ss":-0,"used":false},{"PRN":16,"el":0,"az":184,"ss":-0,"used":false}]} 
37.790          GPSD_json            pGPSd           {"class":"SKY","device":"/dev/garmingps","xdop":0.58,"ydop":0.59,"vdop":1.15,"tdop":0.72,"hdop":0.82,"gdop":1.59,"pdop":1.42,"satellites":[{"PRN":10,"el":15,"az":150,"ss":38,"used":true},{"PRN":3,"el":26,"az":314,"ss":43,"used":true},{"PRN":26,"el":23,"az":171,"ss":36,"used":true},{"PRN":22,"el":45,"az":300,"ss":45,"used":true},{"PRN":32,"el":49,"az":83,"ss":44,"used":true},{"PRN":25,"el":34,"az":61,"ss":45,"used":true},{"PRN":1,"el":25,"az":268,"ss":42,"used":true},{"PRN":14,"el":72,"az":38,"ss":46,"used":true},{"PRN":12,"el":6,"az":30,"ss":44,"used":true},{"PRN":31,"el":86,"az":243,"ss":44,"used":true},{"PRN":11,"el":1,"az":262,"ss":-0,"used":false},{"PRN":16,"el":0,"az":184,"ss":-0,"used":false}]} 
38.792          GPSD_json            pGPSd           {"class":"SKY","device":"/dev/garmingps","xdop":0.58,"ydop":0.59,"vdop":1.15,"tdop":0.72,"hdop":0.82,"gdop":1.59,"pdop":1.42,"satellites":[{"PRN":10,"el":15,"az":150,"ss":38,"used":true},{"PRN":3,"el":26,"az":314,"ss":43,"used":true},{"PRN":26,"el":23,"az":171,"ss":36,"used":true},{"PRN":22,"el":45,"az":300,"ss":44,"used":true},{"PRN":32,"el":49,"az":83,"ss":44,"used":true},{"PRN":25,"el":34,"az":61,"ss":46,"used":true},{"PRN":1,"el":25,"az":268,"ss":43,"used":true},{"PRN":14,"el":72,"az":38,"ss":46,"used":true},{"PRN":12,"el":6,"az":30,"ss":42,"used":true},{"PRN":31,"el":86,"az":243,"ss":45,"used":true},{"PRN":11,"el":1,"az":262,"ss":-0,"used":false},{"PRN":16,"el":0,"az":184,"ss":-0,"used":false}]} 
39.794          GPSD_json            pGPSd           {"class":"SKY","device":"/dev/garmingps","xdop":0.58,"ydop":0.59,"vdop":1.15,"tdop":0.72,"hdop":0.82,"gdop":1.59,"pdop":1.42,"satellites":[{"PRN":10,"el":15,"az":150,"ss":39,"used":true},{"PRN":3,"el":26,"az":314,"ss":42,"used":true},{"PRN":26,"el":23,"az":171,"ss":35,"used":true},{"PRN":22,"el":45,"az":300,"ss":45,"used":true},{"PRN":32,"el":49,"az":83,"ss":45,"used":true},{"PRN":25,"el":34,"az":61,"ss":45,"used":true},{"PRN":1,"el":25,"az":268,"ss":44,"used":true},{"PRN":14,"el":72,"az":38,"ss":47,"used":true},{"PRN":12,"el":6,"az":30,"ss":42,"used":true},{"PRN":31,"el":86,"az":243,"ss":44,"used":true},{"PRN":11,"el":1,"az":262,"ss":-0,"used":false},{"PRN":16,"el":0,"az":184,"ss":-0,"used":false}]} 
40.797          GPSD_json            pGPSd           {"class":"SKY","device":"/dev/garmingps","xdop":0.58,"ydop":0.59,"vdop":1.15,"tdop":0.72,"hdop":0.82,"gdop":1.59,"pdop":1.42,"satellites":[{"PRN":10,"el":15,"az":150,"ss":39,"used":true},{"PRN":3,"el":26,"az":314,"ss":43,"used":true},{"PRN":26,"el":23,"az":171,"ss":29,"used":true},{"PRN":22,"el":45,"az":300,"ss":44,"used":true},{"PRN":32,"el":49,"az":83,"ss":47,"used":true},{"PRN":25,"el":34,"az":61,"ss":44,"used":true},{"PRN":1,"el":25,"az":268,"ss":43,"used":true},{"PRN":14,"el":72,"az":38,"ss":46,"used":true},{"PRN":12,"el":6,"az":30,"ss":40,"used":true},{"PRN":31,"el":86,"az":243,"ss":46,"used":true},{"PRN":11,"el":1,"az":262,"ss":-0,"used":false},{"PRN":16,"el":0,"az":184,"ss":-0,"used":false}]} 
41.798          GPSD_json            pGPSd           {"class":"SKY","device":"/dev/garmingps","xdop":0.58,"ydop":0.59,"vdop":1.15,"tdop":0.72,"hdop":0.82,"gdop":1.59,"pdop":1.42,"satellites":[{"PRN":10,"el":15,"az":150,"ss":38,"used":true},{"PRN":3,"el":26,"az":314,"ss":42,"used":true},{"PRN":26,"el":23,"az":171,"ss":27,"used":true},{"PRN":22,"el":45,"az":300,"ss":43,"used":true},{"PRN":32,"el":49,"az":83,"ss":46,"used":true},{"PRN":25,"el":34,"az":61,"ss":42,"used":true},{"PRN":1,"el":25,"az":268,"ss":43,"used":true},{"PRN":14,"el":72,"az":38,"ss":48,"used":true},{"PRN":12,"el":6,"az":30,"ss":42,"used":true},{"PRN":31,"el":86,"az":243,"ss":46,"used":true},{"PRN":11,"el":1,"az":262,"ss":-0,"used":false},{"PRN":16,"el":0,"az":184,"ss":-0,"used":false}]} 
42.800          GPSD_json            pGPSd           {"class":"SKY","device":"/dev/garmingps","xdop":0.58,"ydop":0.59,"vdop":1.15,"tdop":0.72,"hdop":0.82,"gdop":1.59,"pdop":1.42,"satellites":[{"PRN":10,"el":15,"az":150,"ss":37,"used":true},{"PRN":3,"el":26,"az":314,"ss":43,"used":true},{"PRN":26,"el":23,"az":171,"ss":26,"used":true},{"PRN":22,"el":45,"az":300,"ss":42,"used":true},{"PRN":32,"el":49,"az":83,"ss":43,"used":true},{"PRN":25,"el":34,"az":61,"ss":43,"used":true},{"PRN":1,"el":25,"az":268,"ss":43,"used":true},{"PRN":14,"el":72,"az":38,"ss":44,"used":true},{"PRN":12,"el":6,"az":30,"ss":43,"used":true},{"PRN":31,"el":86,"az":243,"ss":47,"used":true},{"PRN":11,"el":1,"az":262,"ss":-0,"used":false},{"PRN":16,"el":0,"az":184,"ss":-0,"used":false}]} 
43.801          GPSD_json            pGPSd           {"class":"SKY","device":"/dev/garmingps","xdop":0.58,"ydop":0.59,"vdop":1.15,"tdop":0.72,"hdop":0.82,"gdop":1.59,"pdop":1.42,"satellites":[{"PRN":10,"el":15,"az":150,"ss":39,"used":true},{"PRN":3,"el":26,"az":314,"ss":44,"used":true},{"PRN":26,"el":23,"az":171,"ss":36,"used":true},{"PRN":22,"el":45,"az":300,"ss":45,"used":true},{"PRN":32,"el":49,"az":83,"ss":44,"used":true},{"PRN":25,"el":34,"az":61,"ss":45,"used":true},{"PRN":1,"el":25,"az":268,"ss":43,"used":true},{"PRN":14,"el":72,"az":38,"ss":45,"used":true},{"PRN":12,"el":6,"az":30,"ss":44,"used":true},{"PRN":31,"el":86,"az":243,"ss":45,"used":true},{"PRN":11,"el":1,"az":262,"ss":-0,"used":false},{"PRN":16,"el":0,"az":184,"ss":-0,"used":false}]} 
44.802          GPSD_json            pGPSd           {"class":"SKY","device":"/dev/garmingps","xdop":0.58,"ydop":0.59,"vdop":1.15,"tdop":0.72,"hdop":0.82,"gdop":1.59,"pdop":1.42,"satellites":[{"PRN":10,"el":15,"az":150,"ss":41,"used":true},{"PRN":3,"el":26,"az":314,"ss":44,"used":true},{"PRN":26,"el":24,"az":171,"ss":36,"used":true},{"PRN":22,"el":45,"az":300,"ss":42,"used":true},{"PRN":32,"el":49,"az":83,"ss":42,"used":true},{"PRN":25,"el":34,"az":61,"ss":44,"used":true},{"PRN":1,"el":25,"az":268,"ss":43,"used":true},{"PRN":14,"el":72,"az":38,"ss":47,"used":true},{"PRN":12,"el":6,"az":30,"ss":44,"used":true},{"PRN":31,"el":86,"az":243,"ss":45,"used":true},{"PRN":11,"el":1,"az":262,"ss":-0,"used":false},{"PRN":16,"el":0,"az":184,"ss":-0,"used":false}]} 
45.805          GPSD_json            pGPSd           {"class":"SKY","device":"/dev/garmingps","xdop":0.58,"ydop":0.59,"vdop":1.15,"tdop":0.72,"hdop":0.82,"gdop":1.59,"pdop":1.42,"satellites":[{"PRN":10,"el":15,"az":150,"ss":37,"used":true},{"PRN":3,"el":26,"az":314,"ss":43,"used":true},{"PRN":26,"el":24,"az":171,"ss":33,"used":true},{"PRN":22,"el":45,"az":300,"ss":43,"used":true},{"PRN":32,"el":49,"az":83,"ss":42,"used":true},{"PRN":25,"el":34,"az":61,"ss":45,"used":true},{"PRN":1,"el":25,"az":268,"ss":43,"used":true},{"PRN":14,"el":72,"az":38,"ss":47,"used":true},{"PRN":12,"el":6,"az":30,"ss":43,"used":true},{"PRN":31,"el":86,"az":243,"ss":46,"used":true},{"PRN":11,"el":1,"az":262,"ss":-0,"used":false},{"PRN":16,"el":0,"az":184,"ss":-0,"used":false}]} 
46.807          GPSD_json            pGPSd           {"class":"SKY","device":"/dev/garmingps","xdop":0.58,"ydop":0.59,"vdop":1.15,"tdop":0.72,"hdop":0.82,"gdop":1.59,"pdop":1.42,"satellites":[{"PRN":10,"el":15,"az":150,"ss":37,"used":true},{"PRN":3,"el":26,"az":314,"ss":43,"used":true},{"PRN":26,"el":24,"az":171,"ss":36,"used":true},{"PRN":22,"el":45,"az":300,"ss":44,"used":true},{"PRN":32,"el":49,"az":83,"ss":43,"used":true},{"PRN":25,"el":34,"az":61,"ss":46,"used":true},{"PRN":1,"el":25,"az":268,"ss":44,"used":true},{"PRN":14,"el":72,"az":38,"ss":47,"used":true},{"PRN":12,"el":6,"az":30,"ss":44,"used":true},{"PRN":31,"el":86,"az":243,"ss":46,"used":true},{"PRN":11,"el":1,"az":262,"ss":-0,"used":false},{"PRN":16,"el":0,"az":184,"ss":-0,"used":false}]} 
47.808          GPSD_json            pGPSd           {"class":"SKY","device":"/dev/garmingps","xdop":0.58,"ydop":0.59,"vdop":1.15,"tdop":0.72,"hdop":0.82,"gdop":1.59,"pdop":1.42,"satellites":[{"PRN":10,"el":15,"az":150,"ss":34,"used":true},{"PRN":3,"el":26,"az":314,"ss":43,"used":true},{"PRN":26,"el":24,"az":171,"ss":35,"used":true},{"PRN":22,"el":45,"az":300,"ss":44,"used":true},{"PRN":32,"el":49,"az":83,"ss":45,"used":true},{"PRN":25,"el":34,"az":61,"ss":47,"used":true},{"PRN":1,"el":25,"az":268,"ss":43,"used":true},{"PRN":14,"el":72,"az":38,"ss":47,"used":true},{"PRN":12,"el":6,"az":30,"ss":44,"used":true},{"PRN":31,"el":86,"az":243,"ss":46,"used":true},{"PRN":11,"el":1,"az":262,"ss":-0,"used":false},{"PRN":16,"el":0,"az":184,"ss":-0,"used":false}]} 
48.809          GPSD_json            pGPSd           {"class":"SKY","device":"/dev/garmingps","xdop":0.58,"ydop":0.59,"vdop":1.15,"tdop":0.72,"hdop":0.82,"gdop":1.59,"pdop":1.42,"satellites":[{"PRN":10,"el":15,"az":150,"ss":34,"used":true},{"PRN":3,"el":26,"az":314,"ss":44,"used":true},{"PRN":26,"el":24,"az":171,"ss":35,"used":true},{"PRN":22,"el":45,"az":300,"ss":45,"used":true},{"PRN":32,"el":49,"az":83,"ss":47,"used":true},{"PRN":25,"el":34,"az":61,"ss":44,"used":true},{"PRN":1,"el":25,"az":268,"ss":43,"used":true},{"PRN":14,"el":72,"az":38,"ss":46,"used":true},{"PRN":12,"el":6,"az":30,"ss":44,"used":true},{"PRN":31,"el":86,"az":243,"ss":46,"used":true},{"PRN":11,"el":1,"az":262,"ss":-0,"used":false},{"PRN":16,"el":0,"az":184,"ss":-0,"used":false}]} 
49.811          GPSD_json            pGPSd           {"class":"SKY","device":"/dev/garmingps","xdop":0.58,"ydop":0.59,"vdop":1.15,"tdop":0.72,"hdop":0.82,"gdop":1.59,"pdop":1.42,"satellites":[{"PRN":10,"el":15,"az":150,"ss":35,"used":true},{"PRN":3,"el":26,"az":314,"ss":44,"used":true},{"PRN":26,"el":24,"az":171,"ss":34,"used":true},{"PRN":22,"el":45,"az":300,"ss":43,"used":true},{"PRN":32,"el":49,"az":83,"ss":46,"used":true},{"PRN":25,"el":34,"az":61,"ss":42,"used":true},{"PRN":1,"el":25,"az":268,"ss":43,"used":true},{"PRN":14,"el":72,"az":38,"ss":48,"used":true},{"PRN":12,"el":6,"az":30,"ss":45,"used":true},{"PRN":31,"el":86,"az":243,"ss":46,"used":true},{"PRN":11,"el":1,"az":262,"ss":-0,"used":false},{"PRN":16,"el":0,"az":184,"ss":-0,"used":false}]} 
50.812          GPSD_json            pGPSd           {"class":"SKY","device":"/dev/garmingps","xdop":0.58,"ydop":0.59,"vdop":1.15,"tdop":0.72,"hdop":0.82,"gdop":1.59,"pdop":1.42,"satellites":[{"PRN":10,"el":15,"az":150,"ss":37,"used":true},{"PRN":3,"el":26,"az":314,"ss":44,"used":true},{"PRN":26,"el":24,"az":171,"ss":33,"used":true},{"PRN":22,"el":45,"az":300,"ss":42,"used":true},{"PRN":32,"el":49,"az":83,"ss":45,"used":true},{"PRN":25,"el":34,"az":61,"ss":39,"used":true},{"PRN":1,"el":25,"az":268,"ss":44,"used":true},{"PRN":14,"el":72,"az":38,"ss":47,"used":true},{"PRN":12,"el":6,"az":30,"ss":43,"used":true},{"PRN":31,"el":86,"az":243,"ss":48,"used":true},{"PRN":11,"el":1,"az":262,"ss":-0,"used":false},{"PRN":16,"el":0,"az":184,"ss":-0,"used":false}]} 
51.815          GPSD_json            pGPSd           {"class":"SKY","device":"/dev/garmingps","xdop":0.58,"ydop":0.59,"vdop":1.15,"tdop":0.72,"hdop":0.82,"gdop":1.59,"pdop":1.42,"satellites":[{"PRN":10,"el":15,"az":150,"ss":36,"used":true},{"PRN":3,"el":26,"az":314,"ss":44,"used":true},{"PRN":26,"el":24,"az":171,"ss":31,"used":true},{"PRN":22,"el":45,"az":300,"ss":42,"used":true},{"PRN":32,"el":49,"az":83,"ss":44,"used":true},{"PRN":25,"el":34,"az":61,"ss":40,"used":true},{"PRN":1,"el":25,"az":268,"ss":44,"used":true},{"PRN":14,"el":72,"az":38,"ss":47,"used":true},{"PRN":12,"el":6,"az":30,"ss":42,"used":true},{"PRN":31,"el":86,"az":243,"ss":47,"used":true},{"PRN":11,"el":1,"az":262,"ss":-0,"used":false},{"PRN":16,"el":0,"az":184,"ss":-0,"used":false}]} 
52.816          GPSD_json            pGPSd           {"class":"SKY","device":"/dev/garmingps","xdop":0.58,"ydop":0.59,"vdop":1.15,"tdop":0.72,"hdop":0.82,"gdop":1.59,"pdop":1.42,"satellites":[{"PRN":10,"el":15,"az":150,"ss":35,"used":true},{"PRN":3,"el":26,"az":314,"ss":45,"used":true},{"PRN":26,"el":24,"az":171,"ss":31,"used":true},{"PRN":22,"el":45,"az":300,"ss":44,"used":true},{"PRN":32,"el":49,"az":83,"ss":44,"used":true},{"PRN":25,"el":34,"az":61,"ss":44,"used":true},{"PRN":1,"el":25,"az":268,"ss":43,"used":true},{"PRN":14,"el":72,"az":38,"ss":46,"used":true},{"PRN":12,"el":6,"az":30,"ss":43,"used":true},{"PRN":31,"el":86,"az":243,"ss":48,"used":true},{"PRN":11,"el":1,"az":262,"ss":-0,"used":false},{"PRN":16,"el":0,"az":184,"ss":-0,"used":false}]} 
53.818          GPSD_json            pGPSd           {"class":"SKY","device":"/dev/garmingps","xdop":0.58,"ydop":0.59,"vdop":1.15,"tdop":0.72,"hdop":0.82,"gdop":1.59,"pdop":1.42,"satellites":[{"PRN":10,"el":15,"az":150,"ss":33,"used":true},{"PRN":3,"el":26,"az":314,"ss":45,"used":true},{"PRN":26,"el":24,"az":171,"ss":32,"used":true},{"PRN":22,"el":45,"az":300,"ss":45,"used":true},{"PRN":32,"el":49,"az":83,"ss":43,"used":true},{"PRN":25,"el":34,"az":61,"ss":45,"used":true},{"PRN":1,"el":25,"az":268,"ss":43,"used":true},{"PRN":14,"el":72,"az":38,"ss":45,"used":true},{"PRN":12,"el":6,"az":30,"ss":41,"used":true},{"PRN":31,"el":86,"az":243,"ss":49,"used":true},{"PRN":11,"el":1,"az":262,"ss":-0,"used":false},{"PRN":16,"el":0,"az":184,"ss":-0,"used":false}]} 
54.819          GPSD_json            pGPSd           {"class":"SKY","device":"/dev/garmingps","xdop":0.58,"ydop":0.59,"vdop":1.15,"tdop":0.72,"hdop":0.82,"gdop":1.59,"pdop":1.42,"satellites":[{"PRN":10,"el":15,"az":150,"ss":32,"used":true},{"PRN":3,"el":26,"az":314,"ss":45,"used":true},{"PRN":26,"el":24,"az":171,"ss":33,"used":true},{"PRN":22,"el":45,"az":300,"ss":45,"used":true},{"PRN":32,"el":49,"az":83,"ss":44,"used":true},{"PRN":25,"el":34,"az":61,"ss":43,"used":true},{"PRN":1,"el":25,"az":268,"ss":43,"used":true},{"PRN":14,"el":72,"az":38,"ss":45,"used":true},{"PRN":12,"el":6,"az":30,"ss":42,"used":true},{"PRN":31,"el":86,"az":247,"ss":49,"used":true},{"PRN":11,"el":1,"az":262,"ss":-0,"used":false},{"PRN":16,"el":0,"az":184,"ss":-0,"used":false}]} 
55.822          GPSD_json            pGPSd           {"class":"SKY","device":"/dev/garmingps","xdop":0.58,"ydop":0.59,"vdop":1.15,"tdop":0.72,"hdop":0.82,"gdop":1.59,"pdop":1.42,"satellites":[{"PRN":10,"el":15,"az":150,"ss":31,"used":true},{"PRN":3,"el":26,"az":314,"ss":44,"used":true},{"PRN":26,"el":24,"az":171,"ss":32,"used":true},{"PRN":22,"el":45,"az":300,"ss":43,"used":true},{"PRN":32,"el":49,"az":83,"ss":46,"used":true},{"PRN":25,"el":34,"az":61,"ss":43,"used":true},{"PRN":1,"el":25,"az":268,"ss":45,"used":true},{"PRN":14,"el":72,"az":38,"ss":46,"used":true},{"PRN":12,"el":6,"az":30,"ss":39,"used":true},{"PRN":31,"el":86,"az":247,"ss":48,"used":true},{"PRN":11,"el":1,"az":262,"ss":-0,"used":false},{"PRN":16,"el":0,"az":184,"ss":-0,"used":false}]} 
57.825          GPSD_json            pGPSd           {"class":"SKY","device":"/dev/garmingps","xdop":0.58,"ydop":0.59,"vdop":1.15,"tdop":0.72,"hdop":0.82,"gdop":1.59,"pdop":1.42,"satellites":[{"PRN":10,"el":15,"az":150,"ss":33,"used":true},{"PRN":3,"el":26,"az":314,"ss":43,"used":true},{"PRN":26,"el":24,"az":171,"ss":34,"used":true},{"PRN":22,"el":45,"az":300,"ss":45,"used":true},{"PRN":32,"el":48,"az":84,"ss":45,"used":true},{"PRN":25,"el":34,"az":61,"ss":45,"used":true},{"PRN":1,"el":25,"az":268,"ss":43,"used":true},{"PRN":14,"el":72,"az":38,"ss":46,"used":true},{"PRN":12,"el":6,"az":30,"ss":35,"used":true},{"PRN":31,"el":86,"az":247,"ss":49,"used":true},{"PRN":11,"el":1,"az":262,"ss":-0,"used":false},{"PRN":16,"el":0,"az":184,"ss":-0,"used":false}]} 
58.577          GPSD_json            pGPSd           {"class":"SKY","device":"/dev/garmingps","xdop":0.58,"ydop":0.59,"vdop":1.15,"tdop":0.72,"hdop":0.82,"gdop":1.59,"pdop":1.42,"satellites":[{"PRN":10,"el":15,"az":150,"ss":33,"used":true},{"PRN":3,"el":26,"az":314,"ss":44,"used":true},{"PRN":26,"el":24,"az":171,"ss":32,"used":true},{"PRN":22,"el":45,"az":300,"ss":45,"used":true},{"PRN":32,"el":48,"az":84,"ss":45,"used":true},{"PRN":25,"el":34,"az":61,"ss":43,"used":true},{"PRN":1,"el":25,"az":268,"ss":42,"used":true},{"PRN":14,"el":72,"az":38,"ss":47,"used":true},{"PRN":12,"el":6,"az":30,"ss":41,"used":true},{"PRN":31,"el":86,"az":247,"ss":49,"used":true},{"PRN":11,"el":1,"az":262,"ss":-0,"used":false},{"PRN":16,"el":0,"az":184,"ss":-0,"used":false}]} 
59.831          GPSD_json            pGPSd           {"class":"SKY","device":"/dev/garmingps","xdop":0.58,"ydop":0.59,"vdop":1.15,"tdop":0.72,"hdop":0.82,"gdop":1.59,"pdop":1.42,"satellites":[{"PRN":10,"el":15,"az":150,"ss":34,"used":true},{"PRN":3,"el":26,"az":314,"ss":45,"used":true},{"PRN":26,"el":24,"az":171,"ss":28,"used":true},{"PRN":22,"el":45,"az":300,"ss":43,"used":true},{"PRN":32,"el":48,"az":84,"ss":45,"used":true},{"PRN":25,"el":34,"az":61,"ss":44,"used":true},{"PRN":1,"el":25,"az":268,"ss":43,"used":true},{"PRN":14,"el":72,"az":38,"ss":47,"used":true},{"PRN":12,"el":6,"az":30,"ss":43,"used":true},{"PRN":31,"el":86,"az":247,"ss":49,"used":true},{"PRN":11,"el":1,"az":262,"ss":-0,"used":false},{"PRN":16,"el":0,"az":184,"ss":-0,"used":false}]} 
60.833          GPSD_json            pGPSd           {"class":"SKY","device":"/dev/garmingps","xdop":0.58,"ydop":0.59,"vdop":1.15,"tdop":0.72,"hdop":0.82,"gdop":1.59,"pdop":1.42,"satellites":[{"PRN":10,"el":15,"az":150,"ss":32,"used":true},{"PRN":3,"el":26,"az":314,"ss":44,"used":true},{"PRN":26,"el":24,"az":171,"ss":29,"used":true},{"PRN":22,"el":45,"az":300,"ss":44,"used":true},{"PRN":32,"el":48,"az":84,"ss":45,"used":true},{"PRN":25,"el":34,"az":61,"ss":44,"used":true},{"PRN":1,"el":25,"az":268,"ss":42,"used":true},{"PRN":14,"el":72,"az":38,"ss":46,"used":true},{"PRN":12,"el":6,"az":30,"ss":45,"used":true},{"PRN":31,"el":86,"az":247,"ss":48,"used":true},{"PRN":11,"el":1,"az":262,"ss":-0,"used":false},{"PRN":16,"el":0,"az":184,"ss":-0,"used":false}]} 
61.585          GPSD_json            pGPSd           {"class":"SKY","device":"/dev/garmingps","xdop":0.58,"ydop":0.59,"vdop":1.15,"tdop":0.72,"hdop":0.82,"gdop":1.59,"pdop":1.42,"satellites":[{"PRN":10,"el":15,"az":150,"ss":33,"used":true},{"PRN":3,"el":26,"az":314,"ss":45,"used":true},{"PRN":26,"el":24,"az":171,"ss":31,"used":true},{"PRN":22,"el":45,"az":300,"ss":46,"used":true},{"PRN":32,"el":48,"az":84,"ss":44,"used":true},{"PRN":25,"el":34,"az":61,"ss":44,"used":true},{"PRN":1,"el":25,"az":268,"ss":42,"used":true},{"PRN":14,"el":72,"az":38,"ss":46,"used":true},{"PRN":12,"el":6,"az":30,"ss":43,"used":true},{"PRN":31,"el":86,"az":247,"ss":48,"used":true},{"PRN":11,"el":1,"az":262,"ss":-0,"used":false},{"PRN":16,"el":0,"az":184,"ss":-0,"used":false}]} 
62.837          GPSD_json            pGPSd           {"class":"SKY","device":"/dev/garmingps","xdop":0.58,"ydop":0.59,"vdop":1.15,"tdop":0.72,"hdop":0.82,"gdop":1.59,"pdop":1.42,"satellites":[{"PRN":10,"el":15,"az":150,"ss":35,"used":true},{"PRN":3,"el":26,"az":314,"ss":45,"used":true},{"PRN":26,"el":24,"az":171,"ss":31,"used":true},{"PRN":22,"el":45,"az":300,"ss":46,"used":true},{"PRN":32,"el":48,"az":84,"ss":43,"used":true},{"PRN":25,"el":34,"az":61,"ss":45,"used":true},{"PRN":1,"el":25,"az":268,"ss":42,"used":true},{"PRN":14,"el":72,"az":38,"ss":43,"used":true},{"PRN":12,"el":6,"az":30,"ss":45,"used":true},{"PRN":31,"el":86,"az":247,"ss":49,"used":true},{"PRN":11,"el":1,"az":262,"ss":-0,"used":false},{"PRN":16,"el":0,"az":184,"ss":-0,"used":false}]} 
63.838          GPSD_json            pGPSd           {"class":"SKY","device":"/dev/garmingps","xdop":0.58,"ydop":0.59,"vdop":1.15,"tdop":0.72,"hdop":0.82,"gdop":1.59,"pdop":1.42,"satellites":[{"PRN":10,"el":15,"az":150,"ss":38,"used":true},{"PRN":3,"el":26,"az":314,"ss":45,"used":true},{"PRN":26,"el":24,"az":171,"ss":33,"used":true},{"PRN":22,"el":45,"az":300,"ss":43,"used":true},{"PRN":32,"el":48,"az":84,"ss":45,"used":true},{"PRN":25,"el":34,"az":61,"ss":46,"used":true},{"PRN":1,"el":25,"az":268,"ss":43,"used":true},{"PRN":14,"el":72,"az":38,"ss":42,"used":true},{"PRN":12,"el":6,"az":30,"ss":45,"used":true},{"PRN":31,"el":86,"az":247,"ss":47,"used":true},{"PRN":11,"el":1,"az":262,"ss":-0,"used":false},{"PRN":16,"el":0,"az":184,"ss":-0,"used":false}]} 
64.589          GPSD_json            pGPSd           {"class":"SKY","device":"/dev/garmingps","xdop":0.58,"ydop":0.59,"vdop":1.15,"tdop":0.72,"hdop":0.82,"gdop":1.59,"pdop":1.42,"satellites":[{"PRN":10,"el":15,"az":150,"ss":39,"used":true},{"PRN":3,"el":26,"az":314,"ss":45,"used":true},{"PRN":26,"el":24,"az":171,"ss":33,"used":true},{"PRN":22,"el":45,"az":300,"ss":44,"used":true},{"PRN":32,"el":48,"az":84,"ss":46,"used":true},{"PRN":25,"el":34,"az":61,"ss":46,"used":true},{"PRN":1,"el":25,"az":268,"ss":43,"used":true},{"PRN":14,"el":72,"az":38,"ss":41,"used":true},{"PRN":12,"el":6,"az":30,"ss":44,"used":true},{"PRN":31,"el":86,"az":247,"ss":44,"used":true},{"PRN":11,"el":1,"az":262,"ss":-0,"used":false},{"PRN":16,"el":0,"az":184,"ss":-0,"used":false}]} 
65.841          GPSD_json            pGPSd           {"class":"SKY","device":"/dev/garmingps","xdop":0.58,"ydop":0.59,"vdop":1.15,"tdop":0.72,"hdop":0.82,"gdop":1.59,"pdop":1.42,"satellites":[{"PRN":10,"el":15,"az":150,"ss":37,"used":true},{"PRN":3,"el":26,"az":314,"ss":45,"used":true},{"PRN":26,"el":24,"az":171,"ss":34,"used":true},{"PRN":22,"el":45,"az":300,"ss":43,"used":true},{"PRN":32,"el":48,"az":84,"ss":46,"used":true},{"PRN":25,"el":34,"az":61,"ss":46,"used":true},{"PRN":1,"el":25,"az":268,"ss":44,"used":true},{"PRN":14,"el":72,"az":38,"ss":43,"used":true},{"PRN":12,"el":6,"az":30,"ss":44,"used":true},{"PRN":31,"el":86,"az":247,"ss":48,"used":true},{"PRN":11,"el":1,"az":262,"ss":-0,"used":false},{"PRN":16,"el":0,"az":184,"ss":-0,"used":false}]} 
66.593          GPSD_json            pGPSd           {"class":"SKY","device":"/dev/garmingps","xdop":0.58,"ydop":0.59,"vdop":1.15,"tdop":0.72,"hdop":0.82,"gdop":1.59,"pdop":1.42,"satellites":[{"PRN":10,"el":15,"az":150,"ss":36,"used":true},{"PRN":3,"el":26,"az":314,"ss":45,"used":true},{"PRN":26,"el":24,"az":171,"ss":34,"used":true},{"PRN":22,"el":45,"az":300,"ss":42,"used":true},{"PRN":32,"el":48,"az":84,"ss":46,"used":true},{"PRN":25,"el":34,"az":61,"ss":45,"used":true},{"PRN":1,"el":25,"az":268,"ss":43,"used":true},{"PRN":14,"el":72,"az":38,"ss":41,"used":true},{"PRN":12,"el":6,"az":30,"ss":44,"used":true},{"PRN":31,"el":86,"az":247,"ss":46,"used":true},{"PRN":11,"el":1,"az":262,"ss":-0,"used":false},{"PRN":16,"el":0,"az":184,"ss":-0,"used":false}]} 
67.595          GPSD_json            pGPSd           {"class":"SKY","device":"/dev/garmingps","xdop":0.58,"ydop":0.59,"vdop":1.15,"tdop":0.72,"hdop":0.82,"gdop":1.59,"pdop":1.42,"satellites":[{"PRN":10,"el":15,"az":150,"ss":35,"used":true},{"PRN":3,"el":26,"az":314,"ss":43,"used":true},{"PRN":26,"el":24,"az":171,"ss":34,"used":true},{"PRN":22,"el":45,"az":300,"ss":43,"used":true},{"PRN":32,"el":48,"az":84,"ss":45,"used":true},{"PRN":25,"el":34,"az":61,"ss":45,"used":true},{"PRN":1,"el":25,"az":268,"ss":42,"used":true},{"PRN":14,"el":72,"az":38,"ss":43,"used":true},{"PRN":12,"el":6,"az":30,"ss":43,"used":true},{"PRN":31,"el":86,"az":247,"ss":47,"used":true},{"PRN":11,"el":1,"az":262,"ss":-0,"used":false},{"PRN":16,"el":0,"az":184,"ss":-0,"used":false}]} 
68.847          GPSD_json            pGPSd           {"class":"SKY","device":"/dev/garmingps","xdop":0.58,"ydop":0.59,"vdop":1.15,"tdop":0.72,"hdop":0.82,"gdop":1.59,"pdop":1.42,"satellites":[{"PRN":10,"el":15,"az":150,"ss":32,"used":true},{"PRN":3,"el":26,"az":314,"ss":44,"used":true},{"PRN":26,"el":24,"az":171,"ss":32,"used":true},{"PRN":22,"el":45,"az":300,"ss":44,"used":true},{"PRN":32,"el":48,"az":84,"ss":45,"used":true},{"PRN":25,"el":34,"az":61,"ss":44,"used":true},{"PRN":1,"el":25,"az":268,"ss":43,"used":true},{"PRN":14,"el":72,"az":38,"ss":41,"used":true},{"PRN":12,"el":6,"az":30,"ss":43,"used":true},{"PRN":31,"el":86,"az":247,"ss":45,"used":true},{"PRN":11,"el":1,"az":262,"ss":-0,"used":false},{"PRN":16,"el":0,"az":184,"ss":-0,"used":false}]} 
69.599          GPSD_json            pGPSd           {"class":"SKY","device":"/dev/garmingps","xdop":0.58,"ydop":0.59,"vdop":1.15,"tdop":0.72,"hdop":0.82,"gdop":1.59,"pdop":1.42,"satellites":[{"PRN":10,"el":15,"az":150,"ss":31,"used":true},{"PRN":3,"el":26,"az":314,"ss":45,"used":true},{"PRN":26,"el":24,"az":171,"ss":32,"used":true},{"PRN":22,"el":45,"az":300,"ss":44,"used":true},{"PRN":32,"el":48,"az":84,"ss":47,"used":true},{"PRN":25,"el":34,"az":61,"ss":45,"used":true},{"PRN":1,"el":25,"az":268,"ss":42,"used":true},{"PRN":14,"el":72,"az":38,"ss":42,"used":true},{"PRN":12,"el":6,"az":30,"ss":43,"used":true},{"PRN":31,"el":86,"az":247,"ss":45,"used":true},{"PRN":11,"el":1,"az":262,"ss":-0,"used":false},{"PRN":16,"el":0,"az":184,"ss":-0,"used":false}]} 
71.601          GPSD_json            pGPSd           {"class":"SKY","device":"/dev/garmingps","xdop":0.58,"ydop":0.59,"vdop":1.15,"tdop":0.72,"hdop":0.82,"gdop":1.59,"pdop":1.42,"satellites":[{"PRN":10,"el":15,"az":150,"ss":31,"used":true},{"PRN":3,"el":26,"az":314,"ss":44,"used":true},{"PRN":26,"el":24,"az":171,"ss":34,"used":true},{"PRN":22,"el":45,"az":300,"ss":47,"used":true},{"PRN":32,"el":48,"az":84,"ss":43,"used":true},{"PRN":25,"el":34,"az":61,"ss":45,"used":true},{"PRN":1,"el":25,"az":268,"ss":41,"used":true},{"PRN":14,"el":72,"az":38,"ss":45,"used":true},{"PRN":12,"el":6,"az":30,"ss":43,"used":true},{"PRN":31,"el":86,"az":247,"ss":49,"used":true},{"PRN":11,"el":1,"az":262,"ss":-0,"used":false},{"PRN":16,"el":0,"az":184,"ss":-0,"used":false}]} 
72.603          GPSD_json            pGPSd           {"class":"SKY","device":"/dev/garmingps","xdop":0.58,"ydop":0.59,"vdop":1.15,"tdop":0.72,"hdop":0.82,"gdop":1.59,"pdop":1.42,"satellites":[{"PRN":10,"el":15,"az":150,"ss":30,"used":true},{"PRN":3,"el":26,"az":314,"ss":44,"used":true},{"PRN":26,"el":24,"az":171,"ss":36,"used":true},{"PRN":22,"el":45,"az":300,"ss":47,"used":true},{"PRN":32,"el":48,"az":84,"ss":45,"used":true},{"PRN":25,"el":34,"az":61,"ss":42,"used":true},{"PRN":1,"el":25,"az":268,"ss":42,"used":true},{"PRN":14,"el":72,"az":38,"ss":43,"used":true},{"PRN":12,"el":6,"az":30,"ss":44,"used":true},{"PRN":31,"el":86,"az":247,"ss":48,"used":true},{"PRN":11,"el":1,"az":262,"ss":-0,"used":false},{"PRN":16,"el":0,"az":184,"ss":-0,"used":false}]} 
73.855          GPSD_json            pGPSd           {"class":"SKY","device":"/dev/garmingps","xdop":0.58,"ydop":0.59,"vdop":1.15,"tdop":0.72,"hdop":0.82,"gdop":1.59,"pdop":1.42,"satellites":[{"PRN":10,"el":15,"az":150,"ss":31,"used":true},{"PRN":3,"el":26,"az":314,"ss":45,"used":true},{"PRN":26,"el":24,"az":171,"ss":38,"used":true},{"PRN":22,"el":45,"az":300,"ss":47,"used":true},{"PRN":32,"el":48,"az":84,"ss":46,"used":true},{"PRN":25,"el":34,"az":61,"ss":44,"used":true},{"PRN":1,"el":25,"az":268,"ss":42,"used":true},{"PRN":14,"el":72,"az":38,"ss":44,"used":true},{"PRN":12,"el":6,"az":30,"ss":41,"used":true},{"PRN":31,"el":86,"az":247,"ss":47,"used":true},{"PRN":11,"el":1,"az":262,"ss":-0,"used":false},{"PRN":16,"el":0,"az":184,"ss":-0,"used":false}]} 
74.607          GPSD_json            pGPSd           {"class":"SKY","device":"/dev/garmingps","xdop":0.58,"ydop":0.59,"vdop":1.15,"tdop":0.72,"hdop":0.82,"gdop":1.59,"pdop":1.42,"satellites":[{"PRN":10,"el":15,"az":150,"ss":30,"used":true},{"PRN":3,"el":26,"az":314,"ss":45,"used":true},{"PRN":26,"el":24,"az":171,"ss":38,"used":true},{"PRN":22,"el":45,"az":300,"ss":46,"used":true},{"PRN":32,"el":48,"az":84,"ss":45,"used":true},{"PRN":25,"el":34,"az":61,"ss":45,"used":true},{"PRN":1,"el":25,"az":268,"ss":43,"used":true},{"PRN":14,"el":72,"az":38,"ss":44,"used":true},{"PRN":12,"el":6,"az":30,"ss":40,"used":true},{"PRN":31,"el":86,"az":247,"ss":47,"used":true},{"PRN":11,"el":1,"az":262,"ss":-0,"used":false},{"PRN":16,"el":0,"az":184,"ss":-0,"used":false}]} 
75.610          GPSD_json            pGPSd           {"class":"SKY","device":"/dev/garmingps","xdop":0.58,"ydop":0.59,"vdop":1.15,"tdop":0.72,"hdop":0.82,"gdop":1.59,"pdop":1.42,"satellites":[{"PRN":10,"el":15,"az":150,"ss":30,"used":true},{"PRN":3,"el":26,"az":314,"ss":45,"used":true},{"PRN":26,"el":24,"az":171,"ss":38,"used":true},{"PRN":22,"el":45,"az":300,"ss":46,"used":true},{"PRN":32,"el":48,"az":84,"ss":46,"used":true},{"PRN":25,"el":34,"az":61,"ss":44,"used":true},{"PRN":1,"el":25,"az":268,"ss":44,"used":true},{"PRN":14,"el":72,"az":38,"ss":44,"used":true},{"PRN":12,"el":6,"az":30,"ss":41,"used":true},{"PRN":31,"el":86,"az":247,"ss":48,"used":true},{"PRN":11,"el":1,"az":262,"ss":-0,"used":false},{"PRN":16,"el":0,"az":184,"ss":-0,"used":false}]} 
76.862          GPSD_json            pGPSd           {"class":"SKY","device":"/dev/garmingps","xdop":0.58,"ydop":0.59,"vdop":1.15,"tdop":0.72,"hdop":0.82,"gdop":1.59,"pdop":1.42,"satellites":[{"PRN":10,"el":15,"az":151,"ss":30,"used":true},{"PRN":3,"el":26,"az":314,"ss":45,"used":true},{"PRN":26,"el":24,"az":171,"ss":38,"used":true},{"PRN":22,"el":45,"az":300,"ss":46,"used":true},{"PRN":32,"el":48,"az":84,"ss":46,"used":true},{"PRN":25,"el":34,"az":61,"ss":44,"used":true},{"PRN":1,"el":25,"az":268,"ss":44,"used":true},{"PRN":14,"el":72,"az":38,"ss":42,"used":true},{"PRN":12,"el":6,"az":30,"ss":43,"used":true},{"PRN":31,"el":86,"az":247,"ss":47,"used":true},{"PRN":11,"el":1,"az":262,"ss":-0,"used":false},{"PRN":16,"el":0,"az":184,"ss":-0,"used":false}]} 
77.614          GPSD_json            pGPSd           {"class":"SKY","device":"/dev/garmingps","xdop":0.58,"ydop":0.59,"vdop":1.15,"tdop":0.72,"hdop":0.82,"gdop":1.59,"pdop":1.42,"satellites":[{"PRN":10,"el":15,"az":151,"ss":29,"used":true},{"PRN":3,"el":26,"az":314,"ss":44,"used":true},{"PRN":26,"el":24,"az":171,"ss":38,"used":true},{"PRN":22,"el":45,"az":300,"ss":46,"used":true},{"PRN":32,"el":48,"az":84,"ss":46,"used":true},{"PRN":25,"el":34,"az":61,"ss":46,"used":true},{"PRN":1,"el":25,"az":268,"ss":43,"used":true},{"PRN":14,"el":72,"az":38,"ss":45,"used":true},{"PRN":12,"el":6,"az":30,"ss":44,"used":true},{"PRN":31,"el":86,"az":247,"ss":46,"used":true},{"PRN":11,"el":1,"az":262,"ss":-0,"used":false},{"PRN":16,"el":0,"az":184,"ss":-0,"used":false}]} 
78.617          GPSD_json            pGPSd           {"class":"SKY","device":"/dev/garmingps","xdop":0.58,"ydop":0.59,"vdop":1.15,"tdop":0.72,"hdop":0.82,"gdop":1.59,"pdop":1.42,"satellites":[{"PRN":10,"el":15,"az":151,"ss":25,"used":true},{"PRN":3,"el":26,"az":314,"ss":45,"used":true},{"PRN":26,"el":24,"az":171,"ss":33,"used":true},{"PRN":22,"el":45,"az":300,"ss":47,"used":true},{"PRN":32,"el":48,"az":84,"ss":46,"used":true},{"PRN":25,"el":34,"az":61,"ss":46,"used":true},{"PRN":1,"el":25,"az":268,"ss":44,"used":true},{"PRN":14,"el":72,"az":38,"ss":44,"used":true},{"PRN":12,"el":6,"az":30,"ss":42,"used":true},{"PRN":31,"el":86,"az":247,"ss":47,"used":true},{"PRN":11,"el":1,"az":262,"ss":-0,"used":false},{"PRN":16,"el":0,"az":184,"ss":-0,"used":false}]} 
