1.463           GPSD_json            pGPSd           {"class":"SKY","device":"/dev/garmingps","xdop":0.57,"ydop":0.59,"vdop":1.17,"tdop":0.73,"hdop":0.82,"gdop":1.61,"pdop":1.43,"satellites":[{"PRN":10,"el":19,"az":149,"ss":30,"used":true},{"PRN":3,"el":22,"az":315,"ss":40,"used":true},{"PRN":26,"el":20,"az":172,"ss":33,"used":true},{"PRN":22,"el":42,"az":303,"ss":43,"used":true},{"PRN":32,"el":51,"az":80,"ss":39,"used":true},{"PRN":25,"el":35,"az":65,"ss":47,"used":true},{"PRN":1,"el":26,"az":272,"ss":38,"used":true},{"PRN":14,"el":73,"az":26,"ss":48,"used":true},{"PRN":12,"el":8,"az":32,"ss":42,"used":true},{"PRN":11,"el":3,"az":265,"ss":24,"used":false},{"PRN":31,"el":82,"az":229,"ss":48,"used":true}]} 
2.467           GPSD_json            pGPSd           {"class":"SKY","device":"/dev/garmingps","xdop":0.57,"ydop":0.59,"vdop":1.17,"tdop":0.73,"hdop":0.82,"gdop":1.61,"pdop":1.43,"satellites":[{"PRN":10,"el":19,"az":149,"ss":32,"used":true},{"PRN":3,"el":23,"az":315,"ss":42,"used":true},{"PRN":26,"el":20,"az":172,"ss":34,"used":true},{"PRN":22,"el":42,"az":303,"ss":46,"used":true},{"PRN":32,"el":51,"az":80,"ss":40,"used":true},{"PRN":25,"el":35,"az":65,"ss":47,"used":true},{"PRN":1,"el":26,"az":272,"ss":38,"used":true},{"PRN":14,"el":73,"az":26,"ss":47,"used":true},{"PRN":12,"el":8,"az":32,"ss":39,"used":true},{"PRN":11,"el":3,"az":265,"ss":25,"used":false},{"PRN":31,"el":82,"az":229,"ss":48,"used":true}]} 
2.467           GPSD_json            pGPSd           {"class":"SKY","device":"/dev/garmingps","xdop":0.57,"ydop":0.59,"vdop":1.17,"tdop":0.73,"hdop":0.82,"gdop":1.61,"pdop":1.43,"satellites":[{"PRN":10,"el":19,"az":149,"ss":32,"used":true},{"PRN":3,"el":23,"az":315,"ss":42,"used":true},{"PRN":26,"el":20,"az":172,"ss":34,"used":true},{"PRN":22,"el":42,"az":303,"ss":46,"used":true},{"PRN":32,"el":51,"az":80,"ss":40,"used":true},{"PRN":25,"el":35,"az":65,"ss":47,"used":true},{"PRN":1,"el":26,"az":272,"ss":38,"used":true},{"PRN":14,"el":73,"az":26,"ss":47,"used":true},{"PRN":12,"el":8,"az":32,"ss":39,"used":true},{"PRN":11,"el":3,"az":265,"ss":25,"used":false},{"PRN":31,"el":82,"az":229,"ss":48,"used":true}]} 
3.469           GPSD_json            pGPSd           {"class":"SKY","device":"/dev/garmingps","xdop":0.57,"ydop":0.59,"vdop":1.17,"tdop":0.73,"hdop":0.82,"gdop":1.61,"pdop":1.43,"satellites":[{"PRN":10,"el":19,"az":149,"ss":30,"used":true},{"PRN":3,"el":23,"az":315,"ss":41,"used":true},{"PRN":26,"el":20,"az":172,"ss":32,"used":true},{"PRN":22,"el":42,"az":303,"ss":47,"used":true},{"PRN":32,"el":51,"az":80,"ss":42,"used":true},{"PRN":25,"el":35,"az":65,"ss":47,"used":true},{"PRN":1,"el":26,"az":272,"ss":39,"used":true},{"PRN":14,"el":73,"az":26,"ss":47,"used":true},{"PRN":12,"el":8,"az":32,"ss":39,"used":true},{"PRN":11,"el":3,"az":265,"ss":26,"used":false},{"PRN":31,"el":82,"az":229,"ss":49,"used":true}]} 
3.469           GPSD_json            pGPSd           {"class":"SKY","device":"/dev/garmingps","xdop":0.57,"ydop":0.59,"vdop":1.17,"tdop":0.73,"hdop":0.82,"gdop":1.61,"pdop":1.43,"satellites":[{"PRN":10,"el":19,"az":149,"ss":30,"used":true},{"PRN":3,"el":23,"az":315,"ss":41,"used":true},{"PRN":26,"el":20,"az":172,"ss":32,"used":true},{"PRN":22,"el":42,"az":303,"ss":47,"used":true},{"PRN":32,"el":51,"az":80,"ss":42,"used":true},{"PRN":25,"el":35,"az":65,"ss":47,"used":true},{"PRN":1,"el":26,"az":272,"ss":39,"used":true},{"PRN":14,"el":73,"az":26,"ss":47,"used":true},{"PRN":12,"el":8,"az":32,"ss":39,"used":true},{"PRN":11,"el":3,"az":265,"ss":26,"used":false},{"PRN":31,"el":82,"az":229,"ss":49,"used":true}]} 
4.471           GPSD_json            pGPSd           {"class":"SKY","device":"/dev/garmingps","xdop":0.57,"ydop":0.59,"vdop":1.17,"tdop":0.73,"hdop":0.82,"gdop":1.61,"pdop":1.43,"satellites":[{"PRN":10,"el":19,"az":149,"ss":29,"used":true},{"PRN":3,"el":23,"az":315,"ss":42,"used":true},{"PRN":26,"el":20,"az":172,"ss":32,"used":true},{"PRN":22,"el":42,"az":303,"ss":46,"used":true},{"PRN":32,"el":51,"az":80,"ss":42,"used":true},{"PRN":25,"el":35,"az":65,"ss":48,"used":true},{"PRN":1,"el":26,"az":272,"ss":40,"used":true},{"PRN":14,"el":73,"az":26,"ss":47,"used":true},{"PRN":12,"el":8,"az":32,"ss":38,"used":true},{"PRN":11,"el":3,"az":265,"ss":24,"used":false},{"PRN":31,"el":82,"az":229,"ss":49,"used":true}]} 
5.472           GPSD_json            pGPSd           {"class":"SKY","device":"/dev/garmingps","xdop":0.57,"ydop":0.59,"vdop":1.17,"tdop":0.73,"hdop":0.82,"gdop":1.61,"pdop":1.43,"satellites":[{"PRN":10,"el":19,"az":149,"ss":29,"used":true},{"PRN":3,"el":23,"az":315,"ss":42,"used":true},{"PRN":26,"el":20,"az":172,"ss":33,"used":true},{"PRN":22,"el":42,"az":303,"ss":46,"used":true},{"PRN":32,"el":51,"az":80,"ss":43,"used":true},{"PRN":25,"el":35,"az":65,"ss":48,"used":true},{"PRN":1,"el":26,"az":272,"ss":41,"used":true},{"PRN":14,"el":73,"az":26,"ss":47,"used":true},{"PRN":12,"el":8,"az":32,"ss":37,"used":true},{"PRN":11,"el":3,"az":265,"ss":22,"used":false},{"PRN":31,"el":82,"az":229,"ss":49,"used":true}]} 
6.475           GPSD_json            pGPSd           {"class":"SKY","device":"/dev/garmingps","xdop":0.57,"ydop":0.59,"vdop":1.17,"tdop":0.73,"hdop":0.82,"gdop":1.61,"pdop":1.43,"satellites":[{"PRN":10,"el":19,"az":149,"ss":29,"used":true},{"PRN":3,"el":23,"az":315,"ss":41,"used":true},{"PRN":26,"el":20,"az":172,"ss":34,"used":true},{"PRN":22,"el":42,"az":303,"ss":45,"used":true},{"PRN":32,"el":51,"az":80,"ss":43,"used":true},{"PRN":25,"el":35,"az":65,"ss":48,"used":true},{"PRN":1,"el":26,"az":272,"ss":41,"used":true},{"PRN":14,"el":73,"az":26,"ss":47,"used":true},{"PRN":12,"el":8,"az":32,"ss":37,"used":true},{"PRN":11,"el":3,"az":265,"ss":25,"used":false},{"PRN":31,"el":82,"az":229,"ss":48,"used":true}]} 
7.477           GPSD_json            pGPSd           {"class":"SKY","device":"/dev/garmingps","xdop":0.57,"ydop":0.59,"vdop":1.17,"tdop":0.73,"hdop":0.82,"gdop":1.61,"pdop":1.43,"satellites":[{"PRN":10,"el":19,"az":149,"ss":29,"used":true},{"PRN":3,"el":23,"az":315,"ss":42,"used":true},{"PRN":26,"el":20,"az":172,"ss":35,"used":true},{"PRN":22,"el":42,"az":303,"ss":45,"used":true},{"PRN":32,"el":51,"az":80,"ss":43,"used":true},{"PRN":25,"el":35,"az":65,"ss":47,"used":true},{"PRN":1,"el":26,"az":272,"ss":41,"used":true},{"PRN":14,"el":73,"az":26,"ss":47,"used":true},{"PRN":12,"el":8,"az":32,"ss":38,"used":true},{"PRN":11,"el":3,"az":265,"ss":25,"used":false},{"PRN":31,"el":82,"az":229,"ss":48,"used":true}]} 
8.479           GPSD_json            pGPSd           {"class":"SKY","device":"/dev/garmingps","xdop":0.57,"ydop":0.59,"vdop":1.17,"tdop":0.73,"hdop":0.82,"gdop":1.61,"pdop":1.43,"satellites":[{"PRN":10,"el":19,"az":149,"ss":27,"used":true},{"PRN":3,"el":23,"az":315,"ss":42,"used":true},{"PRN":26,"el":20,"az":172,"ss":36,"used":true},{"PRN":22,"el":42,"az":303,"ss":46,"used":true},{"PRN":32,"el":51,"az":80,"ss":44,"used":true},{"PRN":25,"el":35,"az":65,"ss":46,"used":true},{"PRN":1,"el":26,"az":272,"ss":40,"used":true},{"PRN":14,"el":73,"az":26,"ss":47,"used":true},{"PRN":12,"el":8,"az":32,"ss":38,"used":true},{"PRN":11,"el":3,"az":265,"ss":25,"used":false},{"PRN":31,"el":82,"az":229,"ss":47,"used":true}]} 
9.481           GPSD_json            pGPSd           {"class":"SKY","device":"/dev/garmingps","xdop":0.57,"ydop":0.59,"vdop":1.17,"tdop":0.73,"hdop":0.82,"gdop":1.61,"pdop":1.43,"satellites":[{"PRN":10,"el":19,"az":149,"ss":28,"used":true},{"PRN":3,"el":23,"az":315,"ss":43,"used":true},{"PRN":26,"el":20,"az":172,"ss":36,"used":true},{"PRN":22,"el":42,"az":303,"ss":46,"used":true},{"PRN":32,"el":51,"az":80,"ss":44,"used":true},{"PRN":25,"el":35,"az":65,"ss":46,"used":true},{"PRN":1,"el":26,"az":272,"ss":40,"used":true},{"PRN":14,"el":73,"az":26,"ss":47,"used":true},{"PRN":12,"el":8,"az":32,"ss":38,"used":true},{"PRN":11,"el":3,"az":265,"ss":25,"used":false},{"PRN":31,"el":82,"az":229,"ss":48,"used":true}]} 
10.484          GPSD_json            pGPSd           {"class":"SKY","device":"/dev/garmingps","xdop":0.57,"ydop":0.59,"vdop":1.17,"tdop":0.73,"hdop":0.82,"gdop":1.61,"pdop":1.43,"satellites":[{"PRN":10,"el":19,"az":149,"ss":34,"used":true},{"PRN":3,"el":23,"az":315,"ss":43,"used":true},{"PRN":26,"el":20,"az":172,"ss":36,"used":true},{"PRN":22,"el":42,"az":303,"ss":46,"used":true},{"PRN":32,"el":51,"az":80,"ss":45,"used":true},{"PRN":25,"el":35,"az":65,"ss":47,"used":true},{"PRN":1,"el":26,"az":272,"ss":39,"used":true},{"PRN":14,"el":73,"az":26,"ss":48,"used":true},{"PRN":12,"el":8,"az":32,"ss":37,"used":true},{"PRN":11,"el":3,"az":265,"ss":26,"used":false},{"PRN":31,"el":82,"az":229,"ss":47,"used":true}]} 
11.487          GPSD_json            pGPSd           {"class":"SKY","device":"/dev/garmingps","xdop":0.57,"ydop":0.59,"vdop":1.17,"tdop":0.73,"hdop":0.82,"gdop":1.61,"pdop":1.43,"satellites":[{"PRN":10,"el":19,"az":149,"ss":35,"used":true},{"PRN":3,"el":23,"az":315,"ss":40,"used":true},{"PRN":26,"el":20,"az":172,"ss":36,"used":true},{"PRN":22,"el":42,"az":303,"ss":46,"used":true},{"PRN":32,"el":51,"az":80,"ss":45,"used":true},{"PRN":25,"el":35,"az":65,"ss":48,"used":true},{"PRN":1,"el":26,"az":272,"ss":40,"used":true},{"PRN":14,"el":73,"az":26,"ss":48,"used":true},{"PRN":12,"el":8,"az":32,"ss":38,"used":true},{"PRN":11,"el":3,"az":265,"ss":24,"used":false},{"PRN":31,"el":82,"az":229,"ss":48,"used":true}]} 
12.489          GPSD_json            pGPSd           {"class":"SKY","device":"/dev/garmingps","xdop":0.57,"ydop":0.59,"vdop":1.17,"tdop":0.73,"hdop":0.82,"gdop":1.61,"pdop":1.43,"satellites":[{"PRN":10,"el":19,"az":149,"ss":35,"used":true},{"PRN":3,"el":23,"az":315,"ss":40,"used":true},{"PRN":26,"el":20,"az":172,"ss":36,"used":true},{"PRN":22,"el":42,"az":303,"ss":47,"used":true},{"PRN":32,"el":51,"az":80,"ss":44,"used":true},{"PRN":25,"el":35,"az":65,"ss":47,"used":true},{"PRN":1,"el":26,"az":272,"ss":39,"used":true},{"PRN":14,"el":73,"az":26,"ss":47,"used":true},{"PRN":12,"el":8,"az":32,"ss":39,"used":true},{"PRN":11,"el":3,"az":265,"ss":21,"used":false},{"PRN":31,"el":82,"az":229,"ss":48,"used":true}]} 
13.493          GPSD_json            pGPSd           {"class":"SKY","device":"/dev/garmingps","xdop":0.57,"ydop":0.59,"vdop":1.17,"tdop":0.73,"hdop":0.82,"gdop":1.61,"pdop":1.43,"satellites":[{"PRN":10,"el":19,"az":149,"ss":36,"used":true},{"PRN":3,"el":23,"az":315,"ss":41,"used":true},{"PRN":26,"el":20,"az":172,"ss":36,"used":true},{"PRN":22,"el":42,"az":303,"ss":46,"used":true},{"PRN":32,"el":51,"az":80,"ss":43,"used":true},{"PRN":25,"el":35,"az":65,"ss":48,"used":true},{"PRN":1,"el":26,"az":272,"ss":39,"used":true},{"PRN":14,"el":73,"az":26,"ss":47,"used":true},{"PRN":12,"el":8,"az":32,"ss":40,"used":true},{"PRN":11,"el":3,"az":265,"ss":21,"used":false},{"PRN":31,"el":82,"az":229,"ss":48,"used":true}]} 
14.495          GPSD_json            pGPSd           {"class":"SKY","device":"/dev/garmingps","xdop":0.57,"ydop":0.59,"vdop":1.17,"tdop":0.73,"hdop":0.82,"gdop":1.61,"pdop":1.43,"satellites":[{"PRN":10,"el":19,"az":149,"ss":36,"used":true},{"PRN":3,"el":23,"az":315,"ss":42,"used":true},{"PRN":26,"el":20,"az":172,"ss":37,"used":true},{"PRN":22,"el":42,"az":303,"ss":46,"used":true},{"PRN":32,"el":51,"az":80,"ss":44,"used":true},{"PRN":25,"el":35,"az":65,"ss":47,"used":true},{"PRN":1,"el":26,"az":272,"ss":39,"used":true},{"PRN":14,"el":73,"az":26,"ss":48,"used":true},{"PRN":12,"el":8,"az":32,"ss":41,"used":true},{"PRN":11,"el":3,"az":265,"ss":24,"used":false},{"PRN":31,"el":82,"az":229,"ss":47,"used":true}]} 
15.496          GPSD_json            pGPSd           {"class":"SKY","device":"/dev/garmingps","xdop":0.57,"ydop":0.59,"vdop":1.17,"tdop":0.73,"hdop":0.82,"gdop":1.61,"pdop":1.43,"satellites":[{"PRN":10,"el":19,"az":149,"ss":36,"used":true},{"PRN":3,"el":23,"az":315,"ss":43,"used":true},{"PRN":26,"el":20,"az":172,"ss":37,"used":true},{"PRN":22,"el":42,"az":303,"ss":46,"used":true},{"PRN":32,"el":51,"az":80,"ss":44,"used":true},{"PRN":25,"el":35,"az":65,"ss":47,"used":true},{"PRN":1,"el":26,"az":272,"ss":39,"used":true},{"PRN":14,"el":73,"az":26,"ss":47,"used":true},{"PRN":12,"el":8,"az":32,"ss":40,"used":true},{"PRN":11,"el":3,"az":265,"ss":24,"used":false},{"PRN":31,"el":82,"az":229,"ss":47,"used":true}]} 
16.499          GPSD_json            pGPSd           {"class":"SKY","device":"/dev/garmingps","xdop":0.57,"ydop":0.59,"vdop":1.17,"tdop":0.73,"hdop":0.82,"gdop":1.61,"pdop":1.43,"satellites":[{"PRN":10,"el":18,"az":150,"ss":36,"used":true},{"PRN":3,"el":23,"az":315,"ss":43,"used":true},{"PRN":26,"el":20,"az":172,"ss":38,"used":true},{"PRN":22,"el":42,"az":303,"ss":46,"used":true},{"PRN":32,"el":51,"az":80,"ss":45,"used":true},{"PRN":25,"el":35,"az":65,"ss":47,"used":true},{"PRN":1,"el":26,"az":272,"ss":39,"used":true},{"PRN":14,"el":73,"az":26,"ss":47,"used":true},{"PRN":12,"el":8,"az":32,"ss":40,"used":true},{"PRN":11,"el":3,"az":265,"ss":24,"used":false},{"PRN":31,"el":82,"az":229,"ss":47,"used":true}]} 
17.501          GPSD_json            pGPSd           {"class":"SKY","device":"/dev/garmingps","xdop":0.57,"ydop":0.59,"vdop":1.17,"tdop":0.73,"hdop":0.82,"gdop":1.61,"pdop":1.43,"satellites":[{"PRN":10,"el":18,"az":150,"ss":36,"used":true},{"PRN":3,"el":23,"az":315,"ss":43,"used":true},{"PRN":26,"el":20,"az":172,"ss":39,"used":true},{"PRN":22,"el":42,"az":303,"ss":46,"used":true},{"PRN":32,"el":51,"az":80,"ss":45,"used":true},{"PRN":25,"el":35,"az":65,"ss":46,"used":true},{"PRN":1,"el":26,"az":272,"ss":39,"used":true},{"PRN":14,"el":73,"az":26,"ss":47,"used":true},{"PRN":12,"el":8,"az":32,"ss":40,"used":true},{"PRN":11,"el":3,"az":265,"ss":24,"used":false},{"PRN":31,"el":82,"az":229,"ss":47,"used":true}]} 
18.503          GPSD_json            pGPSd           {"class":"SKY","device":"/dev/garmingps","xdop":0.57,"ydop":0.59,"vdop":1.17,"tdop":0.73,"hdop":0.82,"gdop":1.61,"pdop":1.43,"satellites":[{"PRN":10,"el":18,"az":150,"ss":36,"used":true},{"PRN":3,"el":23,"az":315,"ss":42,"used":true},{"PRN":26,"el":20,"az":172,"ss":39,"used":true},{"PRN":22,"el":42,"az":303,"ss":46,"used":true},{"PRN":32,"el":51,"az":80,"ss":44,"used":true},{"PRN":25,"el":35,"az":65,"ss":47,"used":true},{"PRN":1,"el":26,"az":272,"ss":39,"used":true},{"PRN":14,"el":73,"az":26,"ss":47,"used":true},{"PRN":12,"el":8,"az":32,"ss":39,"used":true},{"PRN":11,"el":3,"az":265,"ss":24,"used":false},{"PRN":31,"el":82,"az":229,"ss":48,"used":true}]} 
19.506          GPSD_json            pGPSd           {"class":"SKY","device":"/dev/garmingps","xdop":0.57,"ydop":0.59,"vdop":1.17,"tdop":0.73,"hdop":0.82,"gdop":1.61,"pdop":1.43,"satellites":[{"PRN":10,"el":18,"az":150,"ss":36,"used":true},{"PRN":3,"el":23,"az":315,"ss":42,"used":true},{"PRN":26,"el":20,"az":172,"ss":39,"used":true},{"PRN":22,"el":42,"az":303,"ss":46,"used":true},{"PRN":32,"el":51,"az":80,"ss":44,"used":true},{"PRN":25,"el":35,"az":65,"ss":47,"used":true},{"PRN":1,"el":26,"az":272,"ss":40,"used":true},{"PRN":14,"el":73,"az":26,"ss":48,"used":true},{"PRN":12,"el":8,"az":32,"ss":37,"used":true},{"PRN":11,"el":3,"az":265,"ss":25,"used":false},{"PRN":31,"el":82,"az":229,"ss":48,"used":true}]} 
20.508          GPSD_json            pGPSd           {"class":"SKY","device":"/dev/garmingps","xdop":0.57,"ydop":0.59,"vdop":1.17,"tdop":0.73,"hdop":0.82,"gdop":1.61,"pdop":1.43,"satellites":[{"PRN":10,"el":18,"az":150,"ss":37,"used":true},{"PRN":3,"el":23,"az":315,"ss":42,"used":true},{"PRN":26,"el":20,"az":172,"ss":39,"used":true},{"PRN":22,"el":42,"az":303,"ss":46,"used":true},{"PRN":32,"el":51,"az":80,"ss":45,"used":true},{"PRN":25,"el":35,"az":65,"ss":47,"used":true},{"PRN":1,"el":26,"az":272,"ss":41,"used":true},{"PRN":14,"el":73,"az":26,"ss":48,"used":true},{"PRN":12,"el":8,"az":32,"ss":38,"used":true},{"PRN":11,"el":3,"az":265,"ss":25,"used":false},{"PRN":31,"el":82,"az":229,"ss":48,"used":true}]} 
21.509          GPSD_json            pGPSd           {"class":"SKY","device":"/dev/garmingps","xdop":0.57,"ydop":0.59,"vdop":1.17,"tdop":0.73,"hdop":0.82,"gdop":1.61,"pdop":1.43,"satellites":[{"PRN":10,"el":18,"az":150,"ss":38,"used":true},{"PRN":3,"el":23,"az":315,"ss":42,"used":true},{"PRN":26,"el":20,"az":172,"ss":39,"used":true},{"PRN":22,"el":42,"az":303,"ss":45,"used":true},{"PRN":32,"el":51,"az":80,"ss":45,"used":true},{"PRN":25,"el":35,"az":65,"ss":46,"used":true},{"PRN":1,"el":26,"az":272,"ss":42,"used":true},{"PRN":14,"el":73,"az":26,"ss":48,"used":true},{"PRN":12,"el":8,"az":32,"ss":38,"used":true},{"PRN":11,"el":3,"az":265,"ss":24,"used":false},{"PRN":31,"el":82,"az":229,"ss":47,"used":true}]} 
22.511          GPSD_json            pGPSd           {"class":"SKY","device":"/dev/garmingps","xdop":0.57,"ydop":0.59,"vdop":1.17,"tdop":0.73,"hdop":0.82,"gdop":1.61,"pdop":1.43,"satellites":[{"PRN":10,"el":18,"az":150,"ss":38,"used":true},{"PRN":3,"el":23,"az":315,"ss":42,"used":true},{"PRN":26,"el":20,"az":172,"ss":39,"used":true},{"PRN":22,"el":42,"az":303,"ss":46,"used":true},{"PRN":32,"el":51,"az":80,"ss":44,"used":true},{"PRN":25,"el":35,"az":65,"ss":47,"used":true},{"PRN":1,"el":26,"az":272,"ss":41,"used":true},{"PRN":14,"el":73,"az":26,"ss":48,"used":true},{"PRN":12,"el":8,"az":32,"ss":38,"used":true},{"PRN":11,"el":3,"az":265,"ss":19,"used":false},{"PRN":31,"el":82,"az":229,"ss":46,"used":true}]} 
23.513          GPSD_json            pGPSd           {"class":"SKY","device":"/dev/garmingps","xdop":0.57,"ydop":0.59,"vdop":1.17,"tdop":0.73,"hdop":0.82,"gdop":1.61,"pdop":1.43,"satellites":[{"PRN":10,"el":18,"az":150,"ss":37,"used":true},{"PRN":3,"el":23,"az":315,"ss":43,"used":true},{"PRN":26,"el":20,"az":172,"ss":39,"used":true},{"PRN":22,"el":42,"az":303,"ss":46,"used":true},{"PRN":32,"el":51,"az":80,"ss":44,"used":true},{"PRN":25,"el":35,"az":65,"ss":46,"used":true},{"PRN":1,"el":26,"az":272,"ss":39,"used":true},{"PRN":14,"el":73,"az":26,"ss":47,"used":true},{"PRN":12,"el":8,"az":32,"ss":39,"used":true},{"PRN":11,"el":3,"az":265,"ss":19,"used":false},{"PRN":31,"el":82,"az":229,"ss":46,"used":true}]} 
24.514          GPSD_json            pGPSd           {"class":"SKY","device":"/dev/garmingps","xdop":0.57,"ydop":0.59,"vdop":1.17,"tdop":0.73,"hdop":0.82,"gdop":1.61,"pdop":1.43,"satellites":[{"PRN":10,"el":18,"az":150,"ss":38,"used":true},{"PRN":3,"el":23,"az":315,"ss":42,"used":true},{"PRN":26,"el":20,"az":172,"ss":39,"used":true},{"PRN":22,"el":42,"az":303,"ss":46,"used":true},{"PRN":32,"el":51,"az":80,"ss":45,"used":true},{"PRN":25,"el":35,"az":65,"ss":46,"used":true},{"PRN":1,"el":26,"az":272,"ss":40,"used":true},{"PRN":14,"el":73,"az":27,"ss":47,"used":true},{"PRN":12,"el":8,"az":32,"ss":37,"used":true},{"PRN":11,"el":3,"az":265,"ss":20,"used":false},{"PRN":31,"el":82,"az":229,"ss":47,"used":true}]} 
25.517          GPSD_json            pGPSd           {"class":"SKY","device":"/dev/garmingps","xdop":0.57,"ydop":0.59,"vdop":1.17,"tdop":0.73,"hdop":0.82,"gdop":1.61,"pdop":1.43,"satellites":[{"PRN":10,"el":18,"az":150,"ss":39,"used":true},{"PRN":3,"el":23,"az":315,"ss":42,"used":true},{"PRN":26,"el":20,"az":172,"ss":38,"used":true},{"PRN":22,"el":42,"az":303,"ss":46,"used":true},{"PRN":32,"el":51,"az":80,"ss":42,"used":true},{"PRN":25,"el":35,"az":65,"ss":46,"used":true},{"PRN":1,"el":26,"az":272,"ss":40,"used":true},{"PRN":14,"el":73,"az":27,"ss":47,"used":true},{"PRN":12,"el":8,"az":32,"ss":37,"used":true},{"PRN":11,"el":3,"az":265,"ss":20,"used":false},{"PRN":31,"el":82,"az":229,"ss":46,"used":true}]} 
26.519          GPSD_json            pGPSd           {"class":"SKY","device":"/dev/garmingps","xdop":0.57,"ydop":0.59,"vdop":1.17,"tdop":0.73,"hdop":0.82,"gdop":1.61,"pdop":1.43,"satellites":[{"PRN":10,"el":18,"az":150,"ss":38,"used":true},{"PRN":3,"el":23,"az":315,"ss":42,"used":true},{"PRN":26,"el":20,"az":172,"ss":37,"used":true},{"PRN":22,"el":42,"az":303,"ss":46,"used":true},{"PRN":32,"el":51,"az":80,"ss":42,"used":true},{"PRN":25,"el":35,"az":65,"ss":46,"used":true},{"PRN":1,"el":26,"az":272,"ss":40,"used":true},{"PRN":14,"el":73,"az":27,"ss":47,"used":true},{"PRN":12,"el":8,"az":32,"ss":36,"used":true},{"PRN":11,"el":3,"az":265,"ss":22,"used":false},{"PRN":31,"el":82,"az":229,"ss":45,"used":true}]} 
27.521          GPSD_json            pGPSd           {"class":"SKY","device":"/dev/garmingps","xdop":0.57,"ydop":0.59,"vdop":1.17,"tdop":0.73,"hdop":0.82,"gdop":1.61,"pdop":1.43,"satellites":[{"PRN":10,"el":18,"az":150,"ss":37,"used":true},{"PRN":3,"el":23,"az":315,"ss":42,"used":true},{"PRN":26,"el":20,"az":172,"ss":36,"used":true},{"PRN":22,"el":42,"az":303,"ss":47,"used":true},{"PRN":32,"el":51,"az":80,"ss":45,"used":true},{"PRN":25,"el":35,"az":65,"ss":46,"used":true},{"PRN":1,"el":26,"az":272,"ss":41,"used":true},{"PRN":14,"el":73,"az":27,"ss":47,"used":true},{"PRN":12,"el":8,"az":32,"ss":34,"used":true},{"PRN":11,"el":3,"az":265,"ss":22,"used":false},{"PRN":31,"el":82,"az":229,"ss":48,"used":true}]} 
28.523          GPSD_json            pGPSd           {"class":"SKY","device":"/dev/garmingps","xdop":0.57,"ydop":0.59,"vdop":1.17,"tdop":0.73,"hdop":0.82,"gdop":1.61,"pdop":1.43,"satellites":[{"PRN":10,"el":18,"az":150,"ss":34,"used":true},{"PRN":3,"el":23,"az":315,"ss":42,"used":true},{"PRN":26,"el":20,"az":172,"ss":35,"used":true},{"PRN":22,"el":42,"az":303,"ss":47,"used":true},{"PRN":32,"el":51,"az":80,"ss":43,"used":true},{"PRN":25,"el":35,"az":65,"ss":47,"used":true},{"PRN":1,"el":26,"az":272,"ss":40,"used":true},{"PRN":14,"el":73,"az":27,"ss":47,"used":true},{"PRN":12,"el":8,"az":32,"ss":38,"used":true},{"PRN":11,"el":3,"az":265,"ss":22,"used":false},{"PRN":31,"el":82,"az":229,"ss":47,"used":true}]} 
29.526          GPSD_json            pGPSd           {"class":"SKY","device":"/dev/garmingps","xdop":0.57,"ydop":0.59,"vdop":1.17,"tdop":0.73,"hdop":0.82,"gdop":1.61,"pdop":1.43,"satellites":[{"PRN":10,"el":18,"az":150,"ss":29,"used":true},{"PRN":3,"el":23,"az":315,"ss":42,"used":true},{"PRN":26,"el":20,"az":172,"ss":39,"used":true},{"PRN":22,"el":42,"az":303,"ss":45,"used":true},{"PRN":32,"el":51,"az":80,"ss":43,"used":true},{"PRN":25,"el":35,"az":65,"ss":46,"used":true},{"PRN":1,"el":26,"az":272,"ss":41,"used":true},{"PRN":14,"el":73,"az":27,"ss":48,"used":true},{"PRN":12,"el":8,"az":32,"ss":41,"used":true},{"PRN":11,"el":3,"az":265,"ss":19,"used":false},{"PRN":31,"el":82,"az":229,"ss":47,"used":true}]} 
30.528          GPSD_json            pGPSd           {"class":"SKY","device":"/dev/garmingps","xdop":0.57,"ydop":0.59,"vdop":1.17,"tdop":0.73,"hdop":0.82,"gdop":1.61,"pdop":1.43,"satellites":[{"PRN":10,"el":18,"az":150,"ss":30,"used":true},{"PRN":3,"el":23,"az":315,"ss":42,"used":true},{"PRN":26,"el":20,"az":172,"ss":38,"used":true},{"PRN":22,"el":42,"az":303,"ss":44,"used":true},{"PRN":32,"el":51,"az":80,"ss":45,"used":true},{"PRN":25,"el":35,"az":65,"ss":46,"used":true},{"PRN":1,"el":26,"az":272,"ss":40,"used":true},{"PRN":14,"el":73,"az":27,"ss":48,"used":true},{"PRN":12,"el":8,"az":32,"ss":40,"used":true},{"PRN":11,"el":3,"az":265,"ss":19,"used":false},{"PRN":31,"el":82,"az":229,"ss":47,"used":true}]} 
31.530          GPSD_json            pGPSd           {"class":"SKY","device":"/dev/garmingps","xdop":0.57,"ydop":0.59,"vdop":1.17,"tdop":0.73,"hdop":0.82,"gdop":1.61,"pdop":1.43,"satellites":[{"PRN":10,"el":18,"az":150,"ss":32,"used":true},{"PRN":3,"el":23,"az":315,"ss":41,"used":true},{"PRN":26,"el":20,"az":172,"ss":31,"used":true},{"PRN":22,"el":42,"az":303,"ss":44,"used":true},{"PRN":32,"el":51,"az":80,"ss":46,"used":true},{"PRN":25,"el":35,"az":65,"ss":45,"used":true},{"PRN":1,"el":26,"az":272,"ss":41,"used":true},{"PRN":14,"el":73,"az":27,"ss":48,"used":true},{"PRN":12,"el":8,"az":32,"ss":43,"used":true},{"PRN":11,"el":3,"az":265,"ss":19,"used":false},{"PRN":31,"el":82,"az":229,"ss":48,"used":true}]} 
32.281          GPSD_json            pGPSd           {"class":"SKY","device":"/dev/garmingps","xdop":0.57,"ydop":0.59,"vdop":1.17,"tdop":0.73,"hdop":0.82,"gdop":1.61,"pdop":1.43,"satellites":[{"PRN":10,"el":18,"az":150,"ss":25,"used":true},{"PRN":3,"el":23,"az":315,"ss":40,"used":true},{"PRN":26,"el":20,"az":172,"ss":33,"used":true},{"PRN":22,"el":42,"az":303,"ss":46,"used":true},{"PRN":32,"el":51,"az":80,"ss":45,"used":true},{"PRN":25,"el":35,"az":65,"ss":45,"used":true},{"PRN":1,"el":26,"az":272,"ss":40,"used":true},{"PRN":14,"el":73,"az":27,"ss":48,"used":true},{"PRN":12,"el":8,"az":32,"ss":42,"used":true},{"PRN":11,"el":3,"az":265,"ss":19,"used":false},{"PRN":31,"el":82,"az":229,"ss":47,"used":true}]} 
33.534          GPSD_json            pGPSd           {"class":"SKY","device":"/dev/garmingps","xdop":0.57,"ydop":0.59,"vdop":1.17,"tdop":0.73,"hdop":0.82,"gdop":1.61,"pdop":1.43,"satellites":[{"PRN":3,"el":23,"az":315,"ss":41,"used":true},{"PRN":26,"el":20,"az":172,"ss":35,"used":true},{"PRN":22,"el":42,"az":303,"ss":46,"used":true},{"PRN":32,"el":51,"az":80,"ss":43,"used":true},{"PRN":25,"el":35,"az":65,"ss":47,"used":true},{"PRN":1,"el":26,"az":272,"ss":40,"used":true},{"PRN":14,"el":73,"az":27,"ss":48,"used":true},{"PRN":12,"el":8,"az":32,"ss":43,"used":true},{"PRN":11,"el":3,"az":265,"ss":19,"used":false},{"PRN":31,"el":82,"az":229,"ss":44,"used":true},{"PRN":10,"el":18,"az":150,"ss":-0,"used":false}]} 
34.536          GPSD_json            pGPSd           {"class":"SKY","device":"/dev/garmingps","xdop":0.57,"ydop":0.59,"vdop":1.17,"tdop":0.73,"hdop":0.82,"gdop":1.61,"pdop":1.43,"satellites":[{"PRN":3,"el":23,"az":315,"ss":40,"used":true},{"PRN":26,"el":20,"az":172,"ss":35,"used":true},{"PRN":22,"el":42,"az":303,"ss":47,"used":true},{"PRN":32,"el":51,"az":80,"ss":42,"used":true},{"PRN":25,"el":35,"az":65,"ss":47,"used":true},{"PRN":1,"el":26,"az":272,"ss":40,"used":true},{"PRN":14,"el":73,"az":27,"ss":47,"used":true},{"PRN":12,"el":8,"az":32,"ss":43,"used":true},{"PRN":11,"el":3,"az":265,"ss":21,"used":false},{"PRN":31,"el":82,"az":229,"ss":44,"used":true},{"PRN":10,"el":18,"az":150,"ss":-0,"used":false}]} 
35.539          GPSD_json            pGPSd           {"class":"SKY","device":"/dev/garmingps","xdop":0.57,"ydop":0.59,"vdop":1.17,"tdop":0.73,"hdop":0.82,"gdop":1.61,"pdop":1.43,"satellites":[{"PRN":10,"el":18,"az":150,"ss":29,"used":true},{"PRN":3,"el":23,"az":315,"ss":41,"used":true},{"PRN":26,"el":20,"az":172,"ss":35,"used":true},{"PRN":22,"el":42,"az":303,"ss":47,"used":true},{"PRN":32,"el":51,"az":80,"ss":42,"used":true},{"PRN":25,"el":35,"az":65,"ss":44,"used":true},{"PRN":1,"el":26,"az":272,"ss":43,"used":true},{"PRN":14,"el":73,"az":27,"ss":47,"used":true},{"PRN":12,"el":8,"az":32,"ss":39,"used":true},{"PRN":11,"el":3,"az":265,"ss":24,"used":false},{"PRN":31,"el":82,"az":229,"ss":47,"used":true}]} 
36.541          GPSD_json            pGPSd           {"class":"SKY","device":"/dev/garmingps","xdop":0.57,"ydop":0.59,"vdop":1.17,"tdop":0.73,"hdop":0.82,"gdop":1.61,"pdop":1.43,"satellites":[{"PRN":10,"el":18,"az":150,"ss":30,"used":true},{"PRN":3,"el":23,"az":315,"ss":42,"used":true},{"PRN":26,"el":20,"az":172,"ss":33,"used":true},{"PRN":22,"el":42,"az":303,"ss":46,"used":true},{"PRN":32,"el":51,"az":80,"ss":42,"used":true},{"PRN":25,"el":35,"az":65,"ss":44,"used":true},{"PRN":1,"el":26,"az":272,"ss":41,"used":true},{"PRN":14,"el":73,"az":27,"ss":46,"used":true},{"PRN":12,"el":8,"az":32,"ss":41,"used":true},{"PRN":11,"el":3,"az":265,"ss":24,"used":false},{"PRN":31,"el":82,"az":229,"ss":48,"used":true}]} 
37.292          GPSD_json            pGPSd           {"class":"SKY","device":"/dev/garmingps","xdop":0.57,"ydop":0.59,"vdop":1.17,"tdop":0.73,"hdop":0.82,"gdop":1.61,"pdop":1.43,"satellites":[{"PRN":10,"el":18,"az":150,"ss":31,"used":true},{"PRN":3,"el":23,"az":315,"ss":39,"used":true},{"PRN":26,"el":20,"az":172,"ss":33,"used":true},{"PRN":22,"el":42,"az":303,"ss":46,"used":true},{"PRN":32,"el":51,"az":80,"ss":43,"used":true},{"PRN":25,"el":35,"az":65,"ss":43,"used":true},{"PRN":1,"el":26,"az":272,"ss":41,"used":true},{"PRN":14,"el":73,"az":27,"ss":46,"used":true},{"PRN":12,"el":8,"az":32,"ss":42,"used":true},{"PRN":11,"el":3,"az":265,"ss":24,"used":false},{"PRN":31,"el":82,"az":229,"ss":47,"used":true}]} 
38.544          GPSD_json            pGPSd           {"class":"SKY","device":"/dev/garmingps","xdop":0.57,"ydop":0.59,"vdop":1.17,"tdop":0.73,"hdop":0.82,"gdop":1.61,"pdop":1.43,"satellites":[{"PRN":10,"el":18,"az":150,"ss":32,"used":true},{"PRN":3,"el":23,"az":315,"ss":41,"used":true},{"PRN":26,"el":20,"az":172,"ss":33,"used":true},{"PRN":22,"el":42,"az":303,"ss":46,"used":true},{"PRN":32,"el":51,"az":80,"ss":44,"used":true},{"PRN":25,"el":35,"az":65,"ss":41,"used":true},{"PRN":1,"el":26,"az":272,"ss":41,"used":true},{"PRN":14,"el":73,"az":27,"ss":45,"used":true},{"PRN":12,"el":8,"az":32,"ss":41,"used":true},{"PRN":11,"el":3,"az":265,"ss":24,"used":false},{"PRN":31,"el":82,"az":229,"ss":48,"used":true}]} 
39.547          GPSD_json            pGPSd           {"class":"SKY","device":"/dev/garmingps","xdop":0.57,"ydop":0.59,"vdop":1.17,"tdop":0.73,"hdop":0.82,"gdop":1.61,"pdop":1.43,"satellites":[{"PRN":10,"el":18,"az":150,"ss":33,"used":true},{"PRN":3,"el":23,"az":315,"ss":39,"used":true},{"PRN":26,"el":20,"az":172,"ss":33,"used":true},{"PRN":22,"el":42,"az":303,"ss":47,"used":true},{"PRN":32,"el":51,"az":80,"ss":44,"used":true},{"PRN":25,"el":35,"az":65,"ss":42,"used":true},{"PRN":1,"el":26,"az":272,"ss":39,"used":true},{"PRN":14,"el":73,"az":27,"ss":46,"used":true},{"PRN":12,"el":8,"az":32,"ss":41,"used":true},{"PRN":11,"el":3,"az":265,"ss":23,"used":false},{"PRN":31,"el":82,"az":229,"ss":46,"used":true}]} 
41.299          GPSD_json            pGPSd           {"class":"SKY","device":"/dev/garmingps","xdop":0.57,"ydop":0.59,"vdop":1.17,"tdop":0.73,"hdop":0.82,"gdop":1.61,"pdop":1.43,"satellites":[{"PRN":10,"el":18,"az":150,"ss":34,"used":true},{"PRN":3,"el":23,"az":315,"ss":40,"used":true},{"PRN":26,"el":20,"az":172,"ss":36,"used":true},{"PRN":22,"el":43,"az":303,"ss":48,"used":true},{"PRN":32,"el":51,"az":80,"ss":42,"used":true},{"PRN":25,"el":35,"az":65,"ss":43,"used":true},{"PRN":1,"el":26,"az":272,"ss":39,"used":true},{"PRN":14,"el":73,"az":27,"ss":47,"used":true},{"PRN":12,"el":8,"az":32,"ss":41,"used":true},{"PRN":11,"el":3,"az":265,"ss":22,"used":false},{"PRN":31,"el":82,"az":229,"ss":44,"used":true}]} 
41.299          GPSD_json            pGPSd           {"class":"SKY","device":"/dev/garmingps","xdop":0.57,"ydop":0.59,"vdop":1.17,"tdop":0.73,"hdop":0.82,"gdop":1.61,"pdop":1.43,"satellites":[{"PRN":10,"el":18,"az":150,"ss":34,"used":true},{"PRN":3,"el":23,"az":315,"ss":40,"used":true},{"PRN":26,"el":20,"az":172,"ss":36,"used":true},{"PRN":22,"el":43,"az":303,"ss":48,"used":true},{"PRN":32,"el":51,"az":80,"ss":42,"used":true},{"PRN":25,"el":35,"az":65,"ss":43,"used":true},{"PRN":1,"el":26,"az":272,"ss":39,"used":true},{"PRN":14,"el":73,"az":27,"ss":47,"used":true},{"PRN":12,"el":8,"az":32,"ss":41,"used":true},{"PRN":11,"el":3,"az":265,"ss":22,"used":false},{"PRN":31,"el":82,"az":229,"ss":44,"used":true}]} 
42.300          GPSD_json            pGPSd           {"class":"SKY","device":"/dev/garmingps","xdop":0.57,"ydop":0.59,"vdop":1.17,"tdop":0.73,"hdop":0.82,"gdop":1.61,"pdop":1.43,"satellites":[{"PRN":10,"el":18,"az":150,"ss":33,"used":true},{"PRN":3,"el":23,"az":315,"ss":39,"used":true},{"PRN":26,"el":20,"az":172,"ss":35,"used":true},{"PRN":22,"el":43,"az":303,"ss":47,"used":true},{"PRN":32,"el":51,"az":80,"ss":43,"used":true},{"PRN":25,"el":35,"az":65,"ss":42,"used":true},{"PRN":1,"el":26,"az":272,"ss":38,"used":true},{"PRN":14,"el":73,"az":27,"ss":47,"used":true},{"PRN":12,"el":8,"az":32,"ss":40,"used":true},{"PRN":11,"el":3,"az":265,"ss":21,"used":false},{"PRN":31,"el":82,"az":229,"ss":45,"used":true}]} 
43.303          GPSD_json            pGPSd           {"class":"SKY","device":"/dev/garmingps","xdop":0.57,"ydop":0.59,"vdop":1.17,"tdop":0.73,"hdop":0.82,"gdop":1.61,"pdop":1.43,"satellites":[{"PRN":10,"el":18,"az":150,"ss":32,"used":true},{"PRN":3,"el":23,"az":315,"ss":39,"used":true},{"PRN":26,"el":20,"az":172,"ss":33,"used":true},{"PRN":22,"el":43,"az":303,"ss":48,"used":true},{"PRN":32,"el":51,"az":80,"ss":40,"used":true},{"PRN":25,"el":35,"az":65,"ss":45,"used":true},{"PRN":1,"el":26,"az":272,"ss":39,"used":true},{"PRN":14,"el":73,"az":27,"ss":46,"used":true},{"PRN":12,"el":8,"az":32,"ss":40,"used":true},{"PRN":11,"el":3,"az":265,"ss":21,"used":false},{"PRN":31,"el":82,"az":229,"ss":47,"used":true}]} 
44.555          GPSD_json            pGPSd           {"class":"SKY","device":"/dev/garmingps","xdop":0.57,"ydop":0.59,"vdop":1.17,"tdop":0.73,"hdop":0.82,"gdop":1.61,"pdop":1.43,"satellites":[{"PRN":10,"el":18,"az":150,"ss":32,"used":true},{"PRN":3,"el":23,"az":315,"ss":39,"used":true},{"PRN":26,"el":20,"az":172,"ss":27,"used":true},{"PRN":22,"el":43,"az":303,"ss":46,"used":true},{"PRN":32,"el":51,"az":80,"ss":44,"used":true},{"PRN":25,"el":35,"az":65,"ss":46,"used":true},{"PRN":1,"el":26,"az":272,"ss":40,"used":true},{"PRN":14,"el":73,"az":27,"ss":46,"used":true},{"PRN":12,"el":8,"az":32,"ss":40,"used":true},{"PRN":11,"el":3,"az":265,"ss":22,"used":false},{"PRN":31,"el":82,"az":229,"ss":47,"used":true}]} 
45.306          GPSD_json            pGPSd           {"class":"SKY","device":"/dev/garmingps","xdop":0.57,"ydop":0.59,"vdop":1.17,"tdop":0.73,"hdop":0.82,"gdop":1.61,"pdop":1.43,"satellites":[{"PRN":10,"el":18,"az":150,"ss":32,"used":true},{"PRN":3,"el":23,"az":315,"ss":41,"used":true},{"PRN":26,"el":20,"az":172,"ss":29,"used":true},{"PRN":22,"el":43,"az":303,"ss":45,"used":true},{"PRN":32,"el":51,"az":80,"ss":42,"used":true},{"PRN":25,"el":35,"az":65,"ss":46,"used":true},{"PRN":1,"el":26,"az":272,"ss":43,"used":true},{"PRN":14,"el":73,"az":27,"ss":46,"used":true},{"PRN":12,"el":8,"az":32,"ss":38,"used":true},{"PRN":11,"el":3,"az":265,"ss":22,"used":false},{"PRN":31,"el":82,"az":229,"ss":47,"used":true}]} 
46.308          GPSD_json            pGPSd           {"class":"SKY","device":"/dev/garmingps","xdop":0.57,"ydop":0.59,"vdop":1.17,"tdop":0.73,"hdop":0.82,"gdop":1.61,"pdop":1.43,"satellites":[{"PRN":10,"el":18,"az":150,"ss":32,"used":true},{"PRN":3,"el":23,"az":315,"ss":41,"used":true},{"PRN":26,"el":20,"az":172,"ss":30,"used":true},{"PRN":22,"el":43,"az":303,"ss":44,"used":true},{"PRN":32,"el":51,"az":80,"ss":46,"used":true},{"PRN":25,"el":35,"az":65,"ss":45,"used":true},{"PRN":1,"el":26,"az":272,"ss":42,"used":true},{"PRN":14,"el":73,"az":27,"ss":42,"used":true},{"PRN":12,"el":8,"az":32,"ss":39,"used":true},{"PRN":11,"el":3,"az":265,"ss":21,"used":false},{"PRN":31,"el":82,"az":229,"ss":47,"used":true}]} 
47.560          GPSD_json            pGPSd           {"class":"SKY","device":"/dev/garmingps","xdop":0.57,"ydop":0.59,"vdop":1.17,"tdop":0.73,"hdop":0.82,"gdop":1.61,"pdop":1.43,"satellites":[{"PRN":10,"el":18,"az":150,"ss":32,"used":true},{"PRN":3,"el":23,"az":315,"ss":40,"used":true},{"PRN":26,"el":20,"az":172,"ss":30,"used":true},{"PRN":22,"el":43,"az":303,"ss":45,"used":true},{"PRN":32,"el":51,"az":80,"ss":44,"used":true},{"PRN":25,"el":35,"az":65,"ss":45,"used":true},{"PRN":1,"el":26,"az":272,"ss":43,"used":true},{"PRN":14,"el":73,"az":27,"ss":43,"used":true},{"PRN":12,"el":8,"az":32,"ss":42,"used":true},{"PRN":11,"el":3,"az":265,"ss":21,"used":false},{"PRN":31,"el":82,"az":229,"ss":45,"used":true}]} 
48.311          GPSD_json            pGPSd           {"class":"SKY","device":"/dev/garmingps","xdop":0.57,"ydop":0.59,"vdop":1.17,"tdop":0.73,"hdop":0.82,"gdop":1.61,"pdop":1.43,"satellites":[{"PRN":10,"el":18,"az":150,"ss":34,"used":true},{"PRN":3,"el":23,"az":315,"ss":40,"used":true},{"PRN":26,"el":21,"az":172,"ss":31,"used":true},{"PRN":22,"el":43,"az":303,"ss":43,"used":true},{"PRN":32,"el":51,"az":80,"ss":45,"used":true},{"PRN":25,"el":35,"az":65,"ss":47,"used":true},{"PRN":1,"el":26,"az":272,"ss":43,"used":true},{"PRN":14,"el":73,"az":27,"ss":42,"used":true},{"PRN":12,"el":8,"az":32,"ss":42,"used":true},{"PRN":11,"el":3,"az":265,"ss":22,"used":false},{"PRN":31,"el":82,"az":229,"ss":43,"used":true}]} 
49.564          GPSD_json            pGPSd           {"class":"SKY","device":"/dev/garmingps","xdop":0.57,"ydop":0.59,"vdop":1.17,"tdop":0.73,"hdop":0.82,"gdop":1.61,"pdop":1.43,"satellites":[{"PRN":10,"el":18,"az":150,"ss":35,"used":true},{"PRN":3,"el":23,"az":315,"ss":39,"used":true},{"PRN":26,"el":21,"az":172,"ss":33,"used":true},{"PRN":22,"el":43,"az":303,"ss":44,"used":true},{"PRN":32,"el":51,"az":80,"ss":44,"used":true},{"PRN":25,"el":35,"az":65,"ss":47,"used":true},{"PRN":1,"el":26,"az":272,"ss":44,"used":true},{"PRN":14,"el":73,"az":27,"ss":42,"used":true},{"PRN":12,"el":8,"az":32,"ss":41,"used":true},{"PRN":11,"el":3,"az":265,"ss":22,"used":false},{"PRN":31,"el":82,"az":229,"ss":43,"used":true}]} 
50.315          GPSD_json            pGPSd           {"class":"SKY","device":"/dev/garmingps","xdop":0.57,"ydop":0.59,"vdop":1.17,"tdop":0.73,"hdop":0.82,"gdop":1.61,"pdop":1.43,"satellites":[{"PRN":10,"el":18,"az":150,"ss":35,"used":true},{"PRN":3,"el":23,"az":315,"ss":38,"used":true},{"PRN":26,"el":21,"az":172,"ss":32,"used":true},{"PRN":22,"el":43,"az":303,"ss":43,"used":true},{"PRN":32,"el":51,"az":80,"ss":42,"used":true},{"PRN":25,"el":35,"az":65,"ss":47,"used":true},{"PRN":1,"el":26,"az":272,"ss":43,"used":true},{"PRN":14,"el":73,"az":27,"ss":42,"used":true},{"PRN":12,"el":8,"az":32,"ss":39,"used":true},{"PRN":11,"el":3,"az":265,"ss":22,"used":false},{"PRN":31,"el":82,"az":229,"ss":41,"used":true}]} 
51.567          GPSD_json            pGPSd           {"class":"SKY","device":"/dev/garmingps","xdop":0.57,"ydop":0.59,"vdop":1.17,"tdop":0.73,"hdop":0.82,"gdop":1.61,"pdop":1.43,"satellites":[{"PRN":10,"el":18,"az":150,"ss":35,"used":true},{"PRN":3,"el":23,"az":315,"ss":38,"used":true},{"PRN":26,"el":21,"az":172,"ss":33,"used":true},{"PRN":22,"el":43,"az":303,"ss":44,"used":true},{"PRN":32,"el":51,"az":80,"ss":45,"used":true},{"PRN":25,"el":35,"az":65,"ss":47,"used":true},{"PRN":1,"el":26,"az":272,"ss":43,"used":true},{"PRN":14,"el":73,"az":27,"ss":43,"used":true},{"PRN":12,"el":8,"az":32,"ss":40,"used":true},{"PRN":11,"el":3,"az":265,"ss":22,"used":false},{"PRN":31,"el":82,"az":229,"ss":40,"used":true}]} 
52.320          GPSD_json            pGPSd           {"class":"SKY","device":"/dev/garmingps","xdop":0.57,"ydop":0.59,"vdop":1.17,"tdop":0.73,"hdop":0.82,"gdop":1.61,"pdop":1.43,"satellites":[{"PRN":10,"el":18,"az":150,"ss":34,"used":true},{"PRN":3,"el":23,"az":315,"ss":37,"used":true},{"PRN":26,"el":21,"az":172,"ss":34,"used":true},{"PRN":22,"el":43,"az":303,"ss":43,"used":true},{"PRN":32,"el":51,"az":80,"ss":45,"used":true},{"PRN":25,"el":35,"az":65,"ss":47,"used":true},{"PRN":1,"el":26,"az":272,"ss":44,"used":true},{"PRN":14,"el":73,"az":27,"ss":42,"used":true},{"PRN":12,"el":8,"az":32,"ss":39,"used":true},{"PRN":11,"el":3,"az":265,"ss":23,"used":false},{"PRN":31,"el":82,"az":229,"ss":41,"used":true}]} 
53.321          GPSD_json            pGPSd           {"class":"SKY","device":"/dev/garmingps","xdop":0.57,"ydop":0.59,"vdop":1.17,"tdop":0.73,"hdop":0.82,"gdop":1.61,"pdop":1.43,"satellites":[{"PRN":10,"el":18,"az":150,"ss":33,"used":true},{"PRN":3,"el":23,"az":315,"ss":36,"used":true},{"PRN":26,"el":21,"az":172,"ss":34,"used":true},{"PRN":22,"el":43,"az":303,"ss":44,"used":true},{"PRN":32,"el":51,"az":80,"ss":46,"used":true},{"PRN":25,"el":35,"az":65,"ss":47,"used":true},{"PRN":1,"el":26,"az":272,"ss":45,"used":true},{"PRN":14,"el":73,"az":27,"ss":42,"used":true},{"PRN":12,"el":8,"az":32,"ss":39,"used":true},{"PRN":11,"el":3,"az":265,"ss":27,"used":false},{"PRN":31,"el":82,"az":229,"ss":41,"used":true}]} 
54.572          GPSD_json            pGPSd           {"class":"SKY","device":"/dev/garmingps","xdop":0.57,"ydop":0.59,"vdop":1.17,"tdop":0.73,"hdop":0.82,"gdop":1.61,"pdop":1.43,"satellites":[{"PRN":10,"el":18,"az":150,"ss":34,"used":true},{"PRN":3,"el":23,"az":315,"ss":38,"used":true},{"PRN":26,"el":21,"az":172,"ss":34,"used":true},{"PRN":22,"el":43,"az":303,"ss":44,"used":true},{"PRN":32,"el":51,"az":80,"ss":45,"used":true},{"PRN":25,"el":35,"az":65,"ss":46,"used":true},{"PRN":1,"el":26,"az":272,"ss":44,"used":true},{"PRN":14,"el":73,"az":27,"ss":44,"used":true},{"PRN":12,"el":8,"az":32,"ss":40,"used":true},{"PRN":11,"el":3,"az":265,"ss":29,"used":false},{"PRN":31,"el":82,"az":229,"ss":44,"used":true}]} 
55.323          GPSD_json            pGPSd           {"class":"SKY","device":"/dev/garmingps","xdop":0.57,"ydop":0.59,"vdop":1.17,"tdop":0.73,"hdop":0.82,"gdop":1.61,"pdop":1.43,"satellites":[{"PRN":10,"el":18,"az":150,"ss":34,"used":true},{"PRN":3,"el":23,"az":315,"ss":39,"used":true},{"PRN":26,"el":21,"az":172,"ss":33,"used":true},{"PRN":22,"el":43,"az":303,"ss":44,"used":true},{"PRN":32,"el":51,"az":80,"ss":46,"used":true},{"PRN":25,"el":35,"az":65,"ss":47,"used":true},{"PRN":1,"el":26,"az":272,"ss":44,"used":true},{"PRN":14,"el":73,"az":27,"ss":43,"used":true},{"PRN":12,"el":8,"az":32,"ss":40,"used":true},{"PRN":11,"el":3,"az":265,"ss":32,"used":false},{"PRN":31,"el":82,"az":229,"ss":44,"used":true}]} 
56.324          GPSD_json            pGPSd           {"class":"SKY","device":"/dev/garmingps","xdop":0.57,"ydop":0.59,"vdop":1.17,"tdop":0.73,"hdop":0.82,"gdop":1.61,"pdop":1.43,"satellites":[{"PRN":10,"el":18,"az":150,"ss":33,"used":true},{"PRN":3,"el":23,"az":315,"ss":40,"used":true},{"PRN":26,"el":21,"az":172,"ss":33,"used":true},{"PRN":22,"el":43,"az":303,"ss":42,"used":true},{"PRN":32,"el":51,"az":80,"ss":47,"used":true},{"PRN":25,"el":35,"az":65,"ss":47,"used":true},{"PRN":1,"el":26,"az":272,"ss":44,"used":true},{"PRN":14,"el":73,"az":27,"ss":43,"used":true},{"PRN":12,"el":8,"az":32,"ss":41,"used":true},{"PRN":11,"el":3,"az":265,"ss":33,"used":false},{"PRN":31,"el":82,"az":229,"ss":44,"used":true}]} 
57.326          GPSD_json            pGPSd           {"class":"SKY","device":"/dev/garmingps","xdop":0.57,"ydop":0.59,"vdop":1.17,"tdop":0.73,"hdop":0.82,"gdop":1.61,"pdop":1.43,"satellites":[{"PRN":10,"el":18,"az":150,"ss":32,"used":true},{"PRN":3,"el":23,"az":315,"ss":40,"used":true},{"PRN":26,"el":21,"az":172,"ss":35,"used":true},{"PRN":22,"el":43,"az":303,"ss":42,"used":true},{"PRN":32,"el":51,"az":80,"ss":47,"used":true},{"PRN":25,"el":35,"az":65,"ss":47,"used":true},{"PRN":1,"el":26,"az":272,"ss":43,"used":true},{"PRN":14,"el":73,"az":27,"ss":41,"used":true},{"PRN":12,"el":8,"az":32,"ss":42,"used":true},{"PRN":11,"el":3,"az":265,"ss":35,"used":false},{"PRN":31,"el":82,"az":229,"ss":44,"used":true}]} 
58.327          GPSD_json            pGPSd           {"class":"SKY","device":"/dev/garmingps","xdop":0.57,"ydop":0.59,"vdop":1.17,"tdop":0.73,"hdop":0.82,"gdop":1.61,"pdop":1.43,"satellites":[{"PRN":10,"el":18,"az":150,"ss":31,"used":true},{"PRN":3,"el":23,"az":315,"ss":38,"used":true},{"PRN":26,"el":21,"az":172,"ss":35,"used":true},{"PRN":22,"el":43,"az":303,"ss":42,"used":true},{"PRN":32,"el":51,"az":80,"ss":45,"used":true},{"PRN":25,"el":35,"az":65,"ss":46,"used":true},{"PRN":1,"el":26,"az":272,"ss":44,"used":true},{"PRN":14,"el":73,"az":27,"ss":40,"used":true},{"PRN":12,"el":8,"az":32,"ss":42,"used":true},{"PRN":11,"el":3,"az":265,"ss":36,"used":false},{"PRN":31,"el":83,"az":230,"ss":44,"used":true}]} 
59.330          GPSD_json            pGPSd           {"class":"SKY","device":"/dev/garmingps","xdop":0.57,"ydop":0.59,"vdop":1.17,"tdop":0.73,"hdop":0.82,"gdop":1.61,"pdop":1.43,"satellites":[{"PRN":10,"el":18,"az":150,"ss":32,"used":true},{"PRN":3,"el":23,"az":315,"ss":39,"used":true},{"PRN":26,"el":21,"az":172,"ss":35,"used":true},{"PRN":22,"el":43,"az":303,"ss":42,"used":true},{"PRN":32,"el":51,"az":80,"ss":45,"used":true},{"PRN":25,"el":35,"az":65,"ss":47,"used":true},{"PRN":1,"el":26,"az":272,"ss":44,"used":true},{"PRN":14,"el":73,"az":27,"ss":44,"used":true},{"PRN":12,"el":8,"az":32,"ss":42,"used":true},{"PRN":11,"el":3,"az":265,"ss":36,"used":false},{"PRN":31,"el":83,"az":230,"ss":43,"used":true}]} 
60.331          GPSD_json            pGPSd           {"class":"SKY","device":"/dev/garmingps","xdop":0.57,"ydop":0.59,"vdop":1.17,"tdop":0.73,"hdop":0.82,"gdop":1.61,"pdop":1.43,"satellites":[{"PRN":10,"el":18,"az":150,"ss":32,"used":true},{"PRN":3,"el":23,"az":315,"ss":38,"used":true},{"PRN":26,"el":21,"az":172,"ss":30,"used":true},{"PRN":22,"el":43,"az":303,"ss":43,"used":true},{"PRN":32,"el":51,"az":80,"ss":46,"used":true},{"PRN":25,"el":35,"az":65,"ss":48,"used":true},{"PRN":1,"el":26,"az":272,"ss":43,"used":true},{"PRN":14,"el":73,"az":27,"ss":43,"used":true},{"PRN":12,"el":8,"az":32,"ss":42,"used":true},{"PRN":11,"el":3,"az":265,"ss":37,"used":false},{"PRN":31,"el":83,"az":230,"ss":42,"used":true}]} 
61.333          GPSD_json            pGPSd           {"class":"SKY","device":"/dev/garmingps","xdop":0.57,"ydop":0.59,"vdop":1.17,"tdop":0.73,"hdop":0.82,"gdop":1.61,"pdop":1.43,"satellites":[{"PRN":10,"el":18,"az":150,"ss":34,"used":true},{"PRN":3,"el":23,"az":315,"ss":39,"used":true},{"PRN":26,"el":21,"az":172,"ss":29,"used":true},{"PRN":22,"el":43,"az":303,"ss":44,"used":true},{"PRN":32,"el":51,"az":80,"ss":46,"used":true},{"PRN":25,"el":35,"az":65,"ss":47,"used":true},{"PRN":1,"el":26,"az":272,"ss":43,"used":true},{"PRN":14,"el":73,"az":27,"ss":44,"used":true},{"PRN":12,"el":8,"az":32,"ss":42,"used":true},{"PRN":11,"el":3,"az":265,"ss":38,"used":false},{"PRN":31,"el":83,"az":230,"ss":43,"used":true}]} 
62.335          GPSD_json            pGPSd           {"class":"SKY","device":"/dev/garmingps","xdop":0.57,"ydop":0.59,"vdop":1.17,"tdop":0.73,"hdop":0.82,"gdop":1.61,"pdop":1.43,"satellites":[{"PRN":10,"el":18,"az":150,"ss":33,"used":true},{"PRN":3,"el":23,"az":315,"ss":38,"used":true},{"PRN":26,"el":21,"az":172,"ss":30,"used":true},{"PRN":22,"el":43,"az":303,"ss":45,"used":true},{"PRN":32,"el":51,"az":80,"ss":47,"used":true},{"PRN":25,"el":35,"az":65,"ss":46,"used":true},{"PRN":1,"el":26,"az":271,"ss":43,"used":true},{"PRN":14,"el":73,"az":27,"ss":44,"used":true},{"PRN":12,"el":8,"az":32,"ss":42,"used":true},{"PRN":11,"el":3,"az":265,"ss":39,"used":false},{"PRN":31,"el":83,"az":230,"ss":44,"used":true}]} 
63.337          GPSD_json            pGPSd           {"class":"SKY","device":"/dev/garmingps","xdop":0.57,"ydop":0.59,"vdop":1.17,"tdop":0.73,"hdop":0.82,"gdop":1.61,"pdop":1.43,"satellites":[{"PRN":10,"el":18,"az":150,"ss":35,"used":true},{"PRN":3,"el":23,"az":315,"ss":38,"used":true},{"PRN":26,"el":21,"az":172,"ss":28,"used":true},{"PRN":22,"el":43,"az":303,"ss":41,"used":true},{"PRN":32,"el":51,"az":80,"ss":47,"used":true},{"PRN":25,"el":35,"az":65,"ss":46,"used":true},{"PRN":1,"el":26,"az":271,"ss":43,"used":true},{"PRN":14,"el":73,"az":27,"ss":43,"used":true},{"PRN":12,"el":8,"az":32,"ss":42,"used":true},{"PRN":11,"el":3,"az":265,"ss":40,"used":false},{"PRN":31,"el":83,"az":230,"ss":44,"used":true}]} 
64.339          GPSD_json            pGPSd           {"class":"SKY","device":"/dev/garmingps","xdop":0.57,"ydop":0.59,"vdop":1.17,"tdop":0.73,"hdop":0.82,"gdop":1.61,"pdop":1.43,"satellites":[{"PRN":10,"el":18,"az":150,"ss":32,"used":true},{"PRN":3,"el":23,"az":315,"ss":37,"used":true},{"PRN":26,"el":21,"az":172,"ss":32,"used":true},{"PRN":22,"el":43,"az":303,"ss":43,"used":true},{"PRN":32,"el":51,"az":80,"ss":46,"used":true},{"PRN":25,"el":35,"az":65,"ss":47,"used":true},{"PRN":1,"el":26,"az":271,"ss":44,"used":true},{"PRN":14,"el":73,"az":27,"ss":45,"used":true},{"PRN":12,"el":8,"az":32,"ss":42,"used":true},{"PRN":11,"el":3,"az":265,"ss":41,"used":false},{"PRN":31,"el":83,"az":230,"ss":44,"used":true}]} 
66.342          GPSD_json            pGPSd           {"class":"SKY","device":"/dev/garmingps","xdop":0.57,"ydop":0.59,"vdop":1.17,"tdop":0.73,"hdop":0.82,"gdop":1.61,"pdop":1.43,"satellites":[{"PRN":10,"el":18,"az":150,"ss":32,"used":true},{"PRN":3,"el":23,"az":315,"ss":38,"used":true},{"PRN":26,"el":21,"az":172,"ss":30,"used":true},{"PRN":22,"el":43,"az":303,"ss":43,"used":true},{"PRN":32,"el":51,"az":80,"ss":48,"used":true},{"PRN":25,"el":35,"az":65,"ss":46,"used":true},{"PRN":1,"el":26,"az":271,"ss":44,"used":true},{"PRN":14,"el":73,"az":27,"ss":44,"used":true},{"PRN":12,"el":8,"az":32,"ss":42,"used":true},{"PRN":11,"el":3,"az":265,"ss":42,"used":false},{"PRN":31,"el":83,"az":230,"ss":44,"used":true}]} 
67.344          GPSD_json            pGPSd           {"class":"SKY","device":"/dev/garmingps","xdop":0.57,"ydop":0.59,"vdop":1.17,"tdop":0.73,"hdop":0.82,"gdop":1.61,"pdop":1.43,"satellites":[{"PRN":10,"el":18,"az":150,"ss":32,"used":true},{"PRN":3,"el":23,"az":315,"ss":39,"used":true},{"PRN":26,"el":21,"az":172,"ss":31,"used":true},{"PRN":22,"el":43,"az":303,"ss":43,"used":true},{"PRN":32,"el":51,"az":80,"ss":44,"used":true},{"PRN":25,"el":35,"az":65,"ss":46,"used":true},{"PRN":1,"el":26,"az":271,"ss":43,"used":true},{"PRN":14,"el":73,"az":27,"ss":43,"used":true},{"PRN":12,"el":8,"az":32,"ss":42,"used":true},{"PRN":11,"el":3,"az":265,"ss":42,"used":false},{"PRN":31,"el":83,"az":230,"ss":45,"used":true}]} 
68.347          GPSD_json            pGPSd           {"class":"SKY","device":"/dev/garmingps","xdop":0.57,"ydop":0.59,"vdop":1.17,"tdop":0.73,"hdop":0.82,"gdop":1.61,"pdop":1.43,"satellites":[{"PRN":10,"el":18,"az":150,"ss":36,"used":true},{"PRN":3,"el":23,"az":315,"ss":38,"used":true},{"PRN":26,"el":21,"az":172,"ss":31,"used":true},{"PRN":22,"el":43,"az":303,"ss":43,"used":true},{"PRN":32,"el":51,"az":80,"ss":47,"used":true},{"PRN":25,"el":35,"az":65,"ss":46,"used":true},{"PRN":1,"el":26,"az":271,"ss":43,"used":true},{"PRN":14,"el":73,"az":27,"ss":44,"used":true},{"PRN":12,"el":8,"az":32,"ss":42,"used":true},{"PRN":11,"el":3,"az":265,"ss":43,"used":false},{"PRN":31,"el":83,"az":230,"ss":44,"used":true}]} 
69.348          GPSD_json            pGPSd           {"class":"SKY","device":"/dev/garmingps","xdop":0.57,"ydop":0.59,"vdop":1.17,"tdop":0.73,"hdop":0.82,"gdop":1.61,"pdop":1.43,"satellites":[{"PRN":10,"el":18,"az":150,"ss":38,"used":true},{"PRN":3,"el":23,"az":315,"ss":38,"used":true},{"PRN":26,"el":21,"az":172,"ss":31,"used":true},{"PRN":22,"el":43,"az":303,"ss":44,"used":true},{"PRN":32,"el":51,"az":80,"ss":46,"used":true},{"PRN":25,"el":35,"az":65,"ss":46,"used":true},{"PRN":1,"el":26,"az":271,"ss":45,"used":true},{"PRN":14,"el":73,"az":27,"ss":43,"used":true},{"PRN":12,"el":8,"az":32,"ss":42,"used":true},{"PRN":11,"el":3,"az":265,"ss":42,"used":false},{"PRN":31,"el":83,"az":230,"ss":45,"used":true}]} 
70.350          GPSD_json            pGPSd           {"class":"SKY","device":"/dev/garmingps","xdop":0.57,"ydop":0.59,"vdop":1.17,"tdop":0.73,"hdop":0.82,"gdop":1.61,"pdop":1.43,"satellites":[{"PRN":10,"el":18,"az":150,"ss":38,"used":true},{"PRN":3,"el":23,"az":315,"ss":39,"used":true},{"PRN":26,"el":21,"az":172,"ss":31,"used":true},{"PRN":22,"el":43,"az":303,"ss":42,"used":true},{"PRN":32,"el":51,"az":80,"ss":47,"used":true},{"PRN":25,"el":35,"az":65,"ss":46,"used":true},{"PRN":1,"el":26,"az":271,"ss":44,"used":true},{"PRN":14,"el":73,"az":27,"ss":42,"used":true},{"PRN":12,"el":8,"az":32,"ss":43,"used":true},{"PRN":11,"el":3,"az":265,"ss":41,"used":false},{"PRN":31,"el":83,"az":230,"ss":44,"used":true}]} 
71.353          GPSD_json            pGPSd           {"class":"SKY","device":"/dev/garmingps","xdop":0.57,"ydop":0.59,"vdop":1.17,"tdop":0.73,"hdop":0.82,"gdop":1.61,"pdop":1.43,"satellites":[{"PRN":10,"el":18,"az":150,"ss":39,"used":true},{"PRN":3,"el":23,"az":315,"ss":39,"used":true},{"PRN":26,"el":21,"az":172,"ss":35,"used":true},{"PRN":22,"el":43,"az":303,"ss":42,"used":true},{"PRN":32,"el":51,"az":80,"ss":47,"used":true},{"PRN":25,"el":35,"az":65,"ss":47,"used":true},{"PRN":1,"el":26,"az":271,"ss":44,"used":true},{"PRN":14,"el":73,"az":27,"ss":44,"used":true},{"PRN":12,"el":8,"az":32,"ss":43,"used":true},{"PRN":11,"el":3,"az":265,"ss":42,"used":false},{"PRN":31,"el":83,"az":230,"ss":45,"used":true}]} 
72.356          GPSD_json            pGPSd           {"class":"SKY","device":"/dev/garmingps","xdop":0.57,"ydop":0.59,"vdop":1.17,"tdop":0.73,"hdop":0.82,"gdop":1.61,"pdop":1.43,"satellites":[{"PRN":10,"el":18,"az":150,"ss":39,"used":true},{"PRN":3,"el":23,"az":315,"ss":40,"used":true},{"PRN":26,"el":21,"az":172,"ss":39,"used":true},{"PRN":22,"el":43,"az":303,"ss":42,"used":true},{"PRN":32,"el":51,"az":80,"ss":47,"used":true},{"PRN":25,"el":35,"az":65,"ss":48,"used":true},{"PRN":1,"el":26,"az":271,"ss":44,"used":true},{"PRN":14,"el":73,"az":27,"ss":43,"used":true},{"PRN":12,"el":8,"az":32,"ss":42,"used":true},{"PRN":11,"el":3,"az":265,"ss":42,"used":false},{"PRN":31,"el":83,"az":230,"ss":44,"used":true}]} 
73.357          GPSD_json            pGPSd           {"class":"SKY","device":"/dev/garmingps","xdop":0.57,"ydop":0.59,"vdop":1.17,"tdop":0.73,"hdop":0.82,"gdop":1.61,"pdop":1.43,"satellites":[{"PRN":10,"el":18,"az":150,"ss":39,"used":true},{"PRN":3,"el":23,"az":315,"ss":39,"used":true},{"PRN":26,"el":21,"az":172,"ss":38,"used":true},{"PRN":22,"el":43,"az":303,"ss":44,"used":true},{"PRN":32,"el":51,"az":80,"ss":46,"used":true},{"PRN":25,"el":35,"az":65,"ss":49,"used":true},{"PRN":1,"el":26,"az":271,"ss":45,"used":true},{"PRN":14,"el":73,"az":27,"ss":44,"used":true},{"PRN":12,"el":8,"az":32,"ss":42,"used":true},{"PRN":11,"el":3,"az":265,"ss":41,"used":false},{"PRN":31,"el":83,"az":230,"ss":45,"used":true}]} 
74.360          GPSD_json            pGPSd           {"class":"SKY","device":"/dev/garmingps","xdop":0.57,"ydop":0.59,"vdop":1.17,"tdop":0.73,"hdop":0.82,"gdop":1.61,"pdop":1.43,"satellites":[{"PRN":10,"el":18,"az":150,"ss":37,"used":true},{"PRN":3,"el":23,"az":315,"ss":39,"used":true},{"PRN":26,"el":21,"az":172,"ss":39,"used":true},{"PRN":22,"el":43,"az":303,"ss":42,"used":true},{"PRN":32,"el":51,"az":80,"ss":46,"used":true},{"PRN":25,"el":35,"az":65,"ss":48,"used":true},{"PRN":1,"el":26,"az":271,"ss":44,"used":true},{"PRN":14,"el":73,"az":27,"ss":44,"used":true},{"PRN":12,"el":8,"az":32,"ss":42,"used":true},{"PRN":11,"el":3,"az":265,"ss":41,"used":false},{"PRN":31,"el":83,"az":230,"ss":43,"used":true}]} 
75.362          GPSD_json            pGPSd           {"class":"SKY","device":"/dev/garmingps","xdop":0.57,"ydop":0.59,"vdop":1.17,"tdop":0.73,"hdop":0.82,"gdop":1.61,"pdop":1.43,"satellites":[{"PRN":10,"el":18,"az":150,"ss":37,"used":true},{"PRN":3,"el":23,"az":315,"ss":38,"used":true},{"PRN":26,"el":21,"az":172,"ss":40,"used":true},{"PRN":22,"el":43,"az":303,"ss":42,"used":true},{"PRN":32,"el":51,"az":80,"ss":47,"used":true},{"PRN":25,"el":35,"az":65,"ss":47,"used":true},{"PRN":1,"el":26,"az":271,"ss":44,"used":true},{"PRN":14,"el":73,"az":27,"ss":46,"used":true},{"PRN":12,"el":8,"az":32,"ss":42,"used":true},{"PRN":11,"el":3,"az":265,"ss":41,"used":false},{"PRN":31,"el":83,"az":230,"ss":44,"used":true}]} 
76.363          GPSD_json            pGPSd           {"class":"SKY","device":"/dev/garmingps","xdop":0.57,"ydop":0.59,"vdop":1.17,"tdop":0.73,"hdop":0.82,"gdop":1.61,"pdop":1.43,"satellites":[{"PRN":10,"el":18,"az":150,"ss":37,"used":true},{"PRN":3,"el":23,"az":315,"ss":38,"used":true},{"PRN":26,"el":21,"az":172,"ss":40,"used":true},{"PRN":22,"el":43,"az":303,"ss":43,"used":true},{"PRN":32,"el":51,"az":80,"ss":47,"used":true},{"PRN":25,"el":35,"az":65,"ss":47,"used":true},{"PRN":1,"el":26,"az":271,"ss":44,"used":true},{"PRN":14,"el":73,"az":27,"ss":44,"used":true},{"PRN":12,"el":8,"az":32,"ss":42,"used":true},{"PRN":11,"el":3,"az":265,"ss":42,"used":false},{"PRN":31,"el":83,"az":230,"ss":43,"used":true}]} 
77.365          GPSD_json            pGPSd           {"class":"SKY","device":"/dev/garmingps","xdop":0.57,"ydop":0.59,"vdop":1.17,"tdop":0.73,"hdop":0.82,"gdop":1.61,"pdop":1.43,"satellites":[{"PRN":10,"el":18,"az":150,"ss":38,"used":true},{"PRN":3,"el":23,"az":315,"ss":38,"used":true},{"PRN":26,"el":21,"az":172,"ss":40,"used":true},{"PRN":22,"el":43,"az":303,"ss":42,"used":true},{"PRN":32,"el":51,"az":80,"ss":46,"used":true},{"PRN":25,"el":35,"az":65,"ss":47,"used":true},{"PRN":1,"el":26,"az":271,"ss":45,"used":true},{"PRN":14,"el":73,"az":27,"ss":45,"used":true},{"PRN":12,"el":8,"az":32,"ss":42,"used":true},{"PRN":11,"el":3,"az":265,"ss":42,"used":false},{"PRN":31,"el":83,"az":230,"ss":44,"used":true}]} 
78.366          GPSD_json            pGPSd           {"class":"SKY","device":"/dev/garmingps","xdop":0.57,"ydop":0.59,"vdop":1.17,"tdop":0.73,"hdop":0.82,"gdop":1.61,"pdop":1.43,"satellites":[{"PRN":10,"el":18,"az":150,"ss":39,"used":true},{"PRN":3,"el":23,"az":315,"ss":39,"used":true},{"PRN":26,"el":21,"az":172,"ss":40,"used":true},{"PRN":22,"el":43,"az":303,"ss":43,"used":true},{"PRN":32,"el":51,"az":80,"ss":46,"used":true},{"PRN":25,"el":35,"az":65,"ss":47,"used":true},{"PRN":1,"el":26,"az":271,"ss":44,"used":true},{"PRN":14,"el":73,"az":27,"ss":44,"used":true},{"PRN":12,"el":8,"az":32,"ss":43,"used":true},{"PRN":11,"el":3,"az":265,"ss":42,"used":false},{"PRN":31,"el":83,"az":230,"ss":43,"used":true}]} 
79.369          GPSD_json            pGPSd           {"class":"SKY","device":"/dev/garmingps","xdop":0.57,"ydop":0.59,"vdop":1.17,"tdop":0.73,"hdop":0.82,"gdop":1.61,"pdop":1.43,"satellites":[{"PRN":10,"el":18,"az":150,"ss":39,"used":true},{"PRN":3,"el":23,"az":315,"ss":39,"used":true},{"PRN":26,"el":21,"az":172,"ss":39,"used":true},{"PRN":22,"el":43,"az":303,"ss":42,"used":true},{"PRN":32,"el":51,"az":80,"ss":47,"used":true},{"PRN":25,"el":35,"az":65,"ss":48,"used":true},{"PRN":1,"el":26,"az":271,"ss":43,"used":true},{"PRN":14,"el":73,"az":27,"ss":44,"used":true},{"PRN":12,"el":8,"az":32,"ss":42,"used":true},{"PRN":11,"el":3,"az":265,"ss":42,"used":false},{"PRN":31,"el":83,"az":230,"ss":45,"used":true}]} 
80.371          GPSD_json            pGPSd           {"class":"SKY","device":"/dev/garmingps","xdop":0.57,"ydop":0.59,"vdop":1.17,"tdop":0.73,"hdop":0.82,"gdop":1.61,"pdop":1.43,"satellites":[{"PRN":10,"el":18,"az":150,"ss":39,"used":true},{"PRN":3,"el":23,"az":315,"ss":39,"used":true},{"PRN":26,"el":21,"az":172,"ss":40,"used":true},{"PRN":22,"el":43,"az":303,"ss":42,"used":true},{"PRN":32,"el":51,"az":80,"ss":47,"used":true},{"PRN":25,"el":35,"az":65,"ss":47,"used":true},{"PRN":1,"el":26,"az":271,"ss":44,"used":true},{"PRN":14,"el":73,"az":27,"ss":44,"used":true},{"PRN":12,"el":8,"az":32,"ss":42,"used":true},{"PRN":11,"el":3,"az":265,"ss":42,"used":false},{"PRN":31,"el":83,"az":230,"ss":44,"used":true}]} 
81.374          GPSD_json            pGPSd           {"class":"SKY","device":"/dev/garmingps","xdop":0.57,"ydop":0.59,"vdop":1.17,"tdop":0.73,"hdop":0.82,"gdop":1.61,"pdop":1.43,"satellites":[{"PRN":10,"el":18,"az":150,"ss":36,"used":true},{"PRN":3,"el":23,"az":315,"ss":38,"used":true},{"PRN":26,"el":21,"az":172,"ss":42,"used":true},{"PRN":22,"el":43,"az":303,"ss":43,"used":true},{"PRN":32,"el":51,"az":80,"ss":46,"used":true},{"PRN":25,"el":35,"az":65,"ss":47,"used":true},{"PRN":1,"el":26,"az":271,"ss":44,"used":true},{"PRN":14,"el":73,"az":27,"ss":44,"used":true},{"PRN":12,"el":8,"az":32,"ss":42,"used":true},{"PRN":11,"el":3,"az":265,"ss":42,"used":false},{"PRN":31,"el":83,"az":230,"ss":45,"used":true}]} 
82.377          GPSD_json            pGPSd           {"class":"SKY","device":"/dev/garmingps","xdop":0.57,"ydop":0.59,"vdop":1.17,"tdop":0.73,"hdop":0.82,"gdop":1.61,"pdop":1.43,"satellites":[{"PRN":10,"el":18,"az":150,"ss":38,"used":true},{"PRN":3,"el":23,"az":315,"ss":39,"used":true},{"PRN":26,"el":21,"az":172,"ss":40,"used":true},{"PRN":22,"el":43,"az":303,"ss":45,"used":true},{"PRN":32,"el":51,"az":80,"ss":47,"used":true},{"PRN":25,"el":35,"az":65,"ss":46,"used":true},{"PRN":1,"el":26,"az":271,"ss":41,"used":true},{"PRN":14,"el":73,"az":27,"ss":42,"used":true},{"PRN":12,"el":8,"az":32,"ss":42,"used":true},{"PRN":11,"el":3,"az":264,"ss":42,"used":false},{"PRN":31,"el":83,"az":230,"ss":45,"used":true}]} 
