1.716           GPSD_json            pGPSd           {"class":"SKY","device":"/dev/garmingps","xdop":0.58,"ydop":0.59,"vdop":1.17,"tdop":0.73,"hdop":0.82,"gdop":1.61,"pdop":1.43,"satellites":[{"PRN":10,"el":20,"az":149,"ss":43,"used":true},{"PRN":3,"el":21,"az":315,"ss":44,"used":true},{"PRN":26,"el":18,"az":172,"ss":35,"used":true},{"PRN":22,"el":41,"az":304,"ss":46,"used":true},{"PRN":32,"el":53,"az":77,"ss":50,"used":true},{"PRN":25,"el":36,"az":67,"ss":47,"used":true},{"PRN":1,"el":27,"az":274,"ss":40,"used":true},{"PRN":14,"el":74,"az":21,"ss":45,"used":true},{"PRN":12,"el":9,"az":33,"ss":41,"used":true},{"PRN":11,"el":4,"az":266,"ss":33,"used":false},{"PRN":31,"el":80,"az":225,"ss":47,"used":true}]} 
2.718           GPSD_json            pGPSd           {"class":"SKY","device":"/dev/garmingps","xdop":0.58,"ydop":0.59,"vdop":1.17,"tdop":0.73,"hdop":0.82,"gdop":1.61,"pdop":1.43,"satellites":[{"PRN":10,"el":20,"az":149,"ss":43,"used":true},{"PRN":3,"el":21,"az":315,"ss":45,"used":true},{"PRN":26,"el":18,"az":172,"ss":38,"used":true},{"PRN":22,"el":41,"az":304,"ss":45,"used":true},{"PRN":32,"el":53,"az":77,"ss":50,"used":true},{"PRN":25,"el":36,"az":67,"ss":47,"used":true},{"PRN":1,"el":27,"az":274,"ss":42,"used":true},{"PRN":14,"el":74,"az":21,"ss":45,"used":true},{"PRN":12,"el":9,"az":33,"ss":41,"used":true},{"PRN":11,"el":4,"az":266,"ss":32,"used":false},{"PRN":31,"el":80,"az":225,"ss":47,"used":true}]} 
2.718           GPSD_json            pGPSd           {"class":"SKY","device":"/dev/garmingps","xdop":0.58,"ydop":0.59,"vdop":1.17,"tdop":0.73,"hdop":0.82,"gdop":1.61,"pdop":1.43,"satellites":[{"PRN":10,"el":20,"az":149,"ss":43,"used":true},{"PRN":3,"el":21,"az":315,"ss":45,"used":true},{"PRN":26,"el":18,"az":172,"ss":38,"used":true},{"PRN":22,"el":41,"az":304,"ss":45,"used":true},{"PRN":32,"el":53,"az":77,"ss":50,"used":true},{"PRN":25,"el":36,"az":67,"ss":47,"used":true},{"PRN":1,"el":27,"az":274,"ss":42,"used":true},{"PRN":14,"el":74,"az":21,"ss":45,"used":true},{"PRN":12,"el":9,"az":33,"ss":41,"used":true},{"PRN":11,"el":4,"az":266,"ss":32,"used":false},{"PRN":31,"el":80,"az":225,"ss":47,"used":true}]} 
3.720           GPSD_json            pGPSd           {"class":"SKY","device":"/dev/garmingps","xdop":0.58,"ydop":0.59,"vdop":1.17,"tdop":0.73,"hdop":0.82,"gdop":1.61,"pdop":1.43,"satellites":[{"PRN":10,"el":20,"az":149,"ss":43,"used":true},{"PRN":3,"el":21,"az":315,"ss":44,"used":true},{"PRN":26,"el":18,"az":172,"ss":39,"used":true},{"PRN":22,"el":41,"az":304,"ss":48,"used":true},{"PRN":32,"el":53,"az":77,"ss":50,"used":true},{"PRN":25,"el":36,"az":67,"ss":47,"used":true},{"PRN":1,"el":27,"az":274,"ss":41,"used":true},{"PRN":14,"el":74,"az":21,"ss":44,"used":true},{"PRN":12,"el":9,"az":33,"ss":41,"used":true},{"PRN":11,"el":4,"az":266,"ss":32,"used":false},{"PRN":31,"el":80,"az":225,"ss":45,"used":true}]} 
3.720           GPSD_json            pGPSd           {"class":"SKY","device":"/dev/garmingps","xdop":0.58,"ydop":0.59,"vdop":1.17,"tdop":0.73,"hdop":0.82,"gdop":1.61,"pdop":1.43,"satellites":[{"PRN":10,"el":20,"az":149,"ss":43,"used":true},{"PRN":3,"el":21,"az":315,"ss":44,"used":true},{"PRN":26,"el":18,"az":172,"ss":39,"used":true},{"PRN":22,"el":41,"az":304,"ss":48,"used":true},{"PRN":32,"el":53,"az":77,"ss":50,"used":true},{"PRN":25,"el":36,"az":67,"ss":47,"used":true},{"PRN":1,"el":27,"az":274,"ss":41,"used":true},{"PRN":14,"el":74,"az":21,"ss":44,"used":true},{"PRN":12,"el":9,"az":33,"ss":41,"used":true},{"PRN":11,"el":4,"az":266,"ss":32,"used":false},{"PRN":31,"el":80,"az":225,"ss":45,"used":true}]} 
4.722           GPSD_json            pGPSd           {"class":"SKY","device":"/dev/garmingps","xdop":0.58,"ydop":0.59,"vdop":1.17,"tdop":0.73,"hdop":0.82,"gdop":1.61,"pdop":1.43,"satellites":[{"PRN":10,"el":20,"az":149,"ss":43,"used":true},{"PRN":3,"el":21,"az":315,"ss":44,"used":true},{"PRN":26,"el":18,"az":172,"ss":37,"used":true},{"PRN":22,"el":41,"az":304,"ss":48,"used":true},{"PRN":32,"el":53,"az":77,"ss":49,"used":true},{"PRN":25,"el":36,"az":67,"ss":45,"used":true},{"PRN":1,"el":27,"az":274,"ss":40,"used":true},{"PRN":14,"el":74,"az":21,"ss":43,"used":true},{"PRN":12,"el":9,"az":33,"ss":42,"used":true},{"PRN":11,"el":4,"az":266,"ss":32,"used":false},{"PRN":31,"el":80,"az":225,"ss":47,"used":true}]} 
5.725           GPSD_json            pGPSd           {"class":"SKY","device":"/dev/garmingps","xdop":0.58,"ydop":0.59,"vdop":1.17,"tdop":0.73,"hdop":0.82,"gdop":1.61,"pdop":1.43,"satellites":[{"PRN":10,"el":20,"az":149,"ss":44,"used":true},{"PRN":3,"el":21,"az":315,"ss":43,"used":true},{"PRN":26,"el":18,"az":172,"ss":37,"used":true},{"PRN":22,"el":41,"az":304,"ss":48,"used":true},{"PRN":32,"el":53,"az":77,"ss":49,"used":true},{"PRN":25,"el":36,"az":67,"ss":45,"used":true},{"PRN":1,"el":27,"az":274,"ss":39,"used":true},{"PRN":14,"el":74,"az":21,"ss":43,"used":true},{"PRN":12,"el":9,"az":33,"ss":42,"used":true},{"PRN":11,"el":4,"az":266,"ss":31,"used":false},{"PRN":31,"el":80,"az":225,"ss":47,"used":true}]} 
6.727           GPSD_json            pGPSd           {"class":"SKY","device":"/dev/garmingps","xdop":0.58,"ydop":0.59,"vdop":1.17,"tdop":0.73,"hdop":0.82,"gdop":1.61,"pdop":1.43,"satellites":[{"PRN":10,"el":20,"az":149,"ss":44,"used":true},{"PRN":3,"el":21,"az":315,"ss":44,"used":true},{"PRN":26,"el":18,"az":172,"ss":37,"used":true},{"PRN":22,"el":41,"az":304,"ss":48,"used":true},{"PRN":32,"el":53,"az":77,"ss":50,"used":true},{"PRN":25,"el":36,"az":67,"ss":46,"used":true},{"PRN":1,"el":27,"az":274,"ss":41,"used":true},{"PRN":14,"el":74,"az":21,"ss":43,"used":true},{"PRN":12,"el":9,"az":33,"ss":41,"used":true},{"PRN":11,"el":4,"az":266,"ss":31,"used":false},{"PRN":31,"el":80,"az":225,"ss":46,"used":true}]} 
6.727           GPSD_json            pGPSd           {"class":"SKY","device":"/dev/garmingps","xdop":0.58,"ydop":0.59,"vdop":1.17,"tdop":0.73,"hdop":0.82,"gdop":1.61,"pdop":1.43,"satellites":[{"PRN":10,"el":20,"az":149,"ss":44,"used":true},{"PRN":3,"el":21,"az":315,"ss":44,"used":true},{"PRN":26,"el":18,"az":172,"ss":37,"used":true},{"PRN":22,"el":41,"az":304,"ss":48,"used":true},{"PRN":32,"el":53,"az":77,"ss":50,"used":true},{"PRN":25,"el":36,"az":67,"ss":46,"used":true},{"PRN":1,"el":27,"az":274,"ss":41,"used":true},{"PRN":14,"el":74,"az":21,"ss":43,"used":true},{"PRN":12,"el":9,"az":33,"ss":41,"used":true},{"PRN":11,"el":4,"az":266,"ss":31,"used":false},{"PRN":31,"el":80,"az":225,"ss":46,"used":true}]} 
7.729           GPSD_json            pGPSd           {"class":"SKY","device":"/dev/garmingps","xdop":0.58,"ydop":0.59,"vdop":1.17,"tdop":0.73,"hdop":0.82,"gdop":1.61,"pdop":1.43,"satellites":[{"PRN":10,"el":20,"az":149,"ss":44,"used":true},{"PRN":3,"el":21,"az":315,"ss":43,"used":true},{"PRN":26,"el":18,"az":172,"ss":38,"used":true},{"PRN":22,"el":41,"az":304,"ss":50,"used":true},{"PRN":32,"el":53,"az":77,"ss":49,"used":true},{"PRN":25,"el":36,"az":67,"ss":46,"used":true},{"PRN":1,"el":27,"az":274,"ss":42,"used":true},{"PRN":14,"el":74,"az":21,"ss":43,"used":true},{"PRN":12,"el":9,"az":33,"ss":41,"used":true},{"PRN":11,"el":4,"az":266,"ss":31,"used":false},{"PRN":31,"el":80,"az":225,"ss":47,"used":true}]} 
8.730           GPSD_json            pGPSd           {"class":"SKY","device":"/dev/garmingps","xdop":0.58,"ydop":0.59,"vdop":1.17,"tdop":0.73,"hdop":0.82,"gdop":1.61,"pdop":1.43,"satellites":[{"PRN":10,"el":20,"az":149,"ss":41,"used":true},{"PRN":3,"el":21,"az":315,"ss":43,"used":true},{"PRN":26,"el":18,"az":172,"ss":39,"used":true},{"PRN":22,"el":41,"az":304,"ss":46,"used":true},{"PRN":32,"el":53,"az":77,"ss":50,"used":true},{"PRN":25,"el":36,"az":67,"ss":46,"used":true},{"PRN":1,"el":27,"az":274,"ss":39,"used":true},{"PRN":14,"el":74,"az":21,"ss":43,"used":true},{"PRN":12,"el":9,"az":33,"ss":41,"used":true},{"PRN":11,"el":4,"az":266,"ss":31,"used":false},{"PRN":31,"el":80,"az":225,"ss":47,"used":true}]} 
9.732           GPSD_json            pGPSd           {"class":"SKY","device":"/dev/garmingps","xdop":0.58,"ydop":0.59,"vdop":1.17,"tdop":0.73,"hdop":0.82,"gdop":1.61,"pdop":1.43,"satellites":[{"PRN":10,"el":20,"az":149,"ss":42,"used":true},{"PRN":3,"el":21,"az":315,"ss":41,"used":true},{"PRN":26,"el":18,"az":172,"ss":38,"used":true},{"PRN":22,"el":41,"az":304,"ss":47,"used":true},{"PRN":32,"el":53,"az":77,"ss":48,"used":true},{"PRN":25,"el":36,"az":67,"ss":47,"used":true},{"PRN":1,"el":27,"az":274,"ss":40,"used":true},{"PRN":14,"el":74,"az":21,"ss":43,"used":true},{"PRN":12,"el":9,"az":33,"ss":42,"used":true},{"PRN":11,"el":4,"az":266,"ss":31,"used":false},{"PRN":31,"el":80,"az":225,"ss":47,"used":true}]} 
10.737          GPSD_json            pGPSd           {"class":"SKY","device":"/dev/garmingps","xdop":0.58,"ydop":0.59,"vdop":1.17,"tdop":0.73,"hdop":0.82,"gdop":1.61,"pdop":1.43,"satellites":[{"PRN":10,"el":20,"az":149,"ss":42,"used":true},{"PRN":3,"el":21,"az":315,"ss":45,"used":true},{"PRN":26,"el":18,"az":172,"ss":38,"used":true},{"PRN":22,"el":41,"az":304,"ss":47,"used":true},{"PRN":32,"el":53,"az":77,"ss":49,"used":true},{"PRN":25,"el":36,"az":67,"ss":46,"used":true},{"PRN":1,"el":27,"az":274,"ss":40,"used":true},{"PRN":14,"el":74,"az":21,"ss":43,"used":true},{"PRN":12,"el":9,"az":33,"ss":41,"used":true},{"PRN":11,"el":4,"az":266,"ss":32,"used":false},{"PRN":31,"el":80,"az":225,"ss":46,"used":true}]} 
11.739          GPSD_json            pGPSd           {"class":"SKY","device":"/dev/garmingps","xdop":0.58,"ydop":0.59,"vdop":1.17,"tdop":0.73,"hdop":0.82,"gdop":1.61,"pdop":1.43,"satellites":[{"PRN":10,"el":20,"az":149,"ss":42,"used":true},{"PRN":3,"el":21,"az":315,"ss":44,"used":true},{"PRN":26,"el":18,"az":172,"ss":38,"used":true},{"PRN":22,"el":41,"az":304,"ss":45,"used":true},{"PRN":32,"el":53,"az":77,"ss":48,"used":true},{"PRN":25,"el":36,"az":67,"ss":48,"used":true},{"PRN":1,"el":27,"az":274,"ss":42,"used":true},{"PRN":14,"el":74,"az":21,"ss":42,"used":true},{"PRN":12,"el":9,"az":33,"ss":40,"used":true},{"PRN":11,"el":4,"az":266,"ss":33,"used":false},{"PRN":31,"el":80,"az":225,"ss":45,"used":true}]} 
12.741          GPSD_json            pGPSd           {"class":"SKY","device":"/dev/garmingps","xdop":0.58,"ydop":0.59,"vdop":1.17,"tdop":0.73,"hdop":0.82,"gdop":1.61,"pdop":1.43,"satellites":[{"PRN":10,"el":20,"az":149,"ss":43,"used":true},{"PRN":3,"el":21,"az":315,"ss":42,"used":true},{"PRN":26,"el":18,"az":172,"ss":39,"used":true},{"PRN":22,"el":41,"az":304,"ss":45,"used":true},{"PRN":32,"el":53,"az":77,"ss":46,"used":true},{"PRN":25,"el":36,"az":67,"ss":48,"used":true},{"PRN":1,"el":27,"az":274,"ss":42,"used":true},{"PRN":14,"el":74,"az":21,"ss":43,"used":true},{"PRN":12,"el":9,"az":33,"ss":40,"used":true},{"PRN":11,"el":4,"az":266,"ss":33,"used":false},{"PRN":31,"el":80,"az":225,"ss":45,"used":true}]} 
13.743          GPSD_json            pGPSd           {"class":"SKY","device":"/dev/garmingps","xdop":0.58,"ydop":0.59,"vdop":1.17,"tdop":0.73,"hdop":0.82,"gdop":1.61,"pdop":1.43,"satellites":[{"PRN":10,"el":20,"az":149,"ss":43,"used":true},{"PRN":3,"el":21,"az":315,"ss":42,"used":true},{"PRN":26,"el":19,"az":172,"ss":39,"used":true},{"PRN":22,"el":41,"az":304,"ss":44,"used":true},{"PRN":32,"el":53,"az":77,"ss":46,"used":true},{"PRN":25,"el":36,"az":67,"ss":47,"used":true},{"PRN":1,"el":27,"az":274,"ss":42,"used":true},{"PRN":14,"el":74,"az":21,"ss":43,"used":true},{"PRN":12,"el":9,"az":33,"ss":39,"used":true},{"PRN":11,"el":4,"az":266,"ss":33,"used":false},{"PRN":31,"el":80,"az":225,"ss":47,"used":true}]} 
14.744          GPSD_json            pGPSd           {"class":"SKY","device":"/dev/garmingps","xdop":0.58,"ydop":0.59,"vdop":1.17,"tdop":0.73,"hdop":0.82,"gdop":1.61,"pdop":1.43,"satellites":[{"PRN":10,"el":20,"az":149,"ss":44,"used":true},{"PRN":3,"el":21,"az":315,"ss":41,"used":true},{"PRN":26,"el":19,"az":172,"ss":38,"used":true},{"PRN":22,"el":41,"az":304,"ss":45,"used":true},{"PRN":32,"el":53,"az":77,"ss":46,"used":true},{"PRN":25,"el":36,"az":67,"ss":46,"used":true},{"PRN":1,"el":27,"az":274,"ss":42,"used":true},{"PRN":14,"el":74,"az":21,"ss":44,"used":true},{"PRN":12,"el":9,"az":33,"ss":39,"used":true},{"PRN":11,"el":4,"az":266,"ss":32,"used":false},{"PRN":31,"el":80,"az":225,"ss":47,"used":true}]} 
15.747          GPSD_json            pGPSd           {"class":"SKY","device":"/dev/garmingps","xdop":0.58,"ydop":0.59,"vdop":1.17,"tdop":0.73,"hdop":0.82,"gdop":1.61,"pdop":1.43,"satellites":[{"PRN":10,"el":20,"az":149,"ss":45,"used":true},{"PRN":3,"el":21,"az":315,"ss":42,"used":true},{"PRN":26,"el":19,"az":172,"ss":38,"used":true},{"PRN":22,"el":41,"az":304,"ss":46,"used":true},{"PRN":32,"el":53,"az":77,"ss":48,"used":true},{"PRN":25,"el":36,"az":67,"ss":46,"used":true},{"PRN":1,"el":27,"az":274,"ss":41,"used":true},{"PRN":14,"el":74,"az":21,"ss":45,"used":true},{"PRN":12,"el":9,"az":33,"ss":38,"used":true},{"PRN":11,"el":4,"az":266,"ss":32,"used":false},{"PRN":31,"el":80,"az":225,"ss":48,"used":true}]} 
16.748          GPSD_json            pGPSd           {"class":"SKY","device":"/dev/garmingps","xdop":0.58,"ydop":0.59,"vdop":1.17,"tdop":0.73,"hdop":0.82,"gdop":1.61,"pdop":1.43,"satellites":[{"PRN":10,"el":20,"az":149,"ss":44,"used":true},{"PRN":3,"el":21,"az":315,"ss":40,"used":true},{"PRN":26,"el":19,"az":172,"ss":39,"used":true},{"PRN":22,"el":41,"az":304,"ss":45,"used":true},{"PRN":32,"el":53,"az":77,"ss":48,"used":true},{"PRN":25,"el":36,"az":67,"ss":47,"used":true},{"PRN":1,"el":27,"az":274,"ss":41,"used":true},{"PRN":14,"el":74,"az":21,"ss":46,"used":true},{"PRN":12,"el":9,"az":33,"ss":39,"used":true},{"PRN":11,"el":4,"az":266,"ss":34,"used":false},{"PRN":31,"el":80,"az":225,"ss":47,"used":true}]} 
17.750          GPSD_json            pGPSd           {"class":"SKY","device":"/dev/garmingps","xdop":0.58,"ydop":0.59,"vdop":1.17,"tdop":0.73,"hdop":0.82,"gdop":1.61,"pdop":1.43,"satellites":[{"PRN":10,"el":20,"az":149,"ss":42,"used":true},{"PRN":3,"el":21,"az":315,"ss":41,"used":true},{"PRN":26,"el":19,"az":172,"ss":37,"used":true},{"PRN":22,"el":41,"az":304,"ss":44,"used":true},{"PRN":32,"el":53,"az":77,"ss":47,"used":true},{"PRN":25,"el":36,"az":67,"ss":48,"used":true},{"PRN":1,"el":27,"az":274,"ss":42,"used":true},{"PRN":14,"el":74,"az":21,"ss":47,"used":true},{"PRN":12,"el":9,"az":33,"ss":40,"used":true},{"PRN":11,"el":4,"az":266,"ss":35,"used":false},{"PRN":31,"el":80,"az":225,"ss":44,"used":true}]} 
18.753          GPSD_json            pGPSd           {"class":"SKY","device":"/dev/garmingps","xdop":0.58,"ydop":0.59,"vdop":1.17,"tdop":0.73,"hdop":0.82,"gdop":1.61,"pdop":1.43,"satellites":[{"PRN":10,"el":20,"az":149,"ss":44,"used":true},{"PRN":3,"el":21,"az":315,"ss":42,"used":true},{"PRN":26,"el":19,"az":172,"ss":38,"used":true},{"PRN":22,"el":41,"az":304,"ss":45,"used":true},{"PRN":32,"el":53,"az":77,"ss":47,"used":true},{"PRN":25,"el":36,"az":67,"ss":48,"used":true},{"PRN":1,"el":27,"az":274,"ss":41,"used":true},{"PRN":14,"el":74,"az":21,"ss":46,"used":true},{"PRN":12,"el":9,"az":33,"ss":39,"used":true},{"PRN":11,"el":4,"az":266,"ss":34,"used":false},{"PRN":31,"el":80,"az":225,"ss":42,"used":true}]} 
19.755          GPSD_json            pGPSd           {"class":"SKY","device":"/dev/garmingps","xdop":0.58,"ydop":0.59,"vdop":1.17,"tdop":0.73,"hdop":0.82,"gdop":1.61,"pdop":1.43,"satellites":[{"PRN":10,"el":20,"az":149,"ss":43,"used":true},{"PRN":3,"el":21,"az":315,"ss":43,"used":true},{"PRN":26,"el":19,"az":172,"ss":38,"used":true},{"PRN":22,"el":41,"az":304,"ss":46,"used":true},{"PRN":32,"el":53,"az":77,"ss":47,"used":true},{"PRN":25,"el":36,"az":67,"ss":46,"used":true},{"PRN":1,"el":27,"az":274,"ss":42,"used":true},{"PRN":14,"el":74,"az":21,"ss":45,"used":true},{"PRN":12,"el":9,"az":33,"ss":39,"used":true},{"PRN":11,"el":4,"az":266,"ss":33,"used":false},{"PRN":31,"el":80,"az":225,"ss":44,"used":true}]} 
21.760          GPSD_json            pGPSd           {"class":"SKY","device":"/dev/garmingps","xdop":0.58,"ydop":0.59,"vdop":1.17,"tdop":0.73,"hdop":0.82,"gdop":1.61,"pdop":1.43,"satellites":[{"PRN":10,"el":20,"az":149,"ss":44,"used":true},{"PRN":3,"el":21,"az":315,"ss":43,"used":true},{"PRN":26,"el":19,"az":172,"ss":38,"used":true},{"PRN":22,"el":41,"az":304,"ss":46,"used":true},{"PRN":32,"el":53,"az":77,"ss":47,"used":true},{"PRN":25,"el":36,"az":67,"ss":48,"used":true},{"PRN":1,"el":27,"az":274,"ss":42,"used":true},{"PRN":14,"el":74,"az":21,"ss":46,"used":true},{"PRN":12,"el":9,"az":33,"ss":39,"used":true},{"PRN":11,"el":4,"az":266,"ss":33,"used":false},{"PRN":31,"el":80,"az":225,"ss":44,"used":true}]} 
22.762          GPSD_json            pGPSd           {"class":"SKY","device":"/dev/garmingps","xdop":0.58,"ydop":0.59,"vdop":1.17,"tdop":0.73,"hdop":0.82,"gdop":1.61,"pdop":1.43,"satellites":[{"PRN":10,"el":20,"az":149,"ss":44,"used":true},{"PRN":3,"el":21,"az":315,"ss":43,"used":true},{"PRN":26,"el":19,"az":172,"ss":38,"used":true},{"PRN":22,"el":41,"az":304,"ss":47,"used":true},{"PRN":32,"el":53,"az":77,"ss":48,"used":true},{"PRN":25,"el":36,"az":67,"ss":48,"used":true},{"PRN":1,"el":27,"az":274,"ss":42,"used":true},{"PRN":14,"el":74,"az":21,"ss":47,"used":true},{"PRN":12,"el":9,"az":33,"ss":38,"used":true},{"PRN":11,"el":4,"az":266,"ss":33,"used":false},{"PRN":31,"el":80,"az":225,"ss":45,"used":true}]} 
23.764          GPSD_json            pGPSd           {"class":"SKY","device":"/dev/garmingps","xdop":0.58,"ydop":0.59,"vdop":1.17,"tdop":0.73,"hdop":0.82,"gdop":1.61,"pdop":1.43,"satellites":[{"PRN":10,"el":20,"az":149,"ss":43,"used":true},{"PRN":3,"el":21,"az":315,"ss":42,"used":true},{"PRN":26,"el":19,"az":172,"ss":38,"used":true},{"PRN":22,"el":41,"az":304,"ss":44,"used":true},{"PRN":32,"el":53,"az":77,"ss":46,"used":true},{"PRN":25,"el":36,"az":67,"ss":48,"used":true},{"PRN":1,"el":27,"az":274,"ss":43,"used":true},{"PRN":14,"el":74,"az":21,"ss":47,"used":true},{"PRN":12,"el":9,"az":33,"ss":40,"used":true},{"PRN":11,"el":4,"az":266,"ss":34,"used":false},{"PRN":31,"el":81,"az":226,"ss":44,"used":true}]} 
24.517          GPSD_json            pGPSd           {"class":"SKY","device":"/dev/garmingps","xdop":0.58,"ydop":0.59,"vdop":1.17,"tdop":0.73,"hdop":0.82,"gdop":1.61,"pdop":1.43,"satellites":[{"PRN":10,"el":20,"az":149,"ss":42,"used":true},{"PRN":3,"el":21,"az":315,"ss":43,"used":true},{"PRN":26,"el":19,"az":172,"ss":38,"used":true},{"PRN":22,"el":41,"az":304,"ss":44,"used":true},{"PRN":32,"el":53,"az":77,"ss":47,"used":true},{"PRN":25,"el":36,"az":67,"ss":47,"used":true},{"PRN":1,"el":27,"az":274,"ss":43,"used":true},{"PRN":14,"el":74,"az":21,"ss":46,"used":true},{"PRN":12,"el":9,"az":33,"ss":40,"used":true},{"PRN":11,"el":4,"az":266,"ss":35,"used":false},{"PRN":31,"el":81,"az":226,"ss":44,"used":true}]} 
25.769          GPSD_json            pGPSd           {"class":"SKY","device":"/dev/garmingps","xdop":0.58,"ydop":0.59,"vdop":1.17,"tdop":0.73,"hdop":0.82,"gdop":1.61,"pdop":1.43,"satellites":[{"PRN":10,"el":20,"az":149,"ss":43,"used":true},{"PRN":3,"el":21,"az":315,"ss":41,"used":true},{"PRN":26,"el":19,"az":172,"ss":37,"used":true},{"PRN":22,"el":41,"az":304,"ss":44,"used":true},{"PRN":32,"el":52,"az":78,"ss":47,"used":true},{"PRN":25,"el":36,"az":67,"ss":46,"used":true},{"PRN":1,"el":27,"az":274,"ss":43,"used":true},{"PRN":14,"el":74,"az":21,"ss":46,"used":true},{"PRN":12,"el":9,"az":33,"ss":38,"used":true},{"PRN":11,"el":4,"az":266,"ss":36,"used":false},{"PRN":31,"el":81,"az":226,"ss":47,"used":true}]} 
26.520          GPSD_json            pGPSd           {"class":"SKY","device":"/dev/garmingps","xdop":0.58,"ydop":0.59,"vdop":1.17,"tdop":0.73,"hdop":0.82,"gdop":1.61,"pdop":1.43,"satellites":[{"PRN":10,"el":20,"az":149,"ss":44,"used":true},{"PRN":3,"el":21,"az":315,"ss":40,"used":true},{"PRN":26,"el":19,"az":172,"ss":39,"used":true},{"PRN":22,"el":41,"az":304,"ss":45,"used":true},{"PRN":32,"el":52,"az":78,"ss":48,"used":true},{"PRN":25,"el":36,"az":67,"ss":47,"used":true},{"PRN":1,"el":27,"az":274,"ss":43,"used":true},{"PRN":14,"el":74,"az":21,"ss":46,"used":true},{"PRN":12,"el":9,"az":33,"ss":39,"used":true},{"PRN":11,"el":4,"az":266,"ss":36,"used":false},{"PRN":31,"el":81,"az":226,"ss":45,"used":true}]} 
27.522          GPSD_json            pGPSd           {"class":"SKY","device":"/dev/garmingps","xdop":0.58,"ydop":0.59,"vdop":1.17,"tdop":0.73,"hdop":0.82,"gdop":1.61,"pdop":1.43,"satellites":[{"PRN":10,"el":20,"az":149,"ss":44,"used":true},{"PRN":3,"el":21,"az":315,"ss":41,"used":true},{"PRN":26,"el":19,"az":172,"ss":40,"used":true},{"PRN":22,"el":41,"az":304,"ss":46,"used":true},{"PRN":32,"el":52,"az":78,"ss":49,"used":true},{"PRN":25,"el":36,"az":67,"ss":47,"used":true},{"PRN":1,"el":27,"az":273,"ss":42,"used":true},{"PRN":14,"el":74,"az":21,"ss":46,"used":true},{"PRN":12,"el":9,"az":33,"ss":40,"used":true},{"PRN":11,"el":4,"az":266,"ss":35,"used":false},{"PRN":31,"el":81,"az":226,"ss":46,"used":true}]} 
28.776          GPSD_json            pGPSd           {"class":"SKY","device":"/dev/garmingps","xdop":0.58,"ydop":0.59,"vdop":1.17,"tdop":0.73,"hdop":0.82,"gdop":1.61,"pdop":1.43,"satellites":[{"PRN":10,"el":20,"az":149,"ss":43,"used":true},{"PRN":3,"el":21,"az":315,"ss":41,"used":true},{"PRN":26,"el":19,"az":172,"ss":40,"used":true},{"PRN":22,"el":41,"az":304,"ss":46,"used":true},{"PRN":32,"el":52,"az":78,"ss":49,"used":true},{"PRN":25,"el":36,"az":67,"ss":46,"used":true},{"PRN":1,"el":27,"az":273,"ss":42,"used":true},{"PRN":14,"el":74,"az":21,"ss":46,"used":true},{"PRN":12,"el":9,"az":33,"ss":40,"used":true},{"PRN":11,"el":4,"az":266,"ss":35,"used":false},{"PRN":31,"el":81,"az":226,"ss":46,"used":true}]} 
29.528          GPSD_json            pGPSd           {"class":"SKY","device":"/dev/garmingps","xdop":0.58,"ydop":0.59,"vdop":1.17,"tdop":0.73,"hdop":0.82,"gdop":1.61,"pdop":1.43,"satellites":[{"PRN":10,"el":20,"az":149,"ss":43,"used":true},{"PRN":3,"el":21,"az":315,"ss":41,"used":true},{"PRN":26,"el":19,"az":172,"ss":40,"used":true},{"PRN":22,"el":41,"az":304,"ss":45,"used":true},{"PRN":32,"el":52,"az":78,"ss":50,"used":true},{"PRN":25,"el":36,"az":67,"ss":47,"used":true},{"PRN":1,"el":27,"az":273,"ss":42,"used":true},{"PRN":14,"el":74,"az":21,"ss":46,"used":true},{"PRN":12,"el":9,"az":33,"ss":40,"used":true},{"PRN":11,"el":4,"az":266,"ss":34,"used":false},{"PRN":31,"el":81,"az":226,"ss":46,"used":true}]} 
30.780          GPSD_json            pGPSd           {"class":"SKY","device":"/dev/garmingps","xdop":0.58,"ydop":0.59,"vdop":1.17,"tdop":0.73,"hdop":0.82,"gdop":1.61,"pdop":1.43,"satellites":[{"PRN":10,"el":20,"az":149,"ss":44,"used":true},{"PRN":3,"el":21,"az":315,"ss":42,"used":true},{"PRN":26,"el":19,"az":172,"ss":41,"used":true},{"PRN":22,"el":41,"az":304,"ss":45,"used":true},{"PRN":32,"el":52,"az":78,"ss":49,"used":true},{"PRN":25,"el":36,"az":67,"ss":48,"used":true},{"PRN":1,"el":27,"az":273,"ss":41,"used":true},{"PRN":14,"el":74,"az":21,"ss":46,"used":true},{"PRN":12,"el":9,"az":33,"ss":40,"used":true},{"PRN":11,"el":4,"az":266,"ss":34,"used":false},{"PRN":31,"el":81,"az":226,"ss":47,"used":true}]} 
31.532          GPSD_json            pGPSd           {"class":"SKY","device":"/dev/garmingps","xdop":0.58,"ydop":0.59,"vdop":1.17,"tdop":0.73,"hdop":0.82,"gdop":1.61,"pdop":1.43,"satellites":[{"PRN":10,"el":20,"az":149,"ss":43,"used":true},{"PRN":3,"el":22,"az":315,"ss":42,"used":true},{"PRN":26,"el":19,"az":172,"ss":41,"used":true},{"PRN":22,"el":41,"az":304,"ss":45,"used":true},{"PRN":32,"el":52,"az":78,"ss":49,"used":true},{"PRN":25,"el":36,"az":67,"ss":47,"used":true},{"PRN":1,"el":27,"az":273,"ss":41,"used":true},{"PRN":14,"el":74,"az":21,"ss":44,"used":true},{"PRN":12,"el":9,"az":33,"ss":40,"used":true},{"PRN":11,"el":4,"az":266,"ss":34,"used":false},{"PRN":31,"el":81,"az":226,"ss":46,"used":true}]} 
33.536          GPSD_json            pGPSd           {"class":"SKY","device":"/dev/garmingps","xdop":0.58,"ydop":0.59,"vdop":1.17,"tdop":0.73,"hdop":0.82,"gdop":1.61,"pdop":1.43,"satellites":[{"PRN":10,"el":20,"az":149,"ss":43,"used":true},{"PRN":3,"el":22,"az":315,"ss":39,"used":true},{"PRN":26,"el":19,"az":172,"ss":41,"used":true},{"PRN":22,"el":41,"az":304,"ss":46,"used":true},{"PRN":32,"el":52,"az":78,"ss":49,"used":true},{"PRN":25,"el":36,"az":67,"ss":47,"used":true},{"PRN":1,"el":27,"az":273,"ss":41,"used":true},{"PRN":14,"el":74,"az":21,"ss":46,"used":true},{"PRN":12,"el":9,"az":33,"ss":39,"used":true},{"PRN":11,"el":4,"az":266,"ss":34,"used":false},{"PRN":31,"el":81,"az":226,"ss":46,"used":true}]} 
34.538          GPSD_json            pGPSd           {"class":"SKY","device":"/dev/garmingps","xdop":0.58,"ydop":0.59,"vdop":1.17,"tdop":0.73,"hdop":0.82,"gdop":1.61,"pdop":1.43,"satellites":[{"PRN":10,"el":20,"az":149,"ss":44,"used":true},{"PRN":3,"el":22,"az":315,"ss":40,"used":true},{"PRN":26,"el":19,"az":172,"ss":40,"used":true},{"PRN":22,"el":41,"az":304,"ss":44,"used":true},{"PRN":32,"el":52,"az":78,"ss":49,"used":true},{"PRN":25,"el":36,"az":67,"ss":47,"used":true},{"PRN":1,"el":27,"az":273,"ss":42,"used":true},{"PRN":14,"el":74,"az":21,"ss":47,"used":true},{"PRN":12,"el":9,"az":33,"ss":40,"used":true},{"PRN":11,"el":4,"az":266,"ss":34,"used":false},{"PRN":31,"el":81,"az":226,"ss":46,"used":true}]} 
35.540          GPSD_json            pGPSd           {"class":"SKY","device":"/dev/garmingps","xdop":0.58,"ydop":0.59,"vdop":1.17,"tdop":0.73,"hdop":0.82,"gdop":1.61,"pdop":1.43,"satellites":[{"PRN":10,"el":20,"az":149,"ss":45,"used":true},{"PRN":3,"el":22,"az":315,"ss":41,"used":true},{"PRN":26,"el":19,"az":172,"ss":38,"used":true},{"PRN":22,"el":41,"az":304,"ss":45,"used":true},{"PRN":32,"el":52,"az":78,"ss":48,"used":true},{"PRN":25,"el":36,"az":67,"ss":46,"used":true},{"PRN":1,"el":27,"az":273,"ss":42,"used":true},{"PRN":14,"el":74,"az":21,"ss":45,"used":true},{"PRN":12,"el":9,"az":33,"ss":39,"used":true},{"PRN":11,"el":4,"az":266,"ss":34,"used":false},{"PRN":31,"el":81,"az":226,"ss":46,"used":true}]} 
36.541          GPSD_json            pGPSd           {"class":"SKY","device":"/dev/garmingps","xdop":0.58,"ydop":0.59,"vdop":1.17,"tdop":0.73,"hdop":0.82,"gdop":1.61,"pdop":1.43,"satellites":[{"PRN":10,"el":20,"az":149,"ss":43,"used":true},{"PRN":3,"el":22,"az":315,"ss":42,"used":true},{"PRN":26,"el":19,"az":172,"ss":38,"used":true},{"PRN":22,"el":41,"az":304,"ss":46,"used":true},{"PRN":32,"el":52,"az":78,"ss":47,"used":true},{"PRN":25,"el":36,"az":67,"ss":45,"used":true},{"PRN":1,"el":27,"az":273,"ss":41,"used":true},{"PRN":14,"el":74,"az":21,"ss":46,"used":true},{"PRN":12,"el":9,"az":33,"ss":39,"used":true},{"PRN":11,"el":4,"az":266,"ss":35,"used":false},{"PRN":31,"el":81,"az":226,"ss":45,"used":true}]} 
37.544          GPSD_json            pGPSd           {"class":"SKY","device":"/dev/garmingps","xdop":0.58,"ydop":0.59,"vdop":1.17,"tdop":0.73,"hdop":0.82,"gdop":1.61,"pdop":1.43,"satellites":[{"PRN":10,"el":20,"az":149,"ss":43,"used":true},{"PRN":3,"el":22,"az":315,"ss":42,"used":true},{"PRN":26,"el":19,"az":172,"ss":38,"used":true},{"PRN":22,"el":41,"az":304,"ss":44,"used":true},{"PRN":32,"el":52,"az":78,"ss":47,"used":true},{"PRN":25,"el":36,"az":67,"ss":46,"used":true},{"PRN":1,"el":27,"az":273,"ss":42,"used":true},{"PRN":14,"el":74,"az":21,"ss":46,"used":true},{"PRN":12,"el":9,"az":33,"ss":40,"used":true},{"PRN":11,"el":4,"az":266,"ss":35,"used":false},{"PRN":31,"el":81,"az":226,"ss":45,"used":true}]} 
38.546          GPSD_json            pGPSd           {"class":"SKY","device":"/dev/garmingps","xdop":0.58,"ydop":0.59,"vdop":1.17,"tdop":0.73,"hdop":0.82,"gdop":1.61,"pdop":1.43,"satellites":[{"PRN":10,"el":20,"az":149,"ss":43,"used":true},{"PRN":3,"el":22,"az":315,"ss":42,"used":true},{"PRN":26,"el":19,"az":172,"ss":38,"used":true},{"PRN":22,"el":41,"az":304,"ss":44,"used":true},{"PRN":32,"el":52,"az":78,"ss":47,"used":true},{"PRN":25,"el":36,"az":67,"ss":46,"used":true},{"PRN":1,"el":27,"az":273,"ss":42,"used":true},{"PRN":14,"el":74,"az":21,"ss":45,"used":true},{"PRN":12,"el":9,"az":33,"ss":39,"used":true},{"PRN":11,"el":4,"az":266,"ss":36,"used":false},{"PRN":31,"el":81,"az":226,"ss":46,"used":true}]} 
39.548          GPSD_json            pGPSd           {"class":"SKY","device":"/dev/garmingps","xdop":0.58,"ydop":0.59,"vdop":1.17,"tdop":0.73,"hdop":0.82,"gdop":1.61,"pdop":1.43,"satellites":[{"PRN":10,"el":20,"az":149,"ss":44,"used":true},{"PRN":3,"el":22,"az":315,"ss":41,"used":true},{"PRN":26,"el":19,"az":172,"ss":38,"used":true},{"PRN":22,"el":41,"az":304,"ss":45,"used":true},{"PRN":32,"el":52,"az":78,"ss":47,"used":true},{"PRN":25,"el":36,"az":67,"ss":46,"used":true},{"PRN":1,"el":27,"az":273,"ss":42,"used":true},{"PRN":14,"el":74,"az":21,"ss":46,"used":true},{"PRN":12,"el":9,"az":33,"ss":40,"used":true},{"PRN":11,"el":4,"az":266,"ss":36,"used":false},{"PRN":31,"el":81,"az":226,"ss":46,"used":true}]} 
40.551          GPSD_json            pGPSd           {"class":"SKY","device":"/dev/garmingps","xdop":0.58,"ydop":0.59,"vdop":1.17,"tdop":0.73,"hdop":0.82,"gdop":1.61,"pdop":1.43,"satellites":[{"PRN":10,"el":20,"az":149,"ss":45,"used":true},{"PRN":3,"el":22,"az":315,"ss":42,"used":true},{"PRN":26,"el":19,"az":172,"ss":38,"used":true},{"PRN":22,"el":41,"az":304,"ss":44,"used":true},{"PRN":32,"el":52,"az":78,"ss":47,"used":true},{"PRN":25,"el":36,"az":67,"ss":46,"used":true},{"PRN":1,"el":27,"az":273,"ss":42,"used":true},{"PRN":14,"el":74,"az":21,"ss":46,"used":true},{"PRN":12,"el":9,"az":33,"ss":40,"used":true},{"PRN":11,"el":4,"az":266,"ss":36,"used":false},{"PRN":31,"el":81,"az":226,"ss":46,"used":true}]} 
41.553          GPSD_json            pGPSd           {"class":"SKY","device":"/dev/garmingps","xdop":0.58,"ydop":0.59,"vdop":1.17,"tdop":0.73,"hdop":0.82,"gdop":1.61,"pdop":1.43,"satellites":[{"PRN":10,"el":20,"az":149,"ss":44,"used":true},{"PRN":3,"el":22,"az":315,"ss":41,"used":true},{"PRN":26,"el":19,"az":172,"ss":38,"used":true},{"PRN":22,"el":41,"az":304,"ss":44,"used":true},{"PRN":32,"el":52,"az":78,"ss":48,"used":true},{"PRN":25,"el":36,"az":67,"ss":47,"used":true},{"PRN":1,"el":27,"az":273,"ss":42,"used":true},{"PRN":14,"el":74,"az":21,"ss":46,"used":true},{"PRN":12,"el":9,"az":33,"ss":40,"used":true},{"PRN":11,"el":4,"az":266,"ss":36,"used":false},{"PRN":31,"el":81,"az":226,"ss":45,"used":true}]} 
42.555          GPSD_json            pGPSd           {"class":"SKY","device":"/dev/garmingps","xdop":0.58,"ydop":0.59,"vdop":1.17,"tdop":0.73,"hdop":0.82,"gdop":1.61,"pdop":1.43,"satellites":[{"PRN":10,"el":20,"az":149,"ss":45,"used":true},{"PRN":3,"el":22,"az":315,"ss":41,"used":true},{"PRN":26,"el":19,"az":172,"ss":38,"used":true},{"PRN":22,"el":41,"az":304,"ss":44,"used":true},{"PRN":32,"el":52,"az":78,"ss":48,"used":true},{"PRN":25,"el":36,"az":67,"ss":47,"used":true},{"PRN":1,"el":27,"az":273,"ss":42,"used":true},{"PRN":14,"el":74,"az":21,"ss":45,"used":true},{"PRN":12,"el":9,"az":33,"ss":40,"used":true},{"PRN":11,"el":4,"az":266,"ss":36,"used":false},{"PRN":31,"el":81,"az":226,"ss":46,"used":true}]} 
43.557          GPSD_json            pGPSd           {"class":"SKY","device":"/dev/garmingps","xdop":0.58,"ydop":0.59,"vdop":1.17,"tdop":0.73,"hdop":0.82,"gdop":1.61,"pdop":1.43,"satellites":[{"PRN":10,"el":20,"az":149,"ss":45,"used":true},{"PRN":3,"el":22,"az":315,"ss":42,"used":true},{"PRN":26,"el":19,"az":172,"ss":38,"used":true},{"PRN":22,"el":41,"az":304,"ss":44,"used":true},{"PRN":32,"el":52,"az":78,"ss":48,"used":true},{"PRN":25,"el":36,"az":67,"ss":46,"used":true},{"PRN":1,"el":27,"az":273,"ss":41,"used":true},{"PRN":14,"el":74,"az":21,"ss":45,"used":true},{"PRN":12,"el":9,"az":33,"ss":40,"used":true},{"PRN":11,"el":4,"az":266,"ss":36,"used":false},{"PRN":31,"el":81,"az":226,"ss":46,"used":true}]} 
44.559          GPSD_json            pGPSd           {"class":"SKY","device":"/dev/garmingps","xdop":0.58,"ydop":0.59,"vdop":1.17,"tdop":0.73,"hdop":0.82,"gdop":1.61,"pdop":1.43,"satellites":[{"PRN":10,"el":20,"az":149,"ss":45,"used":true},{"PRN":3,"el":22,"az":315,"ss":41,"used":true},{"PRN":26,"el":19,"az":172,"ss":38,"used":true},{"PRN":22,"el":41,"az":304,"ss":45,"used":true},{"PRN":32,"el":52,"az":78,"ss":48,"used":true},{"PRN":25,"el":36,"az":67,"ss":47,"used":true},{"PRN":1,"el":27,"az":273,"ss":41,"used":true},{"PRN":14,"el":74,"az":21,"ss":46,"used":true},{"PRN":12,"el":9,"az":33,"ss":39,"used":true},{"PRN":11,"el":4,"az":266,"ss":36,"used":false},{"PRN":31,"el":81,"az":226,"ss":47,"used":true}]} 
45.561          GPSD_json            pGPSd           {"class":"SKY","device":"/dev/garmingps","xdop":0.58,"ydop":0.59,"vdop":1.17,"tdop":0.73,"hdop":0.82,"gdop":1.61,"pdop":1.43,"satellites":[{"PRN":10,"el":20,"az":149,"ss":45,"used":true},{"PRN":3,"el":22,"az":315,"ss":41,"used":true},{"PRN":26,"el":19,"az":172,"ss":39,"used":true},{"PRN":22,"el":41,"az":304,"ss":45,"used":true},{"PRN":32,"el":52,"az":78,"ss":48,"used":true},{"PRN":25,"el":36,"az":67,"ss":47,"used":true},{"PRN":1,"el":27,"az":273,"ss":42,"used":true},{"PRN":14,"el":74,"az":21,"ss":47,"used":true},{"PRN":12,"el":9,"az":33,"ss":39,"used":true},{"PRN":11,"el":4,"az":266,"ss":36,"used":false},{"PRN":31,"el":81,"az":226,"ss":46,"used":true}]} 
46.563          GPSD_json            pGPSd           {"class":"SKY","device":"/dev/garmingps","xdop":0.58,"ydop":0.59,"vdop":1.17,"tdop":0.73,"hdop":0.82,"gdop":1.61,"pdop":1.43,"satellites":[{"PRN":10,"el":20,"az":149,"ss":44,"used":true},{"PRN":3,"el":22,"az":315,"ss":39,"used":true},{"PRN":26,"el":19,"az":172,"ss":39,"used":true},{"PRN":22,"el":41,"az":304,"ss":45,"used":true},{"PRN":32,"el":52,"az":78,"ss":48,"used":true},{"PRN":25,"el":36,"az":67,"ss":46,"used":true},{"PRN":1,"el":27,"az":273,"ss":42,"used":true},{"PRN":14,"el":74,"az":21,"ss":46,"used":true},{"PRN":12,"el":9,"az":33,"ss":39,"used":true},{"PRN":11,"el":4,"az":266,"ss":35,"used":false},{"PRN":31,"el":81,"az":226,"ss":45,"used":true}]} 
47.564          GPSD_json            pGPSd           {"class":"SKY","device":"/dev/garmingps","xdop":0.58,"ydop":0.59,"vdop":1.17,"tdop":0.73,"hdop":0.82,"gdop":1.61,"pdop":1.43,"satellites":[{"PRN":10,"el":20,"az":149,"ss":43,"used":true},{"PRN":3,"el":22,"az":315,"ss":40,"used":true},{"PRN":26,"el":19,"az":172,"ss":40,"used":true},{"PRN":22,"el":41,"az":304,"ss":45,"used":true},{"PRN":32,"el":52,"az":78,"ss":50,"used":true},{"PRN":25,"el":36,"az":67,"ss":46,"used":true},{"PRN":1,"el":27,"az":273,"ss":42,"used":true},{"PRN":14,"el":74,"az":21,"ss":47,"used":true},{"PRN":12,"el":9,"az":33,"ss":39,"used":true},{"PRN":11,"el":4,"az":266,"ss":35,"used":false},{"PRN":31,"el":81,"az":226,"ss":47,"used":true}]} 
47.564          GPSD_json            pGPSd           {"class":"SKY","device":"/dev/garmingps","xdop":0.58,"ydop":0.59,"vdop":1.17,"tdop":0.73,"hdop":0.82,"gdop":1.61,"pdop":1.43,"satellites":[{"PRN":10,"el":20,"az":149,"ss":43,"used":true},{"PRN":3,"el":22,"az":315,"ss":40,"used":true},{"PRN":26,"el":19,"az":172,"ss":40,"used":true},{"PRN":22,"el":41,"az":304,"ss":45,"used":true},{"PRN":32,"el":52,"az":78,"ss":50,"used":true},{"PRN":25,"el":36,"az":67,"ss":46,"used":true},{"PRN":1,"el":27,"az":273,"ss":42,"used":true},{"PRN":14,"el":74,"az":21,"ss":47,"used":true},{"PRN":12,"el":9,"az":33,"ss":39,"used":true},{"PRN":11,"el":4,"az":266,"ss":35,"used":false},{"PRN":31,"el":81,"az":226,"ss":47,"used":true}]} 
48.567          GPSD_json            pGPSd           {"class":"SKY","device":"/dev/garmingps","xdop":0.58,"ydop":0.59,"vdop":1.17,"tdop":0.73,"hdop":0.82,"gdop":1.61,"pdop":1.43,"satellites":[{"PRN":10,"el":20,"az":149,"ss":43,"used":true},{"PRN":3,"el":22,"az":315,"ss":41,"used":true},{"PRN":26,"el":19,"az":172,"ss":40,"used":true},{"PRN":22,"el":41,"az":304,"ss":46,"used":true},{"PRN":32,"el":52,"az":78,"ss":50,"used":true},{"PRN":25,"el":36,"az":67,"ss":46,"used":true},{"PRN":1,"el":27,"az":273,"ss":43,"used":true},{"PRN":14,"el":74,"az":21,"ss":46,"used":true},{"PRN":12,"el":9,"az":33,"ss":39,"used":true},{"PRN":11,"el":4,"az":266,"ss":34,"used":false},{"PRN":31,"el":81,"az":226,"ss":46,"used":true}]} 
49.569          GPSD_json            pGPSd           {"class":"SKY","device":"/dev/garmingps","xdop":0.58,"ydop":0.59,"vdop":1.17,"tdop":0.73,"hdop":0.82,"gdop":1.61,"pdop":1.43,"satellites":[{"PRN":10,"el":20,"az":149,"ss":44,"used":true},{"PRN":3,"el":22,"az":315,"ss":40,"used":true},{"PRN":26,"el":19,"az":172,"ss":39,"used":true},{"PRN":22,"el":41,"az":304,"ss":44,"used":true},{"PRN":32,"el":52,"az":78,"ss":48,"used":true},{"PRN":25,"el":36,"az":67,"ss":46,"used":true},{"PRN":1,"el":27,"az":273,"ss":42,"used":true},{"PRN":14,"el":74,"az":21,"ss":46,"used":true},{"PRN":12,"el":9,"az":32,"ss":38,"used":true},{"PRN":11,"el":4,"az":266,"ss":33,"used":false},{"PRN":31,"el":81,"az":226,"ss":48,"used":true}]} 
50.573          GPSD_json            pGPSd           {"class":"SKY","device":"/dev/garmingps","xdop":0.58,"ydop":0.59,"vdop":1.17,"tdop":0.73,"hdop":0.82,"gdop":1.61,"pdop":1.43,"satellites":[{"PRN":10,"el":20,"az":149,"ss":43,"used":true},{"PRN":3,"el":22,"az":315,"ss":41,"used":true},{"PRN":26,"el":19,"az":172,"ss":39,"used":true},{"PRN":22,"el":41,"az":304,"ss":46,"used":true},{"PRN":32,"el":52,"az":78,"ss":46,"used":true},{"PRN":25,"el":36,"az":67,"ss":47,"used":true},{"PRN":1,"el":27,"az":273,"ss":43,"used":true},{"PRN":14,"el":74,"az":21,"ss":45,"used":true},{"PRN":12,"el":9,"az":32,"ss":38,"used":true},{"PRN":11,"el":4,"az":266,"ss":32,"used":false},{"PRN":31,"el":81,"az":226,"ss":46,"used":true}]} 
51.574          GPSD_json            pGPSd           {"class":"SKY","device":"/dev/garmingps","xdop":0.58,"ydop":0.59,"vdop":1.17,"tdop":0.73,"hdop":0.82,"gdop":1.61,"pdop":1.43,"satellites":[{"PRN":10,"el":20,"az":149,"ss":43,"used":true},{"PRN":3,"el":22,"az":315,"ss":43,"used":true},{"PRN":26,"el":19,"az":172,"ss":39,"used":true},{"PRN":22,"el":41,"az":304,"ss":44,"used":true},{"PRN":32,"el":52,"az":78,"ss":46,"used":true},{"PRN":25,"el":36,"az":67,"ss":47,"used":true},{"PRN":1,"el":27,"az":273,"ss":43,"used":true},{"PRN":14,"el":74,"az":21,"ss":44,"used":true},{"PRN":12,"el":9,"az":32,"ss":39,"used":true},{"PRN":11,"el":4,"az":266,"ss":32,"used":false},{"PRN":31,"el":81,"az":226,"ss":46,"used":true}]} 
53.579          GPSD_json            pGPSd           {"class":"SKY","device":"/dev/garmingps","xdop":0.58,"ydop":0.59,"vdop":1.17,"tdop":0.73,"hdop":0.82,"gdop":1.61,"pdop":1.43,"satellites":[{"PRN":10,"el":20,"az":149,"ss":42,"used":true},{"PRN":3,"el":22,"az":315,"ss":43,"used":true},{"PRN":26,"el":19,"az":172,"ss":37,"used":true},{"PRN":22,"el":41,"az":304,"ss":46,"used":true},{"PRN":32,"el":52,"az":78,"ss":50,"used":true},{"PRN":25,"el":36,"az":67,"ss":47,"used":true},{"PRN":1,"el":27,"az":273,"ss":41,"used":true},{"PRN":14,"el":74,"az":22,"ss":43,"used":true},{"PRN":12,"el":9,"az":32,"ss":40,"used":true},{"PRN":11,"el":4,"az":266,"ss":33,"used":false},{"PRN":31,"el":81,"az":226,"ss":47,"used":true}]} 
54.581          GPSD_json            pGPSd           {"class":"SKY","device":"/dev/garmingps","xdop":0.58,"ydop":0.59,"vdop":1.17,"tdop":0.73,"hdop":0.82,"gdop":1.61,"pdop":1.43,"satellites":[{"PRN":10,"el":20,"az":149,"ss":42,"used":true},{"PRN":3,"el":22,"az":315,"ss":43,"used":true},{"PRN":26,"el":19,"az":172,"ss":38,"used":true},{"PRN":22,"el":41,"az":304,"ss":47,"used":true},{"PRN":32,"el":52,"az":78,"ss":50,"used":true},{"PRN":25,"el":36,"az":67,"ss":46,"used":true},{"PRN":1,"el":27,"az":273,"ss":43,"used":true},{"PRN":14,"el":74,"az":22,"ss":43,"used":true},{"PRN":12,"el":9,"az":32,"ss":40,"used":true},{"PRN":11,"el":4,"az":266,"ss":33,"used":false},{"PRN":31,"el":81,"az":226,"ss":47,"used":true}]} 
55.583          GPSD_json            pGPSd           {"class":"SKY","device":"/dev/garmingps","xdop":0.58,"ydop":0.59,"vdop":1.17,"tdop":0.73,"hdop":0.82,"gdop":1.61,"pdop":1.43,"satellites":[{"PRN":10,"el":20,"az":149,"ss":40,"used":true},{"PRN":3,"el":22,"az":315,"ss":43,"used":true},{"PRN":26,"el":19,"az":172,"ss":38,"used":true},{"PRN":22,"el":41,"az":304,"ss":46,"used":true},{"PRN":32,"el":52,"az":78,"ss":51,"used":true},{"PRN":25,"el":36,"az":67,"ss":48,"used":true},{"PRN":1,"el":27,"az":273,"ss":41,"used":true},{"PRN":14,"el":74,"az":22,"ss":41,"used":true},{"PRN":12,"el":9,"az":32,"ss":40,"used":true},{"PRN":11,"el":4,"az":266,"ss":33,"used":false},{"PRN":31,"el":81,"az":226,"ss":47,"used":true}]} 
56.584          GPSD_json            pGPSd           {"class":"SKY","device":"/dev/garmingps","xdop":0.58,"ydop":0.59,"vdop":1.17,"tdop":0.73,"hdop":0.82,"gdop":1.61,"pdop":1.43,"satellites":[{"PRN":10,"el":20,"az":149,"ss":41,"used":true},{"PRN":3,"el":22,"az":315,"ss":42,"used":true},{"PRN":26,"el":19,"az":172,"ss":39,"used":true},{"PRN":22,"el":41,"az":304,"ss":44,"used":true},{"PRN":32,"el":52,"az":78,"ss":50,"used":true},{"PRN":25,"el":36,"az":67,"ss":48,"used":true},{"PRN":1,"el":27,"az":273,"ss":39,"used":true},{"PRN":14,"el":74,"az":22,"ss":43,"used":true},{"PRN":12,"el":9,"az":32,"ss":39,"used":true},{"PRN":11,"el":4,"az":266,"ss":32,"used":false},{"PRN":31,"el":81,"az":226,"ss":48,"used":true}]} 
57.585          GPSD_json            pGPSd           {"class":"SKY","device":"/dev/garmingps","xdop":0.58,"ydop":0.59,"vdop":1.17,"tdop":0.73,"hdop":0.82,"gdop":1.61,"pdop":1.43,"satellites":[{"PRN":10,"el":20,"az":149,"ss":42,"used":true},{"PRN":3,"el":22,"az":315,"ss":42,"used":true},{"PRN":26,"el":19,"az":172,"ss":39,"used":true},{"PRN":22,"el":41,"az":304,"ss":43,"used":true},{"PRN":32,"el":52,"az":78,"ss":51,"used":true},{"PRN":25,"el":36,"az":67,"ss":48,"used":true},{"PRN":1,"el":27,"az":273,"ss":42,"used":true},{"PRN":14,"el":74,"az":22,"ss":44,"used":true},{"PRN":12,"el":9,"az":32,"ss":38,"used":true},{"PRN":11,"el":4,"az":266,"ss":32,"used":false},{"PRN":31,"el":81,"az":226,"ss":47,"used":true}]} 
58.588          GPSD_json            pGPSd           {"class":"SKY","device":"/dev/garmingps","xdop":0.58,"ydop":0.59,"vdop":1.17,"tdop":0.73,"hdop":0.82,"gdop":1.61,"pdop":1.43,"satellites":[{"PRN":10,"el":20,"az":149,"ss":39,"used":true},{"PRN":3,"el":22,"az":315,"ss":42,"used":true},{"PRN":26,"el":19,"az":172,"ss":39,"used":true},{"PRN":22,"el":41,"az":304,"ss":43,"used":true},{"PRN":32,"el":52,"az":78,"ss":50,"used":true},{"PRN":25,"el":36,"az":67,"ss":48,"used":true},{"PRN":1,"el":27,"az":273,"ss":42,"used":true},{"PRN":14,"el":74,"az":22,"ss":45,"used":true},{"PRN":12,"el":9,"az":32,"ss":38,"used":true},{"PRN":11,"el":4,"az":266,"ss":32,"used":false},{"PRN":31,"el":81,"az":226,"ss":46,"used":true}]} 
60.592          GPSD_json            pGPSd           {"class":"SKY","device":"/dev/garmingps","xdop":0.58,"ydop":0.59,"vdop":1.17,"tdop":0.73,"hdop":0.82,"gdop":1.61,"pdop":1.43,"satellites":[{"PRN":10,"el":20,"az":149,"ss":41,"used":true},{"PRN":3,"el":22,"az":315,"ss":43,"used":true},{"PRN":26,"el":19,"az":172,"ss":39,"used":true},{"PRN":22,"el":41,"az":304,"ss":46,"used":true},{"PRN":32,"el":52,"az":78,"ss":49,"used":true},{"PRN":25,"el":36,"az":67,"ss":48,"used":true},{"PRN":1,"el":27,"az":273,"ss":41,"used":true},{"PRN":14,"el":74,"az":22,"ss":44,"used":true},{"PRN":12,"el":9,"az":32,"ss":40,"used":true},{"PRN":11,"el":4,"az":266,"ss":31,"used":false},{"PRN":31,"el":81,"az":226,"ss":47,"used":true}]} 
61.595          GPSD_json            pGPSd           {"class":"SKY","device":"/dev/garmingps","xdop":0.58,"ydop":0.59,"vdop":1.17,"tdop":0.73,"hdop":0.82,"gdop":1.61,"pdop":1.43,"satellites":[{"PRN":10,"el":20,"az":149,"ss":41,"used":true},{"PRN":3,"el":22,"az":315,"ss":43,"used":true},{"PRN":26,"el":19,"az":172,"ss":40,"used":true},{"PRN":22,"el":41,"az":304,"ss":46,"used":true},{"PRN":32,"el":52,"az":78,"ss":49,"used":true},{"PRN":25,"el":36,"az":67,"ss":47,"used":true},{"PRN":1,"el":27,"az":273,"ss":41,"used":true},{"PRN":14,"el":74,"az":22,"ss":44,"used":true},{"PRN":12,"el":9,"az":32,"ss":41,"used":true},{"PRN":11,"el":4,"az":266,"ss":31,"used":false},{"PRN":31,"el":81,"az":226,"ss":46,"used":true}]} 
62.597          GPSD_json            pGPSd           {"class":"SKY","device":"/dev/garmingps","xdop":0.58,"ydop":0.59,"vdop":1.17,"tdop":0.73,"hdop":0.82,"gdop":1.61,"pdop":1.43,"satellites":[{"PRN":10,"el":20,"az":149,"ss":41,"used":true},{"PRN":3,"el":22,"az":315,"ss":43,"used":true},{"PRN":26,"el":19,"az":172,"ss":40,"used":true},{"PRN":22,"el":41,"az":304,"ss":47,"used":true},{"PRN":32,"el":52,"az":78,"ss":50,"used":true},{"PRN":25,"el":36,"az":67,"ss":47,"used":true},{"PRN":1,"el":27,"az":273,"ss":41,"used":true},{"PRN":14,"el":74,"az":22,"ss":44,"used":true},{"PRN":12,"el":9,"az":32,"ss":41,"used":true},{"PRN":11,"el":4,"az":266,"ss":32,"used":false},{"PRN":31,"el":81,"az":226,"ss":47,"used":true}]} 
63.599          GPSD_json            pGPSd           {"class":"SKY","device":"/dev/garmingps","xdop":0.58,"ydop":0.59,"vdop":1.17,"tdop":0.73,"hdop":0.82,"gdop":1.61,"pdop":1.43,"satellites":[{"PRN":10,"el":20,"az":149,"ss":41,"used":true},{"PRN":3,"el":22,"az":315,"ss":42,"used":true},{"PRN":26,"el":19,"az":172,"ss":40,"used":true},{"PRN":22,"el":41,"az":304,"ss":48,"used":true},{"PRN":32,"el":52,"az":78,"ss":49,"used":true},{"PRN":25,"el":36,"az":67,"ss":47,"used":true},{"PRN":1,"el":27,"az":273,"ss":42,"used":true},{"PRN":14,"el":74,"az":22,"ss":43,"used":true},{"PRN":12,"el":9,"az":32,"ss":42,"used":true},{"PRN":11,"el":4,"az":266,"ss":32,"used":false},{"PRN":31,"el":81,"az":226,"ss":48,"used":true}]} 
64.601          GPSD_json            pGPSd           {"class":"SKY","device":"/dev/garmingps","xdop":0.58,"ydop":0.59,"vdop":1.17,"tdop":0.73,"hdop":0.82,"gdop":1.61,"pdop":1.43,"satellites":[{"PRN":10,"el":20,"az":149,"ss":42,"used":true},{"PRN":3,"el":22,"az":315,"ss":43,"used":true},{"PRN":26,"el":19,"az":172,"ss":41,"used":true},{"PRN":22,"el":41,"az":304,"ss":47,"used":true},{"PRN":32,"el":52,"az":78,"ss":49,"used":true},{"PRN":25,"el":36,"az":67,"ss":47,"used":true},{"PRN":1,"el":27,"az":273,"ss":40,"used":true},{"PRN":14,"el":74,"az":22,"ss":44,"used":true},{"PRN":12,"el":9,"az":32,"ss":42,"used":true},{"PRN":11,"el":4,"az":266,"ss":32,"used":false},{"PRN":31,"el":81,"az":226,"ss":46,"used":true}]} 
65.603          GPSD_json            pGPSd           {"class":"SKY","device":"/dev/garmingps","xdop":0.58,"ydop":0.59,"vdop":1.17,"tdop":0.73,"hdop":0.82,"gdop":1.61,"pdop":1.43,"satellites":[{"PRN":10,"el":20,"az":149,"ss":40,"used":true},{"PRN":3,"el":22,"az":315,"ss":43,"used":true},{"PRN":26,"el":19,"az":172,"ss":40,"used":true},{"PRN":22,"el":41,"az":304,"ss":46,"used":true},{"PRN":32,"el":52,"az":78,"ss":50,"used":true},{"PRN":25,"el":36,"az":67,"ss":47,"used":true},{"PRN":1,"el":27,"az":273,"ss":41,"used":true},{"PRN":14,"el":74,"az":22,"ss":44,"used":true},{"PRN":12,"el":9,"az":32,"ss":41,"used":true},{"PRN":11,"el":4,"az":266,"ss":31,"used":false},{"PRN":31,"el":81,"az":226,"ss":48,"used":true}]} 
66.605          GPSD_json            pGPSd           {"class":"SKY","device":"/dev/garmingps","xdop":0.58,"ydop":0.59,"vdop":1.17,"tdop":0.73,"hdop":0.82,"gdop":1.61,"pdop":1.43,"satellites":[{"PRN":10,"el":20,"az":149,"ss":41,"used":true},{"PRN":3,"el":22,"az":315,"ss":43,"used":true},{"PRN":26,"el":19,"az":172,"ss":38,"used":true},{"PRN":22,"el":41,"az":304,"ss":46,"used":true},{"PRN":32,"el":52,"az":78,"ss":49,"used":true},{"PRN":25,"el":36,"az":67,"ss":47,"used":true},{"PRN":1,"el":27,"az":273,"ss":42,"used":true},{"PRN":14,"el":74,"az":22,"ss":44,"used":true},{"PRN":12,"el":9,"az":32,"ss":40,"used":true},{"PRN":11,"el":4,"az":266,"ss":31,"used":false},{"PRN":31,"el":81,"az":226,"ss":48,"used":true}]} 
67.608          GPSD_json            pGPSd           {"class":"SKY","device":"/dev/garmingps","xdop":0.58,"ydop":0.59,"vdop":1.17,"tdop":0.73,"hdop":0.82,"gdop":1.61,"pdop":1.43,"satellites":[{"PRN":10,"el":20,"az":149,"ss":41,"used":true},{"PRN":3,"el":22,"az":315,"ss":43,"used":true},{"PRN":26,"el":19,"az":172,"ss":38,"used":true},{"PRN":22,"el":41,"az":304,"ss":45,"used":true},{"PRN":32,"el":52,"az":78,"ss":50,"used":true},{"PRN":25,"el":36,"az":67,"ss":47,"used":true},{"PRN":1,"el":27,"az":273,"ss":42,"used":true},{"PRN":14,"el":74,"az":22,"ss":44,"used":true},{"PRN":12,"el":9,"az":32,"ss":39,"used":true},{"PRN":11,"el":4,"az":266,"ss":30,"used":false},{"PRN":31,"el":81,"az":226,"ss":47,"used":true}]} 
68.610          GPSD_json            pGPSd           {"class":"SKY","device":"/dev/garmingps","xdop":0.58,"ydop":0.59,"vdop":1.17,"tdop":0.73,"hdop":0.82,"gdop":1.61,"pdop":1.43,"satellites":[{"PRN":10,"el":20,"az":149,"ss":40,"used":true},{"PRN":3,"el":22,"az":315,"ss":43,"used":true},{"PRN":26,"el":19,"az":172,"ss":37,"used":true},{"PRN":22,"el":41,"az":304,"ss":46,"used":true},{"PRN":32,"el":52,"az":78,"ss":50,"used":true},{"PRN":25,"el":36,"az":67,"ss":47,"used":true},{"PRN":1,"el":27,"az":273,"ss":41,"used":true},{"PRN":14,"el":74,"az":22,"ss":43,"used":true},{"PRN":12,"el":9,"az":32,"ss":40,"used":true},{"PRN":11,"el":4,"az":266,"ss":30,"used":false},{"PRN":31,"el":81,"az":226,"ss":47,"used":true}]} 
69.612          GPSD_json            pGPSd           {"class":"SKY","device":"/dev/garmingps","xdop":0.58,"ydop":0.59,"vdop":1.17,"tdop":0.73,"hdop":0.82,"gdop":1.61,"pdop":1.43,"satellites":[{"PRN":10,"el":20,"az":149,"ss":41,"used":true},{"PRN":3,"el":22,"az":315,"ss":41,"used":true},{"PRN":26,"el":19,"az":172,"ss":37,"used":true},{"PRN":22,"el":42,"az":304,"ss":47,"used":true},{"PRN":32,"el":52,"az":78,"ss":49,"used":true},{"PRN":25,"el":36,"az":67,"ss":47,"used":true},{"PRN":1,"el":27,"az":273,"ss":41,"used":true},{"PRN":14,"el":74,"az":22,"ss":43,"used":true},{"PRN":12,"el":9,"az":32,"ss":41,"used":true},{"PRN":11,"el":4,"az":266,"ss":31,"used":false},{"PRN":31,"el":81,"az":226,"ss":44,"used":true}]} 
70.615          GPSD_json            pGPSd           {"class":"SKY","device":"/dev/garmingps","xdop":0.58,"ydop":0.59,"vdop":1.17,"tdop":0.73,"hdop":0.82,"gdop":1.61,"pdop":1.43,"satellites":[{"PRN":10,"el":20,"az":149,"ss":41,"used":true},{"PRN":3,"el":22,"az":315,"ss":42,"used":true},{"PRN":26,"el":19,"az":172,"ss":37,"used":true},{"PRN":22,"el":42,"az":304,"ss":48,"used":true},{"PRN":32,"el":52,"az":78,"ss":49,"used":true},{"PRN":25,"el":36,"az":67,"ss":46,"used":true},{"PRN":1,"el":27,"az":273,"ss":42,"used":true},{"PRN":14,"el":74,"az":22,"ss":44,"used":true},{"PRN":12,"el":9,"az":32,"ss":41,"used":true},{"PRN":11,"el":4,"az":266,"ss":32,"used":false},{"PRN":31,"el":81,"az":226,"ss":47,"used":true}]} 
71.618          GPSD_json            pGPSd           {"class":"SKY","device":"/dev/garmingps","xdop":0.58,"ydop":0.59,"vdop":1.17,"tdop":0.73,"hdop":0.82,"gdop":1.61,"pdop":1.43,"satellites":[{"PRN":10,"el":20,"az":149,"ss":41,"used":true},{"PRN":3,"el":22,"az":315,"ss":42,"used":true},{"PRN":26,"el":19,"az":172,"ss":36,"used":true},{"PRN":22,"el":42,"az":304,"ss":49,"used":true},{"PRN":32,"el":52,"az":78,"ss":49,"used":true},{"PRN":25,"el":36,"az":67,"ss":45,"used":true},{"PRN":1,"el":27,"az":273,"ss":41,"used":true},{"PRN":14,"el":74,"az":22,"ss":41,"used":true},{"PRN":12,"el":9,"az":32,"ss":41,"used":true},{"PRN":11,"el":4,"az":266,"ss":33,"used":false},{"PRN":31,"el":81,"az":226,"ss":46,"used":true}]} 
72.621          GPSD_json            pGPSd           {"class":"SKY","device":"/dev/garmingps","xdop":0.58,"ydop":0.59,"vdop":1.17,"tdop":0.73,"hdop":0.82,"gdop":1.61,"pdop":1.43,"satellites":[{"PRN":10,"el":20,"az":149,"ss":41,"used":true},{"PRN":3,"el":22,"az":315,"ss":43,"used":true},{"PRN":26,"el":19,"az":172,"ss":34,"used":true},{"PRN":22,"el":42,"az":304,"ss":46,"used":true},{"PRN":32,"el":52,"az":78,"ss":49,"used":true},{"PRN":25,"el":36,"az":67,"ss":46,"used":true},{"PRN":1,"el":27,"az":273,"ss":39,"used":true},{"PRN":14,"el":74,"az":22,"ss":43,"used":true},{"PRN":12,"el":9,"az":32,"ss":41,"used":true},{"PRN":11,"el":4,"az":266,"ss":33,"used":false},{"PRN":31,"el":81,"az":226,"ss":47,"used":true}]} 
73.622          GPSD_json            pGPSd           {"class":"SKY","device":"/dev/garmingps","xdop":0.58,"ydop":0.59,"vdop":1.17,"tdop":0.73,"hdop":0.82,"gdop":1.61,"pdop":1.43,"satellites":[{"PRN":10,"el":20,"az":149,"ss":41,"used":true},{"PRN":3,"el":22,"az":315,"ss":44,"used":true},{"PRN":26,"el":19,"az":172,"ss":29,"used":true},{"PRN":22,"el":42,"az":304,"ss":48,"used":true},{"PRN":32,"el":52,"az":78,"ss":49,"used":true},{"PRN":25,"el":36,"az":67,"ss":47,"used":true},{"PRN":1,"el":27,"az":273,"ss":41,"used":true},{"PRN":14,"el":74,"az":22,"ss":44,"used":true},{"PRN":12,"el":9,"az":32,"ss":40,"used":true},{"PRN":11,"el":4,"az":266,"ss":33,"used":false},{"PRN":31,"el":81,"az":226,"ss":48,"used":true}]} 
74.624          GPSD_json            pGPSd           {"class":"SKY","device":"/dev/garmingps","xdop":0.58,"ydop":0.59,"vdop":1.17,"tdop":0.73,"hdop":0.82,"gdop":1.61,"pdop":1.43,"satellites":[{"PRN":10,"el":20,"az":149,"ss":42,"used":true},{"PRN":3,"el":22,"az":315,"ss":43,"used":true},{"PRN":26,"el":19,"az":172,"ss":32,"used":true},{"PRN":22,"el":42,"az":304,"ss":48,"used":true},{"PRN":32,"el":52,"az":78,"ss":51,"used":true},{"PRN":25,"el":36,"az":67,"ss":45,"used":true},{"PRN":1,"el":27,"az":273,"ss":43,"used":true},{"PRN":14,"el":74,"az":22,"ss":42,"used":true},{"PRN":12,"el":9,"az":32,"ss":40,"used":true},{"PRN":11,"el":4,"az":266,"ss":34,"used":false},{"PRN":31,"el":81,"az":226,"ss":47,"used":true}]} 
75.626          GPSD_json            pGPSd           {"class":"SKY","device":"/dev/garmingps","xdop":0.58,"ydop":0.59,"vdop":1.17,"tdop":0.73,"hdop":0.82,"gdop":1.61,"pdop":1.43,"satellites":[{"PRN":10,"el":20,"az":149,"ss":41,"used":true},{"PRN":3,"el":22,"az":315,"ss":42,"used":true},{"PRN":26,"el":19,"az":172,"ss":32,"used":true},{"PRN":22,"el":42,"az":304,"ss":49,"used":true},{"PRN":32,"el":52,"az":78,"ss":49,"used":true},{"PRN":25,"el":36,"az":66,"ss":46,"used":true},{"PRN":1,"el":27,"az":273,"ss":40,"used":true},{"PRN":14,"el":74,"az":22,"ss":42,"used":true},{"PRN":12,"el":9,"az":32,"ss":40,"used":true},{"PRN":11,"el":4,"az":266,"ss":33,"used":false},{"PRN":31,"el":81,"az":226,"ss":47,"used":true}]} 
76.629          GPSD_json            pGPSd           {"class":"SKY","device":"/dev/garmingps","xdop":0.58,"ydop":0.59,"vdop":1.17,"tdop":0.73,"hdop":0.82,"gdop":1.61,"pdop":1.43,"satellites":[{"PRN":10,"el":20,"az":149,"ss":39,"used":true},{"PRN":3,"el":22,"az":315,"ss":43,"used":true},{"PRN":26,"el":19,"az":172,"ss":32,"used":true},{"PRN":22,"el":42,"az":304,"ss":47,"used":true},{"PRN":32,"el":52,"az":78,"ss":49,"used":true},{"PRN":25,"el":36,"az":66,"ss":47,"used":true},{"PRN":1,"el":27,"az":273,"ss":41,"used":true},{"PRN":14,"el":74,"az":22,"ss":43,"used":true},{"PRN":12,"el":9,"az":32,"ss":41,"used":true},{"PRN":11,"el":4,"az":266,"ss":33,"used":false},{"PRN":31,"el":81,"az":226,"ss":49,"used":true}]} 
78.633          GPSD_json            pGPSd           {"class":"SKY","device":"/dev/garmingps","xdop":0.58,"ydop":0.59,"vdop":1.17,"tdop":0.73,"hdop":0.82,"gdop":1.61,"pdop":1.43,"satellites":[{"PRN":10,"el":20,"az":149,"ss":39,"used":true},{"PRN":3,"el":22,"az":315,"ss":42,"used":true},{"PRN":26,"el":19,"az":172,"ss":31,"used":true},{"PRN":22,"el":42,"az":304,"ss":45,"used":true},{"PRN":32,"el":52,"az":78,"ss":50,"used":true},{"PRN":25,"el":36,"az":66,"ss":48,"used":true},{"PRN":1,"el":27,"az":273,"ss":42,"used":true},{"PRN":14,"el":74,"az":22,"ss":45,"used":true},{"PRN":12,"el":9,"az":32,"ss":38,"used":true},{"PRN":11,"el":4,"az":266,"ss":32,"used":false},{"PRN":31,"el":81,"az":226,"ss":47,"used":true}]} 
79.634          GPSD_json            pGPSd           {"class":"SKY","device":"/dev/garmingps","xdop":0.58,"ydop":0.59,"vdop":1.17,"tdop":0.73,"hdop":0.82,"gdop":1.61,"pdop":1.43,"satellites":[{"PRN":10,"el":20,"az":149,"ss":39,"used":true},{"PRN":3,"el":22,"az":315,"ss":42,"used":true},{"PRN":26,"el":19,"az":172,"ss":30,"used":true},{"PRN":22,"el":42,"az":304,"ss":43,"used":true},{"PRN":32,"el":52,"az":78,"ss":50,"used":true},{"PRN":25,"el":36,"az":66,"ss":48,"used":true},{"PRN":1,"el":27,"az":273,"ss":42,"used":true},{"PRN":14,"el":74,"az":22,"ss":46,"used":true},{"PRN":12,"el":9,"az":32,"ss":37,"used":true},{"PRN":11,"el":4,"az":266,"ss":32,"used":false},{"PRN":31,"el":81,"az":226,"ss":47,"used":true}]} 
80.637          GPSD_json            pGPSd           {"class":"SKY","device":"/dev/garmingps","xdop":0.58,"ydop":0.59,"vdop":1.17,"tdop":0.73,"hdop":0.82,"gdop":1.61,"pdop":1.43,"satellites":[{"PRN":10,"el":20,"az":149,"ss":38,"used":true},{"PRN":3,"el":22,"az":315,"ss":42,"used":true},{"PRN":26,"el":19,"az":172,"ss":30,"used":true},{"PRN":22,"el":42,"az":304,"ss":44,"used":true},{"PRN":32,"el":52,"az":78,"ss":50,"used":true},{"PRN":25,"el":36,"az":66,"ss":49,"used":true},{"PRN":1,"el":27,"az":273,"ss":43,"used":true},{"PRN":14,"el":74,"az":22,"ss":45,"used":true},{"PRN":12,"el":9,"az":32,"ss":37,"used":true},{"PRN":11,"el":4,"az":266,"ss":32,"used":false},{"PRN":31,"el":81,"az":226,"ss":48,"used":true}]} 
81.640          GPSD_json            pGPSd           {"class":"SKY","device":"/dev/garmingps","xdop":0.58,"ydop":0.59,"vdop":1.17,"tdop":0.73,"hdop":0.82,"gdop":1.61,"pdop":1.43,"satellites":[{"PRN":10,"el":20,"az":149,"ss":38,"used":true},{"PRN":3,"el":22,"az":315,"ss":42,"used":true},{"PRN":26,"el":19,"az":172,"ss":29,"used":true},{"PRN":22,"el":42,"az":304,"ss":44,"used":true},{"PRN":32,"el":52,"az":78,"ss":50,"used":true},{"PRN":25,"el":36,"az":66,"ss":48,"used":true},{"PRN":1,"el":27,"az":273,"ss":43,"used":true},{"PRN":14,"el":74,"az":22,"ss":43,"used":true},{"PRN":12,"el":9,"az":32,"ss":37,"used":true},{"PRN":11,"el":4,"az":266,"ss":31,"used":false},{"PRN":31,"el":81,"az":226,"ss":46,"used":true}]} 
82.642          GPSD_json            pGPSd           {"class":"SKY","device":"/dev/garmingps","xdop":0.58,"ydop":0.59,"vdop":1.17,"tdop":0.73,"hdop":0.82,"gdop":1.61,"pdop":1.43,"satellites":[{"PRN":10,"el":20,"az":149,"ss":38,"used":true},{"PRN":3,"el":22,"az":315,"ss":43,"used":true},{"PRN":26,"el":19,"az":172,"ss":30,"used":true},{"PRN":22,"el":42,"az":304,"ss":45,"used":true},{"PRN":32,"el":52,"az":78,"ss":50,"used":true},{"PRN":25,"el":36,"az":66,"ss":49,"used":true},{"PRN":1,"el":27,"az":273,"ss":43,"used":true},{"PRN":14,"el":74,"az":22,"ss":43,"used":true},{"PRN":12,"el":9,"az":32,"ss":39,"used":true},{"PRN":11,"el":4,"az":266,"ss":31,"used":false},{"PRN":31,"el":81,"az":226,"ss":47,"used":true}]} 
83.644          GPSD_json            pGPSd           {"class":"SKY","device":"/dev/garmingps","xdop":0.58,"ydop":0.59,"vdop":1.17,"tdop":0.73,"hdop":0.82,"gdop":1.61,"pdop":1.43,"satellites":[{"PRN":10,"el":20,"az":149,"ss":34,"used":true},{"PRN":3,"el":22,"az":315,"ss":43,"used":true},{"PRN":26,"el":19,"az":172,"ss":30,"used":true},{"PRN":22,"el":42,"az":304,"ss":47,"used":true},{"PRN":32,"el":52,"az":78,"ss":49,"used":true},{"PRN":25,"el":36,"az":66,"ss":46,"used":true},{"PRN":1,"el":27,"az":273,"ss":42,"used":true},{"PRN":14,"el":74,"az":22,"ss":44,"used":true},{"PRN":12,"el":9,"az":32,"ss":40,"used":true},{"PRN":11,"el":4,"az":266,"ss":32,"used":false},{"PRN":31,"el":81,"az":226,"ss":46,"used":true}]} 
84.646          GPSD_json            pGPSd           {"class":"SKY","device":"/dev/garmingps","xdop":0.58,"ydop":0.59,"vdop":1.17,"tdop":0.73,"hdop":0.82,"gdop":1.61,"pdop":1.43,"satellites":[{"PRN":10,"el":20,"az":149,"ss":28,"used":true},{"PRN":3,"el":22,"az":315,"ss":42,"used":true},{"PRN":26,"el":19,"az":172,"ss":31,"used":true},{"PRN":22,"el":42,"az":304,"ss":48,"used":true},{"PRN":32,"el":52,"az":78,"ss":49,"used":true},{"PRN":25,"el":36,"az":66,"ss":46,"used":true},{"PRN":1,"el":27,"az":273,"ss":42,"used":true},{"PRN":14,"el":74,"az":22,"ss":44,"used":true},{"PRN":12,"el":9,"az":32,"ss":41,"used":true},{"PRN":11,"el":4,"az":266,"ss":33,"used":false},{"PRN":31,"el":81,"az":226,"ss":46,"used":true}]} 
