1.714           GPSD_json            pGPSd           {"class":"SKY","device":"/dev/garmingps","xdop":0.58,"ydop":0.59,"vdop":1.16,"tdop":0.72,"hdop":0.82,"gdop":1.59,"pdop":1.42,"satellites":[{"PRN":10,"el":17,"az":150,"ss":44,"used":true},{"PRN":3,"el":24,"az":315,"ss":43,"used":true},{"PRN":26,"el":22,"az":171,"ss":43,"used":true},{"PRN":22,"el":44,"az":301,"ss":40,"used":true},{"PRN":32,"el":50,"az":82,"ss":47,"used":true},{"PRN":25,"el":35,"az":62,"ss":47,"used":true},{"PRN":1,"el":25,"az":270,"ss":43,"used":true},{"PRN":14,"el":73,"az":34,"ss":44,"used":true},{"PRN":12,"el":7,"az":31,"ss":44,"used":true},{"PRN":11,"el":2,"az":263,"ss":39,"used":false},{"PRN":31,"el":84,"az":235,"ss":46,"used":true},{"PRN":16,"el":0,"az":184,"ss":-0,"used":false}]} 
2.717           GPSD_json            pGPSd           {"class":"SKY","device":"/dev/garmingps","xdop":0.58,"ydop":0.59,"vdop":1.16,"tdop":0.72,"hdop":0.82,"gdop":1.59,"pdop":1.42,"satellites":[{"PRN":10,"el":17,"az":150,"ss":44,"used":true},{"PRN":3,"el":24,"az":315,"ss":43,"used":true},{"PRN":26,"el":22,"az":171,"ss":43,"used":true},{"PRN":22,"el":44,"az":301,"ss":41,"used":true},{"PRN":32,"el":50,"az":82,"ss":46,"used":true},{"PRN":25,"el":35,"az":62,"ss":46,"used":true},{"PRN":1,"el":25,"az":270,"ss":43,"used":true},{"PRN":14,"el":73,"az":34,"ss":45,"used":true},{"PRN":12,"el":7,"az":31,"ss":44,"used":true},{"PRN":11,"el":2,"az":263,"ss":39,"used":false},{"PRN":31,"el":84,"az":235,"ss":46,"used":true},{"PRN":16,"el":0,"az":184,"ss":-0,"used":false}]} 
2.717           GPSD_json            pGPSd           {"class":"SKY","device":"/dev/garmingps","xdop":0.58,"ydop":0.59,"vdop":1.16,"tdop":0.72,"hdop":0.82,"gdop":1.59,"pdop":1.42,"satellites":[{"PRN":10,"el":17,"az":150,"ss":44,"used":true},{"PRN":3,"el":24,"az":315,"ss":43,"used":true},{"PRN":26,"el":22,"az":171,"ss":43,"used":true},{"PRN":22,"el":44,"az":301,"ss":41,"used":true},{"PRN":32,"el":50,"az":82,"ss":46,"used":true},{"PRN":25,"el":35,"az":62,"ss":46,"used":true},{"PRN":1,"el":25,"az":270,"ss":43,"used":true},{"PRN":14,"el":73,"az":34,"ss":45,"used":true},{"PRN":12,"el":7,"az":31,"ss":44,"used":true},{"PRN":11,"el":2,"az":263,"ss":39,"used":false},{"PRN":31,"el":84,"az":235,"ss":46,"used":true},{"PRN":16,"el":0,"az":184,"ss":-0,"used":false}]} 
3.719           GPSD_json            pGPSd           {"class":"SKY","device":"/dev/garmingps","xdop":0.58,"ydop":0.59,"vdop":1.16,"tdop":0.72,"hdop":0.82,"gdop":1.59,"pdop":1.42,"satellites":[{"PRN":10,"el":17,"az":150,"ss":44,"used":true},{"PRN":3,"el":24,"az":315,"ss":43,"used":true},{"PRN":26,"el":22,"az":171,"ss":42,"used":true},{"PRN":22,"el":44,"az":301,"ss":41,"used":true},{"PRN":32,"el":50,"az":82,"ss":47,"used":true},{"PRN":25,"el":35,"az":62,"ss":47,"used":true},{"PRN":1,"el":25,"az":270,"ss":43,"used":true},{"PRN":14,"el":73,"az":34,"ss":44,"used":true},{"PRN":12,"el":7,"az":31,"ss":44,"used":true},{"PRN":11,"el":2,"az":263,"ss":39,"used":false},{"PRN":31,"el":84,"az":235,"ss":47,"used":true},{"PRN":16,"el":0,"az":184,"ss":-0,"used":false}]} 
3.719           GPSD_json            pGPSd           {"class":"SKY","device":"/dev/garmingps","xdop":0.58,"ydop":0.59,"vdop":1.16,"tdop":0.72,"hdop":0.82,"gdop":1.59,"pdop":1.42,"satellites":[{"PRN":10,"el":17,"az":150,"ss":44,"used":true},{"PRN":3,"el":24,"az":315,"ss":43,"used":true},{"PRN":26,"el":22,"az":171,"ss":42,"used":true},{"PRN":22,"el":44,"az":301,"ss":41,"used":true},{"PRN":32,"el":50,"az":82,"ss":47,"used":true},{"PRN":25,"el":35,"az":62,"ss":47,"used":true},{"PRN":1,"el":25,"az":270,"ss":43,"used":true},{"PRN":14,"el":73,"az":34,"ss":44,"used":true},{"PRN":12,"el":7,"az":31,"ss":44,"used":true},{"PRN":11,"el":2,"az":263,"ss":39,"used":false},{"PRN":31,"el":84,"az":235,"ss":47,"used":true},{"PRN":16,"el":0,"az":184,"ss":-0,"used":false}]} 
4.721           GPSD_json            pGPSd           {"class":"SKY","device":"/dev/garmingps","xdop":0.58,"ydop":0.59,"vdop":1.16,"tdop":0.72,"hdop":0.82,"gdop":1.59,"pdop":1.42,"satellites":[{"PRN":10,"el":17,"az":150,"ss":43,"used":true},{"PRN":3,"el":24,"az":315,"ss":42,"used":true},{"PRN":26,"el":22,"az":171,"ss":41,"used":true},{"PRN":22,"el":44,"az":301,"ss":41,"used":true},{"PRN":32,"el":50,"az":82,"ss":46,"used":true},{"PRN":25,"el":35,"az":62,"ss":45,"used":true},{"PRN":1,"el":25,"az":270,"ss":43,"used":true},{"PRN":14,"el":73,"az":34,"ss":43,"used":true},{"PRN":12,"el":7,"az":31,"ss":44,"used":true},{"PRN":11,"el":2,"az":263,"ss":39,"used":false},{"PRN":31,"el":84,"az":235,"ss":46,"used":true},{"PRN":16,"el":0,"az":184,"ss":-0,"used":false}]} 
5.722           GPSD_json            pGPSd           {"class":"SKY","device":"/dev/garmingps","xdop":0.58,"ydop":0.59,"vdop":1.16,"tdop":0.72,"hdop":0.82,"gdop":1.59,"pdop":1.42,"satellites":[{"PRN":10,"el":17,"az":150,"ss":43,"used":true},{"PRN":3,"el":24,"az":315,"ss":42,"used":true},{"PRN":26,"el":22,"az":171,"ss":42,"used":true},{"PRN":22,"el":44,"az":301,"ss":42,"used":true},{"PRN":32,"el":50,"az":82,"ss":46,"used":true},{"PRN":25,"el":35,"az":62,"ss":47,"used":true},{"PRN":1,"el":25,"az":270,"ss":43,"used":true},{"PRN":14,"el":73,"az":34,"ss":43,"used":true},{"PRN":12,"el":7,"az":31,"ss":44,"used":true},{"PRN":11,"el":2,"az":263,"ss":39,"used":false},{"PRN":31,"el":84,"az":235,"ss":46,"used":true},{"PRN":16,"el":0,"az":184,"ss":-0,"used":false}]} 
6.723           GPSD_json            pGPSd           {"class":"SKY","device":"/dev/garmingps","xdop":0.58,"ydop":0.59,"vdop":1.16,"tdop":0.72,"hdop":0.82,"gdop":1.59,"pdop":1.42,"satellites":[{"PRN":10,"el":17,"az":150,"ss":42,"used":true},{"PRN":3,"el":24,"az":315,"ss":42,"used":true},{"PRN":26,"el":22,"az":171,"ss":42,"used":true},{"PRN":22,"el":44,"az":301,"ss":43,"used":true},{"PRN":32,"el":50,"az":82,"ss":46,"used":true},{"PRN":25,"el":35,"az":62,"ss":47,"used":true},{"PRN":1,"el":25,"az":270,"ss":44,"used":true},{"PRN":14,"el":73,"az":34,"ss":43,"used":true},{"PRN":12,"el":7,"az":31,"ss":44,"used":true},{"PRN":11,"el":2,"az":263,"ss":39,"used":false},{"PRN":31,"el":84,"az":235,"ss":45,"used":true},{"PRN":16,"el":0,"az":184,"ss":-0,"used":false}]} 
7.725           GPSD_json            pGPSd           {"class":"SKY","device":"/dev/garmingps","xdop":0.58,"ydop":0.59,"vdop":1.16,"tdop":0.72,"hdop":0.82,"gdop":1.59,"pdop":1.42,"satellites":[{"PRN":10,"el":17,"az":150,"ss":42,"used":true},{"PRN":3,"el":24,"az":315,"ss":43,"used":true},{"PRN":26,"el":22,"az":171,"ss":43,"used":true},{"PRN":22,"el":44,"az":301,"ss":40,"used":true},{"PRN":32,"el":50,"az":82,"ss":47,"used":true},{"PRN":25,"el":35,"az":62,"ss":47,"used":true},{"PRN":1,"el":25,"az":270,"ss":44,"used":true},{"PRN":14,"el":73,"az":34,"ss":43,"used":true},{"PRN":12,"el":7,"az":31,"ss":44,"used":true},{"PRN":11,"el":2,"az":263,"ss":38,"used":false},{"PRN":31,"el":84,"az":235,"ss":46,"used":true},{"PRN":16,"el":0,"az":184,"ss":-0,"used":false}]} 
8.728           GPSD_json            pGPSd           {"class":"SKY","device":"/dev/garmingps","xdop":0.58,"ydop":0.59,"vdop":1.16,"tdop":0.72,"hdop":0.82,"gdop":1.59,"pdop":1.42,"satellites":[{"PRN":10,"el":17,"az":150,"ss":43,"used":true},{"PRN":3,"el":24,"az":315,"ss":43,"used":true},{"PRN":26,"el":22,"az":171,"ss":42,"used":true},{"PRN":22,"el":44,"az":301,"ss":43,"used":true},{"PRN":32,"el":50,"az":82,"ss":47,"used":true},{"PRN":25,"el":35,"az":62,"ss":48,"used":true},{"PRN":1,"el":25,"az":270,"ss":42,"used":true},{"PRN":14,"el":73,"az":34,"ss":44,"used":true},{"PRN":12,"el":7,"az":31,"ss":44,"used":true},{"PRN":11,"el":2,"az":263,"ss":38,"used":false},{"PRN":31,"el":84,"az":235,"ss":47,"used":true},{"PRN":16,"el":0,"az":184,"ss":-0,"used":false}]} 
9.729           GPSD_json            pGPSd           {"class":"SKY","device":"/dev/garmingps","xdop":0.58,"ydop":0.59,"vdop":1.16,"tdop":0.72,"hdop":0.82,"gdop":1.59,"pdop":1.42,"satellites":[{"PRN":10,"el":17,"az":150,"ss":44,"used":true},{"PRN":3,"el":24,"az":315,"ss":43,"used":true},{"PRN":26,"el":22,"az":171,"ss":41,"used":true},{"PRN":22,"el":44,"az":301,"ss":43,"used":true},{"PRN":32,"el":50,"az":82,"ss":48,"used":true},{"PRN":25,"el":35,"az":62,"ss":46,"used":true},{"PRN":1,"el":25,"az":270,"ss":43,"used":true},{"PRN":14,"el":73,"az":34,"ss":43,"used":true},{"PRN":12,"el":7,"az":31,"ss":43,"used":true},{"PRN":11,"el":2,"az":263,"ss":38,"used":false},{"PRN":31,"el":84,"az":235,"ss":46,"used":true},{"PRN":16,"el":0,"az":184,"ss":-0,"used":false}]} 
10.732          GPSD_json            pGPSd           {"class":"SKY","device":"/dev/garmingps","xdop":0.58,"ydop":0.59,"vdop":1.16,"tdop":0.72,"hdop":0.82,"gdop":1.59,"pdop":1.42,"satellites":[{"PRN":10,"el":17,"az":150,"ss":44,"used":true},{"PRN":3,"el":24,"az":315,"ss":42,"used":true},{"PRN":26,"el":22,"az":171,"ss":42,"used":true},{"PRN":22,"el":44,"az":301,"ss":43,"used":true},{"PRN":32,"el":50,"az":82,"ss":45,"used":true},{"PRN":25,"el":35,"az":62,"ss":46,"used":true},{"PRN":1,"el":25,"az":270,"ss":44,"used":true},{"PRN":14,"el":73,"az":34,"ss":41,"used":true},{"PRN":12,"el":7,"az":31,"ss":44,"used":true},{"PRN":11,"el":2,"az":263,"ss":37,"used":false},{"PRN":31,"el":84,"az":235,"ss":45,"used":true},{"PRN":16,"el":0,"az":184,"ss":-0,"used":false}]} 
11.733          GPSD_json            pGPSd           {"class":"SKY","device":"/dev/garmingps","xdop":0.58,"ydop":0.59,"vdop":1.16,"tdop":0.72,"hdop":0.82,"gdop":1.59,"pdop":1.42,"satellites":[{"PRN":10,"el":17,"az":150,"ss":42,"used":true},{"PRN":3,"el":24,"az":315,"ss":42,"used":true},{"PRN":26,"el":22,"az":171,"ss":42,"used":true},{"PRN":22,"el":44,"az":301,"ss":47,"used":true},{"PRN":32,"el":50,"az":82,"ss":45,"used":true},{"PRN":25,"el":35,"az":62,"ss":46,"used":true},{"PRN":1,"el":25,"az":270,"ss":45,"used":true},{"PRN":14,"el":73,"az":34,"ss":44,"used":true},{"PRN":12,"el":7,"az":31,"ss":43,"used":true},{"PRN":11,"el":2,"az":263,"ss":36,"used":false},{"PRN":31,"el":84,"az":235,"ss":46,"used":true},{"PRN":16,"el":0,"az":184,"ss":-0,"used":false}]} 
12.735          GPSD_json            pGPSd           {"class":"SKY","device":"/dev/garmingps","xdop":0.58,"ydop":0.59,"vdop":1.16,"tdop":0.72,"hdop":0.82,"gdop":1.59,"pdop":1.42,"satellites":[{"PRN":10,"el":17,"az":150,"ss":42,"used":true},{"PRN":3,"el":24,"az":315,"ss":40,"used":true},{"PRN":26,"el":22,"az":171,"ss":42,"used":true},{"PRN":22,"el":44,"az":301,"ss":46,"used":true},{"PRN":32,"el":50,"az":82,"ss":45,"used":true},{"PRN":25,"el":35,"az":62,"ss":45,"used":true},{"PRN":1,"el":25,"az":270,"ss":44,"used":true},{"PRN":14,"el":73,"az":34,"ss":42,"used":true},{"PRN":12,"el":7,"az":31,"ss":43,"used":true},{"PRN":11,"el":2,"az":263,"ss":35,"used":false},{"PRN":31,"el":85,"az":237,"ss":45,"used":true},{"PRN":16,"el":0,"az":184,"ss":-0,"used":false}]} 
13.737          GPSD_json            pGPSd           {"class":"SKY","device":"/dev/garmingps","xdop":0.58,"ydop":0.59,"vdop":1.16,"tdop":0.72,"hdop":0.82,"gdop":1.59,"pdop":1.42,"satellites":[{"PRN":10,"el":17,"az":150,"ss":42,"used":true},{"PRN":3,"el":24,"az":315,"ss":39,"used":true},{"PRN":26,"el":22,"az":171,"ss":41,"used":true},{"PRN":22,"el":44,"az":301,"ss":45,"used":true},{"PRN":32,"el":50,"az":82,"ss":48,"used":true},{"PRN":25,"el":35,"az":62,"ss":43,"used":true},{"PRN":1,"el":25,"az":270,"ss":43,"used":true},{"PRN":14,"el":73,"az":34,"ss":43,"used":true},{"PRN":12,"el":7,"az":31,"ss":43,"used":true},{"PRN":11,"el":2,"az":263,"ss":35,"used":false},{"PRN":31,"el":85,"az":237,"ss":44,"used":true},{"PRN":16,"el":0,"az":184,"ss":-0,"used":false}]} 
14.738          GPSD_json            pGPSd           {"class":"SKY","device":"/dev/garmingps","xdop":0.58,"ydop":0.59,"vdop":1.16,"tdop":0.72,"hdop":0.82,"gdop":1.59,"pdop":1.42,"satellites":[{"PRN":10,"el":17,"az":150,"ss":43,"used":true},{"PRN":3,"el":24,"az":315,"ss":40,"used":true},{"PRN":26,"el":22,"az":171,"ss":40,"used":true},{"PRN":22,"el":44,"az":301,"ss":44,"used":true},{"PRN":32,"el":49,"az":82,"ss":47,"used":true},{"PRN":25,"el":35,"az":62,"ss":43,"used":true},{"PRN":1,"el":25,"az":270,"ss":43,"used":true},{"PRN":14,"el":73,"az":34,"ss":42,"used":true},{"PRN":12,"el":7,"az":31,"ss":43,"used":true},{"PRN":11,"el":2,"az":263,"ss":35,"used":false},{"PRN":31,"el":85,"az":237,"ss":44,"used":true},{"PRN":16,"el":0,"az":184,"ss":-0,"used":false}]} 
15.490          GPSD_json            pGPSd           {"class":"SKY","device":"/dev/garmingps","xdop":0.58,"ydop":0.59,"vdop":1.16,"tdop":0.72,"hdop":0.82,"gdop":1.59,"pdop":1.42,"satellites":[{"PRN":10,"el":17,"az":150,"ss":42,"used":true},{"PRN":3,"el":24,"az":315,"ss":41,"used":true},{"PRN":26,"el":22,"az":171,"ss":42,"used":true},{"PRN":22,"el":44,"az":301,"ss":44,"used":true},{"PRN":32,"el":49,"az":82,"ss":46,"used":true},{"PRN":25,"el":35,"az":62,"ss":44,"used":true},{"PRN":1,"el":25,"az":270,"ss":45,"used":true},{"PRN":14,"el":73,"az":34,"ss":42,"used":true},{"PRN":12,"el":7,"az":31,"ss":42,"used":true},{"PRN":11,"el":2,"az":263,"ss":34,"used":false},{"PRN":31,"el":85,"az":237,"ss":44,"used":true},{"PRN":16,"el":0,"az":184,"ss":-0,"used":false}]} 
16.743          GPSD_json            pGPSd           {"class":"SKY","device":"/dev/garmingps","xdop":0.58,"ydop":0.59,"vdop":1.16,"tdop":0.72,"hdop":0.82,"gdop":1.59,"pdop":1.42,"satellites":[{"PRN":10,"el":17,"az":150,"ss":42,"used":true},{"PRN":3,"el":24,"az":315,"ss":41,"used":true},{"PRN":26,"el":22,"az":171,"ss":42,"used":true},{"PRN":22,"el":44,"az":301,"ss":43,"used":true},{"PRN":32,"el":49,"az":82,"ss":48,"used":true},{"PRN":25,"el":35,"az":62,"ss":45,"used":true},{"PRN":1,"el":25,"az":269,"ss":44,"used":true},{"PRN":14,"el":73,"az":34,"ss":42,"used":true},{"PRN":12,"el":7,"az":31,"ss":42,"used":true},{"PRN":11,"el":2,"az":263,"ss":34,"used":false},{"PRN":31,"el":85,"az":237,"ss":46,"used":true},{"PRN":16,"el":0,"az":184,"ss":-0,"used":false}]} 
17.745          GPSD_json            pGPSd           {"class":"SKY","device":"/dev/garmingps","xdop":0.58,"ydop":0.59,"vdop":1.16,"tdop":0.72,"hdop":0.82,"gdop":1.59,"pdop":1.42,"satellites":[{"PRN":10,"el":17,"az":150,"ss":43,"used":true},{"PRN":3,"el":24,"az":315,"ss":42,"used":true},{"PRN":26,"el":22,"az":171,"ss":43,"used":true},{"PRN":22,"el":44,"az":301,"ss":43,"used":true},{"PRN":32,"el":49,"az":82,"ss":47,"used":true},{"PRN":25,"el":35,"az":62,"ss":45,"used":true},{"PRN":1,"el":25,"az":269,"ss":45,"used":true},{"PRN":14,"el":73,"az":34,"ss":44,"used":true},{"PRN":12,"el":7,"az":31,"ss":42,"used":true},{"PRN":11,"el":2,"az":263,"ss":34,"used":false},{"PRN":31,"el":85,"az":237,"ss":45,"used":true},{"PRN":16,"el":0,"az":184,"ss":-0,"used":false}]} 
18.746          GPSD_json            pGPSd           {"class":"SKY","device":"/dev/garmingps","xdop":0.58,"ydop":0.59,"vdop":1.16,"tdop":0.72,"hdop":0.82,"gdop":1.59,"pdop":1.42,"satellites":[{"PRN":10,"el":17,"az":150,"ss":43,"used":true},{"PRN":3,"el":24,"az":315,"ss":42,"used":true},{"PRN":26,"el":22,"az":171,"ss":43,"used":true},{"PRN":22,"el":44,"az":301,"ss":44,"used":true},{"PRN":32,"el":49,"az":82,"ss":48,"used":true},{"PRN":25,"el":35,"az":62,"ss":46,"used":true},{"PRN":1,"el":25,"az":269,"ss":45,"used":true},{"PRN":14,"el":73,"az":34,"ss":39,"used":true},{"PRN":12,"el":7,"az":31,"ss":42,"used":true},{"PRN":11,"el":2,"az":263,"ss":34,"used":false},{"PRN":31,"el":85,"az":237,"ss":44,"used":true},{"PRN":16,"el":0,"az":184,"ss":-0,"used":false}]} 
19.747          GPSD_json            pGPSd           {"class":"SKY","device":"/dev/garmingps","xdop":0.58,"ydop":0.59,"vdop":1.16,"tdop":0.72,"hdop":0.82,"gdop":1.59,"pdop":1.42,"satellites":[{"PRN":10,"el":17,"az":150,"ss":42,"used":true},{"PRN":3,"el":24,"az":315,"ss":42,"used":true},{"PRN":26,"el":22,"az":171,"ss":42,"used":true},{"PRN":22,"el":44,"az":301,"ss":44,"used":true},{"PRN":32,"el":49,"az":82,"ss":46,"used":true},{"PRN":25,"el":35,"az":62,"ss":46,"used":true},{"PRN":1,"el":25,"az":269,"ss":45,"used":true},{"PRN":14,"el":73,"az":34,"ss":43,"used":true},{"PRN":12,"el":7,"az":31,"ss":42,"used":true},{"PRN":11,"el":2,"az":263,"ss":33,"used":false},{"PRN":31,"el":85,"az":237,"ss":45,"used":true},{"PRN":16,"el":0,"az":184,"ss":-0,"used":false}]} 
20.499          GPSD_json            pGPSd           {"class":"SKY","device":"/dev/garmingps","xdop":0.58,"ydop":0.59,"vdop":1.16,"tdop":0.72,"hdop":0.82,"gdop":1.59,"pdop":1.42,"satellites":[{"PRN":10,"el":17,"az":150,"ss":42,"used":true},{"PRN":3,"el":25,"az":314,"ss":41,"used":true},{"PRN":26,"el":22,"az":171,"ss":42,"used":true},{"PRN":22,"el":44,"az":301,"ss":43,"used":true},{"PRN":32,"el":49,"az":82,"ss":45,"used":true},{"PRN":25,"el":35,"az":62,"ss":46,"used":true},{"PRN":1,"el":25,"az":269,"ss":45,"used":true},{"PRN":14,"el":73,"az":34,"ss":42,"used":true},{"PRN":12,"el":7,"az":31,"ss":42,"used":true},{"PRN":11,"el":2,"az":263,"ss":33,"used":false},{"PRN":31,"el":85,"az":237,"ss":45,"used":true},{"PRN":16,"el":0,"az":184,"ss":-0,"used":false}]} 
21.752          GPSD_json            pGPSd           {"class":"SKY","device":"/dev/garmingps","xdop":0.58,"ydop":0.59,"vdop":1.16,"tdop":0.72,"hdop":0.82,"gdop":1.59,"pdop":1.42,"satellites":[{"PRN":10,"el":17,"az":150,"ss":42,"used":true},{"PRN":3,"el":25,"az":314,"ss":41,"used":true},{"PRN":26,"el":22,"az":171,"ss":42,"used":true},{"PRN":22,"el":44,"az":301,"ss":43,"used":true},{"PRN":32,"el":49,"az":82,"ss":47,"used":true},{"PRN":25,"el":35,"az":62,"ss":45,"used":true},{"PRN":1,"el":25,"az":269,"ss":44,"used":true},{"PRN":14,"el":73,"az":34,"ss":42,"used":true},{"PRN":12,"el":7,"az":31,"ss":43,"used":true},{"PRN":11,"el":2,"az":263,"ss":33,"used":false},{"PRN":31,"el":85,"az":237,"ss":45,"used":true},{"PRN":16,"el":0,"az":184,"ss":-0,"used":false}]} 
22.504          GPSD_json            pGPSd           {"class":"SKY","device":"/dev/garmingps","xdop":0.58,"ydop":0.59,"vdop":1.16,"tdop":0.72,"hdop":0.82,"gdop":1.59,"pdop":1.42,"satellites":[{"PRN":10,"el":17,"az":150,"ss":42,"used":true},{"PRN":3,"el":25,"az":314,"ss":41,"used":true},{"PRN":26,"el":22,"az":171,"ss":42,"used":true},{"PRN":22,"el":44,"az":301,"ss":43,"used":true},{"PRN":32,"el":49,"az":82,"ss":46,"used":true},{"PRN":25,"el":35,"az":62,"ss":46,"used":true},{"PRN":1,"el":25,"az":269,"ss":45,"used":true},{"PRN":14,"el":73,"az":34,"ss":42,"used":true},{"PRN":12,"el":7,"az":31,"ss":43,"used":true},{"PRN":11,"el":2,"az":263,"ss":33,"used":false},{"PRN":31,"el":85,"az":237,"ss":43,"used":true},{"PRN":16,"el":0,"az":184,"ss":-0,"used":false}]} 
23.757          GPSD_json            pGPSd           {"class":"SKY","device":"/dev/garmingps","xdop":0.58,"ydop":0.59,"vdop":1.16,"tdop":0.72,"hdop":0.82,"gdop":1.59,"pdop":1.42,"satellites":[{"PRN":10,"el":17,"az":150,"ss":42,"used":true},{"PRN":3,"el":25,"az":314,"ss":41,"used":true},{"PRN":26,"el":22,"az":171,"ss":43,"used":true},{"PRN":22,"el":44,"az":301,"ss":42,"used":true},{"PRN":32,"el":49,"az":82,"ss":46,"used":true},{"PRN":25,"el":35,"az":62,"ss":46,"used":true},{"PRN":1,"el":25,"az":269,"ss":45,"used":true},{"PRN":14,"el":73,"az":34,"ss":44,"used":true},{"PRN":12,"el":7,"az":31,"ss":43,"used":true},{"PRN":11,"el":2,"az":263,"ss":33,"used":false},{"PRN":31,"el":85,"az":237,"ss":44,"used":true},{"PRN":16,"el":0,"az":184,"ss":-0,"used":false}]} 
24.508          GPSD_json            pGPSd           {"class":"SKY","device":"/dev/garmingps","xdop":0.58,"ydop":0.59,"vdop":1.16,"tdop":0.72,"hdop":0.82,"gdop":1.59,"pdop":1.42,"satellites":[{"PRN":10,"el":17,"az":150,"ss":41,"used":true},{"PRN":3,"el":25,"az":314,"ss":41,"used":true},{"PRN":26,"el":22,"az":171,"ss":42,"used":true},{"PRN":22,"el":44,"az":301,"ss":44,"used":true},{"PRN":32,"el":49,"az":82,"ss":48,"used":true},{"PRN":25,"el":35,"az":62,"ss":45,"used":true},{"PRN":1,"el":25,"az":269,"ss":45,"used":true},{"PRN":14,"el":73,"az":34,"ss":45,"used":true},{"PRN":12,"el":7,"az":31,"ss":43,"used":true},{"PRN":11,"el":2,"az":263,"ss":32,"used":false},{"PRN":31,"el":85,"az":237,"ss":45,"used":true},{"PRN":16,"el":0,"az":184,"ss":-0,"used":false}]} 
25.760          GPSD_json            pGPSd           {"class":"SKY","device":"/dev/garmingps","xdop":0.58,"ydop":0.59,"vdop":1.16,"tdop":0.72,"hdop":0.82,"gdop":1.59,"pdop":1.42,"satellites":[{"PRN":10,"el":17,"az":150,"ss":42,"used":true},{"PRN":3,"el":25,"az":314,"ss":41,"used":true},{"PRN":26,"el":22,"az":171,"ss":42,"used":true},{"PRN":22,"el":44,"az":301,"ss":44,"used":true},{"PRN":32,"el":49,"az":82,"ss":48,"used":true},{"PRN":25,"el":35,"az":62,"ss":47,"used":true},{"PRN":1,"el":25,"az":269,"ss":45,"used":true},{"PRN":14,"el":73,"az":34,"ss":42,"used":true},{"PRN":12,"el":7,"az":31,"ss":43,"used":true},{"PRN":11,"el":2,"az":263,"ss":32,"used":false},{"PRN":31,"el":85,"az":237,"ss":45,"used":true},{"PRN":16,"el":0,"az":184,"ss":-0,"used":false}]} 
26.763          GPSD_json            pGPSd           {"class":"SKY","device":"/dev/garmingps","xdop":0.58,"ydop":0.59,"vdop":1.16,"tdop":0.72,"hdop":0.82,"gdop":1.59,"pdop":1.42,"satellites":[{"PRN":10,"el":17,"az":150,"ss":42,"used":true},{"PRN":3,"el":25,"az":314,"ss":41,"used":true},{"PRN":26,"el":22,"az":171,"ss":43,"used":true},{"PRN":22,"el":44,"az":301,"ss":45,"used":true},{"PRN":32,"el":49,"az":82,"ss":47,"used":true},{"PRN":25,"el":35,"az":62,"ss":46,"used":true},{"PRN":1,"el":25,"az":269,"ss":45,"used":true},{"PRN":14,"el":73,"az":34,"ss":43,"used":true},{"PRN":12,"el":7,"az":31,"ss":42,"used":true},{"PRN":11,"el":2,"az":263,"ss":32,"used":false},{"PRN":31,"el":85,"az":237,"ss":45,"used":true},{"PRN":16,"el":0,"az":184,"ss":-0,"used":false}]} 
27.514          GPSD_json            pGPSd           {"class":"SKY","device":"/dev/garmingps","xdop":0.58,"ydop":0.59,"vdop":1.16,"tdop":0.72,"hdop":0.82,"gdop":1.59,"pdop":1.42,"satellites":[{"PRN":10,"el":17,"az":150,"ss":42,"used":true},{"PRN":3,"el":25,"az":314,"ss":43,"used":true},{"PRN":26,"el":22,"az":171,"ss":42,"used":true},{"PRN":22,"el":44,"az":301,"ss":46,"used":true},{"PRN":32,"el":49,"az":82,"ss":47,"used":true},{"PRN":25,"el":35,"az":62,"ss":46,"used":true},{"PRN":1,"el":25,"az":269,"ss":45,"used":true},{"PRN":14,"el":73,"az":34,"ss":43,"used":true},{"PRN":12,"el":7,"az":31,"ss":43,"used":true},{"PRN":11,"el":2,"az":263,"ss":31,"used":false},{"PRN":31,"el":85,"az":237,"ss":45,"used":true},{"PRN":16,"el":0,"az":184,"ss":-0,"used":false}]} 
28.517          GPSD_json            pGPSd           {"class":"SKY","device":"/dev/garmingps","xdop":0.58,"ydop":0.59,"vdop":1.16,"tdop":0.72,"hdop":0.82,"gdop":1.59,"pdop":1.42,"satellites":[{"PRN":10,"el":17,"az":150,"ss":43,"used":true},{"PRN":3,"el":25,"az":314,"ss":44,"used":true},{"PRN":26,"el":22,"az":171,"ss":41,"used":true},{"PRN":22,"el":44,"az":301,"ss":45,"used":true},{"PRN":32,"el":49,"az":82,"ss":48,"used":true},{"PRN":25,"el":35,"az":62,"ss":47,"used":true},{"PRN":1,"el":25,"az":269,"ss":44,"used":true},{"PRN":14,"el":73,"az":34,"ss":45,"used":true},{"PRN":12,"el":7,"az":31,"ss":43,"used":true},{"PRN":11,"el":2,"az":263,"ss":31,"used":false},{"PRN":31,"el":85,"az":237,"ss":47,"used":true},{"PRN":16,"el":0,"az":184,"ss":-0,"used":false}]} 
29.769          GPSD_json            pGPSd           {"class":"SKY","device":"/dev/garmingps","xdop":0.58,"ydop":0.59,"vdop":1.16,"tdop":0.72,"hdop":0.82,"gdop":1.59,"pdop":1.42,"satellites":[{"PRN":10,"el":17,"az":150,"ss":43,"used":true},{"PRN":3,"el":25,"az":314,"ss":44,"used":true},{"PRN":26,"el":22,"az":171,"ss":41,"used":true},{"PRN":22,"el":44,"az":301,"ss":44,"used":true},{"PRN":32,"el":49,"az":82,"ss":47,"used":true},{"PRN":25,"el":35,"az":62,"ss":43,"used":true},{"PRN":1,"el":25,"az":269,"ss":43,"used":true},{"PRN":14,"el":73,"az":34,"ss":45,"used":true},{"PRN":12,"el":7,"az":31,"ss":42,"used":true},{"PRN":11,"el":2,"az":263,"ss":32,"used":false},{"PRN":31,"el":85,"az":237,"ss":47,"used":true},{"PRN":16,"el":0,"az":184,"ss":-0,"used":false}]} 
30.521          GPSD_json            pGPSd           {"class":"SKY","device":"/dev/garmingps","xdop":0.58,"ydop":0.59,"vdop":1.16,"tdop":0.72,"hdop":0.82,"gdop":1.59,"pdop":1.42,"satellites":[{"PRN":10,"el":17,"az":150,"ss":43,"used":true},{"PRN":3,"el":25,"az":314,"ss":44,"used":true},{"PRN":26,"el":22,"az":171,"ss":42,"used":true},{"PRN":22,"el":44,"az":301,"ss":43,"used":true},{"PRN":32,"el":49,"az":82,"ss":46,"used":true},{"PRN":25,"el":35,"az":62,"ss":46,"used":true},{"PRN":1,"el":25,"az":269,"ss":42,"used":true},{"PRN":14,"el":73,"az":34,"ss":46,"used":true},{"PRN":12,"el":7,"az":31,"ss":40,"used":true},{"PRN":11,"el":2,"az":263,"ss":31,"used":false},{"PRN":31,"el":85,"az":237,"ss":48,"used":true},{"PRN":16,"el":0,"az":184,"ss":-0,"used":false}]} 
31.774          GPSD_json            pGPSd           {"class":"SKY","device":"/dev/garmingps","xdop":0.58,"ydop":0.59,"vdop":1.16,"tdop":0.72,"hdop":0.82,"gdop":1.59,"pdop":1.42,"satellites":[{"PRN":10,"el":17,"az":150,"ss":43,"used":true},{"PRN":3,"el":25,"az":314,"ss":43,"used":true},{"PRN":26,"el":22,"az":171,"ss":41,"used":true},{"PRN":22,"el":44,"az":301,"ss":43,"used":true},{"PRN":32,"el":49,"az":82,"ss":46,"used":true},{"PRN":25,"el":35,"az":62,"ss":44,"used":true},{"PRN":1,"el":25,"az":269,"ss":44,"used":true},{"PRN":14,"el":73,"az":34,"ss":46,"used":true},{"PRN":12,"el":7,"az":31,"ss":41,"used":true},{"PRN":11,"el":2,"az":263,"ss":31,"used":false},{"PRN":31,"el":85,"az":237,"ss":47,"used":true},{"PRN":16,"el":0,"az":184,"ss":-0,"used":false}]} 
32.524          GPSD_json            pGPSd           {"class":"SKY","device":"/dev/garmingps","xdop":0.58,"ydop":0.59,"vdop":1.16,"tdop":0.72,"hdop":0.82,"gdop":1.59,"pdop":1.42,"satellites":[{"PRN":10,"el":17,"az":150,"ss":43,"used":true},{"PRN":3,"el":25,"az":314,"ss":43,"used":true},{"PRN":26,"el":22,"az":171,"ss":41,"used":true},{"PRN":22,"el":44,"az":301,"ss":43,"used":true},{"PRN":32,"el":49,"az":82,"ss":45,"used":true},{"PRN":25,"el":35,"az":62,"ss":45,"used":true},{"PRN":1,"el":25,"az":269,"ss":45,"used":true},{"PRN":14,"el":73,"az":34,"ss":45,"used":true},{"PRN":12,"el":7,"az":31,"ss":42,"used":true},{"PRN":11,"el":2,"az":263,"ss":31,"used":false},{"PRN":31,"el":85,"az":237,"ss":46,"used":true},{"PRN":16,"el":0,"az":184,"ss":-0,"used":false}]} 
33.526          GPSD_json            pGPSd           {"class":"SKY","device":"/dev/garmingps","xdop":0.58,"ydop":0.59,"vdop":1.16,"tdop":0.72,"hdop":0.82,"gdop":1.59,"pdop":1.42,"satellites":[{"PRN":10,"el":17,"az":150,"ss":43,"used":true},{"PRN":3,"el":25,"az":314,"ss":42,"used":true},{"PRN":26,"el":22,"az":171,"ss":42,"used":true},{"PRN":22,"el":44,"az":301,"ss":42,"used":true},{"PRN":32,"el":49,"az":82,"ss":45,"used":true},{"PRN":25,"el":35,"az":62,"ss":44,"used":true},{"PRN":1,"el":25,"az":269,"ss":45,"used":true},{"PRN":14,"el":73,"az":34,"ss":45,"used":true},{"PRN":12,"el":7,"az":31,"ss":43,"used":true},{"PRN":11,"el":2,"az":263,"ss":32,"used":false},{"PRN":31,"el":85,"az":237,"ss":46,"used":true},{"PRN":16,"el":0,"az":184,"ss":-0,"used":false}]} 
34.528          GPSD_json            pGPSd           {"class":"SKY","device":"/dev/garmingps","xdop":0.58,"ydop":0.59,"vdop":1.16,"tdop":0.72,"hdop":0.82,"gdop":1.59,"pdop":1.42,"satellites":[{"PRN":10,"el":16,"az":150,"ss":44,"used":true},{"PRN":3,"el":25,"az":314,"ss":43,"used":true},{"PRN":26,"el":22,"az":171,"ss":42,"used":true},{"PRN":22,"el":44,"az":301,"ss":43,"used":true},{"PRN":32,"el":49,"az":82,"ss":46,"used":true},{"PRN":25,"el":35,"az":62,"ss":45,"used":true},{"PRN":1,"el":25,"az":269,"ss":43,"used":true},{"PRN":14,"el":73,"az":34,"ss":45,"used":true},{"PRN":12,"el":7,"az":31,"ss":43,"used":true},{"PRN":11,"el":2,"az":263,"ss":32,"used":false},{"PRN":31,"el":85,"az":237,"ss":47,"used":true},{"PRN":16,"el":0,"az":184,"ss":-0,"used":false}]} 
35.530          GPSD_json            pGPSd           {"class":"SKY","device":"/dev/garmingps","xdop":0.58,"ydop":0.59,"vdop":1.16,"tdop":0.72,"hdop":0.82,"gdop":1.59,"pdop":1.42,"satellites":[{"PRN":10,"el":16,"az":150,"ss":43,"used":true},{"PRN":3,"el":25,"az":314,"ss":43,"used":true},{"PRN":26,"el":22,"az":171,"ss":41,"used":true},{"PRN":22,"el":44,"az":301,"ss":40,"used":true},{"PRN":32,"el":49,"az":82,"ss":47,"used":true},{"PRN":25,"el":35,"az":62,"ss":48,"used":true},{"PRN":1,"el":25,"az":269,"ss":44,"used":true},{"PRN":14,"el":73,"az":34,"ss":46,"used":true},{"PRN":12,"el":7,"az":31,"ss":44,"used":true},{"PRN":11,"el":2,"az":263,"ss":33,"used":false},{"PRN":31,"el":85,"az":237,"ss":47,"used":true},{"PRN":16,"el":0,"az":184,"ss":-0,"used":false}]} 
36.532          GPSD_json            pGPSd           {"class":"SKY","device":"/dev/garmingps","xdop":0.58,"ydop":0.59,"vdop":1.16,"tdop":0.72,"hdop":0.82,"gdop":1.59,"pdop":1.42,"satellites":[{"PRN":10,"el":16,"az":150,"ss":44,"used":true},{"PRN":3,"el":25,"az":314,"ss":43,"used":true},{"PRN":26,"el":22,"az":171,"ss":41,"used":true},{"PRN":22,"el":44,"az":301,"ss":42,"used":true},{"PRN":32,"el":49,"az":82,"ss":44,"used":true},{"PRN":25,"el":35,"az":62,"ss":46,"used":true},{"PRN":1,"el":25,"az":269,"ss":44,"used":true},{"PRN":14,"el":73,"az":34,"ss":46,"used":true},{"PRN":12,"el":7,"az":31,"ss":42,"used":true},{"PRN":11,"el":2,"az":263,"ss":33,"used":false},{"PRN":31,"el":85,"az":237,"ss":48,"used":true},{"PRN":16,"el":0,"az":184,"ss":-0,"used":false}]} 
37.534          GPSD_json            pGPSd           {"class":"SKY","device":"/dev/garmingps","xdop":0.58,"ydop":0.59,"vdop":1.16,"tdop":0.72,"hdop":0.82,"gdop":1.59,"pdop":1.42,"satellites":[{"PRN":10,"el":16,"az":150,"ss":44,"used":true},{"PRN":3,"el":25,"az":314,"ss":42,"used":true},{"PRN":26,"el":22,"az":171,"ss":40,"used":true},{"PRN":22,"el":44,"az":301,"ss":44,"used":true},{"PRN":32,"el":49,"az":82,"ss":44,"used":true},{"PRN":25,"el":35,"az":62,"ss":47,"used":true},{"PRN":1,"el":25,"az":269,"ss":43,"used":true},{"PRN":14,"el":73,"az":34,"ss":46,"used":true},{"PRN":12,"el":7,"az":31,"ss":44,"used":true},{"PRN":11,"el":2,"az":263,"ss":33,"used":false},{"PRN":31,"el":85,"az":237,"ss":46,"used":true},{"PRN":16,"el":0,"az":184,"ss":-0,"used":false}]} 
38.786          GPSD_json            pGPSd           {"class":"SKY","device":"/dev/garmingps","xdop":0.58,"ydop":0.59,"vdop":1.16,"tdop":0.72,"hdop":0.82,"gdop":1.59,"pdop":1.42,"satellites":[{"PRN":10,"el":16,"az":150,"ss":44,"used":true},{"PRN":3,"el":25,"az":314,"ss":43,"used":true},{"PRN":26,"el":22,"az":171,"ss":40,"used":true},{"PRN":22,"el":44,"az":301,"ss":44,"used":true},{"PRN":32,"el":49,"az":82,"ss":43,"used":true},{"PRN":25,"el":35,"az":62,"ss":47,"used":true},{"PRN":1,"el":25,"az":269,"ss":43,"used":true},{"PRN":14,"el":73,"az":34,"ss":46,"used":true},{"PRN":12,"el":6,"az":30,"ss":46,"used":true},{"PRN":11,"el":2,"az":263,"ss":33,"used":false},{"PRN":31,"el":85,"az":237,"ss":47,"used":true},{"PRN":16,"el":0,"az":184,"ss":-0,"used":false}]} 
39.539          GPSD_json            pGPSd           {"class":"SKY","device":"/dev/garmingps","xdop":0.58,"ydop":0.59,"vdop":1.16,"tdop":0.72,"hdop":0.82,"gdop":1.59,"pdop":1.42,"satellites":[{"PRN":10,"el":16,"az":150,"ss":43,"used":true},{"PRN":3,"el":25,"az":314,"ss":43,"used":true},{"PRN":26,"el":22,"az":171,"ss":41,"used":true},{"PRN":22,"el":44,"az":301,"ss":44,"used":true},{"PRN":32,"el":49,"az":82,"ss":45,"used":true},{"PRN":25,"el":35,"az":62,"ss":47,"used":true},{"PRN":1,"el":25,"az":269,"ss":44,"used":true},{"PRN":14,"el":73,"az":34,"ss":46,"used":true},{"PRN":12,"el":6,"az":30,"ss":45,"used":true},{"PRN":11,"el":2,"az":263,"ss":32,"used":false},{"PRN":31,"el":85,"az":237,"ss":46,"used":true},{"PRN":16,"el":0,"az":184,"ss":-0,"used":false}]} 
40.540          GPSD_json            pGPSd           {"class":"SKY","device":"/dev/garmingps","xdop":0.58,"ydop":0.59,"vdop":1.16,"tdop":0.72,"hdop":0.82,"gdop":1.59,"pdop":1.42,"satellites":[{"PRN":10,"el":16,"az":150,"ss":43,"used":true},{"PRN":3,"el":25,"az":314,"ss":43,"used":true},{"PRN":26,"el":22,"az":171,"ss":42,"used":true},{"PRN":22,"el":44,"az":301,"ss":41,"used":true},{"PRN":32,"el":49,"az":82,"ss":46,"used":true},{"PRN":25,"el":35,"az":62,"ss":47,"used":true},{"PRN":1,"el":25,"az":269,"ss":44,"used":true},{"PRN":14,"el":73,"az":34,"ss":46,"used":true},{"PRN":12,"el":6,"az":30,"ss":43,"used":true},{"PRN":11,"el":2,"az":263,"ss":31,"used":false},{"PRN":31,"el":85,"az":237,"ss":46,"used":true},{"PRN":16,"el":0,"az":184,"ss":-0,"used":false}]} 
41.542          GPSD_json            pGPSd           {"class":"SKY","device":"/dev/garmingps","xdop":0.58,"ydop":0.59,"vdop":1.16,"tdop":0.72,"hdop":0.82,"gdop":1.59,"pdop":1.42,"satellites":[{"PRN":10,"el":16,"az":150,"ss":43,"used":true},{"PRN":3,"el":25,"az":314,"ss":43,"used":true},{"PRN":26,"el":22,"az":171,"ss":41,"used":true},{"PRN":22,"el":44,"az":301,"ss":39,"used":true},{"PRN":32,"el":49,"az":82,"ss":46,"used":true},{"PRN":25,"el":35,"az":62,"ss":47,"used":true},{"PRN":1,"el":25,"az":269,"ss":44,"used":true},{"PRN":14,"el":73,"az":34,"ss":45,"used":true},{"PRN":12,"el":6,"az":30,"ss":44,"used":true},{"PRN":11,"el":2,"az":263,"ss":31,"used":false},{"PRN":31,"el":85,"az":237,"ss":46,"used":true},{"PRN":16,"el":0,"az":184,"ss":-0,"used":false}]} 
42.544          GPSD_json            pGPSd           {"class":"SKY","device":"/dev/garmingps","xdop":0.58,"ydop":0.59,"vdop":1.16,"tdop":0.72,"hdop":0.82,"gdop":1.59,"pdop":1.42,"satellites":[{"PRN":10,"el":16,"az":150,"ss":43,"used":true},{"PRN":3,"el":25,"az":314,"ss":43,"used":true},{"PRN":26,"el":22,"az":171,"ss":40,"used":true},{"PRN":22,"el":44,"az":301,"ss":39,"used":true},{"PRN":32,"el":49,"az":82,"ss":45,"used":true},{"PRN":25,"el":35,"az":62,"ss":47,"used":true},{"PRN":1,"el":25,"az":269,"ss":44,"used":true},{"PRN":14,"el":73,"az":35,"ss":45,"used":true},{"PRN":12,"el":6,"az":30,"ss":44,"used":true},{"PRN":11,"el":2,"az":263,"ss":30,"used":false},{"PRN":31,"el":85,"az":237,"ss":46,"used":true},{"PRN":16,"el":0,"az":184,"ss":-0,"used":false}]} 
43.546          GPSD_json            pGPSd           {"class":"SKY","device":"/dev/garmingps","xdop":0.58,"ydop":0.59,"vdop":1.16,"tdop":0.72,"hdop":0.82,"gdop":1.59,"pdop":1.42,"satellites":[{"PRN":10,"el":16,"az":150,"ss":44,"used":true},{"PRN":3,"el":25,"az":314,"ss":43,"used":true},{"PRN":26,"el":22,"az":171,"ss":40,"used":true},{"PRN":22,"el":44,"az":301,"ss":41,"used":true},{"PRN":32,"el":49,"az":82,"ss":46,"used":true},{"PRN":25,"el":35,"az":62,"ss":46,"used":true},{"PRN":1,"el":25,"az":269,"ss":43,"used":true},{"PRN":14,"el":73,"az":35,"ss":45,"used":true},{"PRN":12,"el":6,"az":30,"ss":44,"used":true},{"PRN":11,"el":2,"az":263,"ss":30,"used":false},{"PRN":31,"el":85,"az":237,"ss":45,"used":true},{"PRN":16,"el":0,"az":184,"ss":-0,"used":false}]} 
44.549          GPSD_json            pGPSd           {"class":"SKY","device":"/dev/garmingps","xdop":0.58,"ydop":0.59,"vdop":1.16,"tdop":0.72,"hdop":0.82,"gdop":1.59,"pdop":1.42,"satellites":[{"PRN":10,"el":16,"az":150,"ss":43,"used":true},{"PRN":3,"el":25,"az":314,"ss":41,"used":true},{"PRN":26,"el":22,"az":171,"ss":40,"used":true},{"PRN":22,"el":44,"az":301,"ss":42,"used":true},{"PRN":32,"el":49,"az":82,"ss":45,"used":true},{"PRN":25,"el":35,"az":62,"ss":46,"used":true},{"PRN":1,"el":25,"az":269,"ss":43,"used":true},{"PRN":14,"el":73,"az":35,"ss":45,"used":true},{"PRN":12,"el":6,"az":30,"ss":44,"used":true},{"PRN":11,"el":2,"az":263,"ss":30,"used":false},{"PRN":31,"el":85,"az":237,"ss":47,"used":true},{"PRN":16,"el":0,"az":184,"ss":-0,"used":false}]} 
45.552          GPSD_json            pGPSd           {"class":"SKY","device":"/dev/garmingps","xdop":0.58,"ydop":0.59,"vdop":1.16,"tdop":0.72,"hdop":0.82,"gdop":1.59,"pdop":1.42,"satellites":[{"PRN":10,"el":16,"az":150,"ss":43,"used":true},{"PRN":3,"el":25,"az":314,"ss":40,"used":true},{"PRN":26,"el":22,"az":171,"ss":40,"used":true},{"PRN":22,"el":44,"az":301,"ss":43,"used":true},{"PRN":32,"el":49,"az":82,"ss":46,"used":true},{"PRN":25,"el":35,"az":62,"ss":46,"used":true},{"PRN":1,"el":25,"az":269,"ss":43,"used":true},{"PRN":14,"el":73,"az":35,"ss":45,"used":true},{"PRN":12,"el":6,"az":30,"ss":44,"used":true},{"PRN":11,"el":2,"az":263,"ss":30,"used":false},{"PRN":31,"el":85,"az":237,"ss":45,"used":true},{"PRN":16,"el":0,"az":184,"ss":-0,"used":false}]} 
46.554          GPSD_json            pGPSd           {"class":"SKY","device":"/dev/garmingps","xdop":0.58,"ydop":0.59,"vdop":1.16,"tdop":0.72,"hdop":0.82,"gdop":1.59,"pdop":1.42,"satellites":[{"PRN":10,"el":16,"az":150,"ss":43,"used":true},{"PRN":3,"el":25,"az":314,"ss":41,"used":true},{"PRN":26,"el":22,"az":171,"ss":39,"used":true},{"PRN":22,"el":44,"az":301,"ss":44,"used":true},{"PRN":32,"el":49,"az":82,"ss":46,"used":true},{"PRN":25,"el":35,"az":62,"ss":47,"used":true},{"PRN":1,"el":25,"az":269,"ss":42,"used":true},{"PRN":14,"el":73,"az":35,"ss":45,"used":true},{"PRN":12,"el":6,"az":30,"ss":43,"used":true},{"PRN":11,"el":2,"az":263,"ss":30,"used":false},{"PRN":31,"el":85,"az":237,"ss":47,"used":true},{"PRN":16,"el":0,"az":184,"ss":-0,"used":false}]} 
47.556          GPSD_json            pGPSd           {"class":"SKY","device":"/dev/garmingps","xdop":0.58,"ydop":0.59,"vdop":1.16,"tdop":0.72,"hdop":0.82,"gdop":1.59,"pdop":1.42,"satellites":[{"PRN":10,"el":16,"az":150,"ss":43,"used":true},{"PRN":3,"el":25,"az":314,"ss":42,"used":true},{"PRN":26,"el":22,"az":171,"ss":39,"used":true},{"PRN":22,"el":44,"az":301,"ss":43,"used":true},{"PRN":32,"el":49,"az":82,"ss":46,"used":true},{"PRN":25,"el":35,"az":62,"ss":46,"used":true},{"PRN":1,"el":25,"az":269,"ss":43,"used":true},{"PRN":14,"el":73,"az":35,"ss":45,"used":true},{"PRN":12,"el":6,"az":30,"ss":43,"used":true},{"PRN":11,"el":2,"az":263,"ss":28,"used":false},{"PRN":31,"el":85,"az":237,"ss":47,"used":true},{"PRN":16,"el":0,"az":184,"ss":-0,"used":false}]} 
48.558          GPSD_json            pGPSd           {"class":"SKY","device":"/dev/garmingps","xdop":0.58,"ydop":0.59,"vdop":1.16,"tdop":0.72,"hdop":0.82,"gdop":1.59,"pdop":1.42,"satellites":[{"PRN":10,"el":16,"az":150,"ss":44,"used":true},{"PRN":3,"el":25,"az":314,"ss":41,"used":true},{"PRN":26,"el":22,"az":171,"ss":40,"used":true},{"PRN":22,"el":44,"az":301,"ss":44,"used":true},{"PRN":32,"el":49,"az":82,"ss":47,"used":true},{"PRN":25,"el":35,"az":62,"ss":46,"used":true},{"PRN":1,"el":25,"az":269,"ss":43,"used":true},{"PRN":14,"el":73,"az":35,"ss":45,"used":true},{"PRN":12,"el":6,"az":30,"ss":43,"used":true},{"PRN":11,"el":2,"az":263,"ss":24,"used":false},{"PRN":31,"el":85,"az":237,"ss":45,"used":true},{"PRN":16,"el":0,"az":184,"ss":-0,"used":false}]} 
49.560          GPSD_json            pGPSd           {"class":"SKY","device":"/dev/garmingps","xdop":0.58,"ydop":0.59,"vdop":1.16,"tdop":0.72,"hdop":0.82,"gdop":1.59,"pdop":1.42,"satellites":[{"PRN":10,"el":16,"az":150,"ss":44,"used":true},{"PRN":3,"el":25,"az":314,"ss":41,"used":true},{"PRN":26,"el":22,"az":171,"ss":41,"used":true},{"PRN":22,"el":44,"az":301,"ss":44,"used":true},{"PRN":32,"el":49,"az":82,"ss":46,"used":true},{"PRN":25,"el":35,"az":62,"ss":45,"used":true},{"PRN":1,"el":25,"az":269,"ss":44,"used":true},{"PRN":14,"el":73,"az":35,"ss":45,"used":true},{"PRN":12,"el":6,"az":30,"ss":44,"used":true},{"PRN":11,"el":2,"az":263,"ss":24,"used":false},{"PRN":31,"el":85,"az":237,"ss":45,"used":true},{"PRN":16,"el":0,"az":184,"ss":-0,"used":false}]} 
50.562          GPSD_json            pGPSd           {"class":"SKY","device":"/dev/garmingps","xdop":0.58,"ydop":0.59,"vdop":1.16,"tdop":0.72,"hdop":0.82,"gdop":1.59,"pdop":1.42,"satellites":[{"PRN":10,"el":16,"az":150,"ss":43,"used":true},{"PRN":3,"el":25,"az":314,"ss":41,"used":true},{"PRN":26,"el":22,"az":171,"ss":41,"used":true},{"PRN":22,"el":44,"az":301,"ss":44,"used":true},{"PRN":32,"el":49,"az":82,"ss":45,"used":true},{"PRN":25,"el":35,"az":62,"ss":46,"used":true},{"PRN":1,"el":25,"az":269,"ss":44,"used":true},{"PRN":14,"el":73,"az":35,"ss":45,"used":true},{"PRN":12,"el":6,"az":30,"ss":44,"used":true},{"PRN":11,"el":2,"az":263,"ss":21,"used":false},{"PRN":31,"el":85,"az":237,"ss":45,"used":true},{"PRN":16,"el":0,"az":184,"ss":-0,"used":false}]} 
51.564          GPSD_json            pGPSd           {"class":"SKY","device":"/dev/garmingps","xdop":0.58,"ydop":0.59,"vdop":1.16,"tdop":0.72,"hdop":0.82,"gdop":1.59,"pdop":1.42,"satellites":[{"PRN":10,"el":16,"az":150,"ss":44,"used":true},{"PRN":3,"el":25,"az":314,"ss":41,"used":true},{"PRN":26,"el":22,"az":171,"ss":41,"used":true},{"PRN":22,"el":44,"az":301,"ss":42,"used":true},{"PRN":32,"el":49,"az":82,"ss":43,"used":true},{"PRN":25,"el":35,"az":62,"ss":47,"used":true},{"PRN":1,"el":25,"az":269,"ss":44,"used":true},{"PRN":14,"el":73,"az":35,"ss":46,"used":true},{"PRN":12,"el":6,"az":30,"ss":45,"used":true},{"PRN":11,"el":2,"az":263,"ss":17,"used":false},{"PRN":31,"el":85,"az":237,"ss":46,"used":true},{"PRN":16,"el":0,"az":184,"ss":-0,"used":false}]} 
52.566          GPSD_json            pGPSd           {"class":"SKY","device":"/dev/garmingps","xdop":0.58,"ydop":0.59,"vdop":1.16,"tdop":0.72,"hdop":0.82,"gdop":1.59,"pdop":1.42,"satellites":[{"PRN":10,"el":16,"az":150,"ss":43,"used":true},{"PRN":3,"el":25,"az":314,"ss":42,"used":true},{"PRN":26,"el":22,"az":171,"ss":42,"used":true},{"PRN":22,"el":44,"az":301,"ss":44,"used":true},{"PRN":32,"el":49,"az":82,"ss":43,"used":true},{"PRN":25,"el":35,"az":62,"ss":48,"used":true},{"PRN":1,"el":25,"az":269,"ss":44,"used":true},{"PRN":14,"el":73,"az":35,"ss":46,"used":true},{"PRN":12,"el":6,"az":30,"ss":46,"used":true},{"PRN":11,"el":2,"az":263,"ss":17,"used":false},{"PRN":31,"el":85,"az":237,"ss":47,"used":true},{"PRN":16,"el":0,"az":184,"ss":-0,"used":false}]} 
53.568          GPSD_json            pGPSd           {"class":"SKY","device":"/dev/garmingps","xdop":0.58,"ydop":0.59,"vdop":1.16,"tdop":0.72,"hdop":0.82,"gdop":1.59,"pdop":1.42,"satellites":[{"PRN":10,"el":16,"az":150,"ss":43,"used":true},{"PRN":3,"el":25,"az":314,"ss":42,"used":true},{"PRN":26,"el":22,"az":171,"ss":41,"used":true},{"PRN":22,"el":44,"az":301,"ss":43,"used":true},{"PRN":32,"el":49,"az":82,"ss":45,"used":true},{"PRN":25,"el":35,"az":62,"ss":49,"used":true},{"PRN":1,"el":25,"az":269,"ss":44,"used":true},{"PRN":14,"el":73,"az":35,"ss":46,"used":true},{"PRN":12,"el":6,"az":30,"ss":46,"used":true},{"PRN":11,"el":2,"az":263,"ss":18,"used":false},{"PRN":31,"el":85,"az":237,"ss":47,"used":true},{"PRN":16,"el":0,"az":184,"ss":-0,"used":false}]} 
54.570          GPSD_json            pGPSd           {"class":"SKY","device":"/dev/garmingps","xdop":0.58,"ydop":0.59,"vdop":1.16,"tdop":0.72,"hdop":0.82,"gdop":1.59,"pdop":1.42,"satellites":[{"PRN":10,"el":16,"az":150,"ss":43,"used":true},{"PRN":3,"el":25,"az":314,"ss":42,"used":true},{"PRN":26,"el":22,"az":171,"ss":40,"used":true},{"PRN":22,"el":44,"az":301,"ss":41,"used":true},{"PRN":32,"el":49,"az":82,"ss":47,"used":true},{"PRN":25,"el":35,"az":62,"ss":48,"used":true},{"PRN":1,"el":25,"az":269,"ss":45,"used":true},{"PRN":14,"el":73,"az":35,"ss":45,"used":true},{"PRN":12,"el":6,"az":30,"ss":44,"used":true},{"PRN":11,"el":2,"az":263,"ss":19,"used":false},{"PRN":31,"el":85,"az":237,"ss":48,"used":true},{"PRN":16,"el":0,"az":184,"ss":-0,"used":false}]} 
55.572          GPSD_json            pGPSd           {"class":"SKY","device":"/dev/garmingps","xdop":0.58,"ydop":0.59,"vdop":1.16,"tdop":0.72,"hdop":0.82,"gdop":1.59,"pdop":1.42,"satellites":[{"PRN":10,"el":16,"az":150,"ss":43,"used":true},{"PRN":3,"el":25,"az":314,"ss":42,"used":true},{"PRN":26,"el":22,"az":171,"ss":39,"used":true},{"PRN":22,"el":44,"az":301,"ss":38,"used":true},{"PRN":32,"el":49,"az":82,"ss":46,"used":true},{"PRN":25,"el":35,"az":62,"ss":47,"used":true},{"PRN":1,"el":25,"az":269,"ss":43,"used":true},{"PRN":14,"el":73,"az":35,"ss":46,"used":true},{"PRN":12,"el":6,"az":30,"ss":45,"used":true},{"PRN":11,"el":2,"az":263,"ss":21,"used":false},{"PRN":31,"el":85,"az":237,"ss":47,"used":true},{"PRN":16,"el":0,"az":184,"ss":-0,"used":false}]} 
56.575          GPSD_json            pGPSd           {"class":"SKY","device":"/dev/garmingps","xdop":0.58,"ydop":0.59,"vdop":1.16,"tdop":0.72,"hdop":0.82,"gdop":1.59,"pdop":1.42,"satellites":[{"PRN":10,"el":16,"az":150,"ss":44,"used":true},{"PRN":3,"el":25,"az":314,"ss":43,"used":true},{"PRN":26,"el":22,"az":171,"ss":41,"used":true},{"PRN":22,"el":44,"az":301,"ss":43,"used":true},{"PRN":32,"el":49,"az":82,"ss":46,"used":true},{"PRN":25,"el":35,"az":62,"ss":46,"used":true},{"PRN":1,"el":25,"az":269,"ss":43,"used":true},{"PRN":14,"el":73,"az":35,"ss":46,"used":true},{"PRN":12,"el":6,"az":30,"ss":45,"used":true},{"PRN":11,"el":2,"az":263,"ss":23,"used":false},{"PRN":31,"el":85,"az":237,"ss":47,"used":true},{"PRN":16,"el":0,"az":184,"ss":-0,"used":false}]} 
57.576          GPSD_json            pGPSd           {"class":"SKY","device":"/dev/garmingps","xdop":0.58,"ydop":0.59,"vdop":1.16,"tdop":0.72,"hdop":0.82,"gdop":1.59,"pdop":1.42,"satellites":[{"PRN":10,"el":16,"az":150,"ss":43,"used":true},{"PRN":3,"el":25,"az":314,"ss":42,"used":true},{"PRN":26,"el":22,"az":171,"ss":39,"used":true},{"PRN":22,"el":44,"az":301,"ss":42,"used":true},{"PRN":32,"el":49,"az":82,"ss":47,"used":true},{"PRN":25,"el":35,"az":62,"ss":46,"used":true},{"PRN":1,"el":25,"az":269,"ss":44,"used":true},{"PRN":14,"el":73,"az":35,"ss":46,"used":true},{"PRN":12,"el":6,"az":30,"ss":45,"used":true},{"PRN":11,"el":2,"az":263,"ss":24,"used":false},{"PRN":31,"el":85,"az":237,"ss":47,"used":true},{"PRN":16,"el":0,"az":184,"ss":-0,"used":false}]} 
58.579          GPSD_json            pGPSd           {"class":"SKY","device":"/dev/garmingps","xdop":0.58,"ydop":0.59,"vdop":1.16,"tdop":0.72,"hdop":0.82,"gdop":1.59,"pdop":1.42,"satellites":[{"PRN":10,"el":16,"az":150,"ss":43,"used":true},{"PRN":3,"el":25,"az":314,"ss":41,"used":true},{"PRN":26,"el":22,"az":171,"ss":40,"used":true},{"PRN":22,"el":45,"az":301,"ss":42,"used":true},{"PRN":32,"el":49,"az":82,"ss":45,"used":true},{"PRN":25,"el":35,"az":62,"ss":46,"used":true},{"PRN":1,"el":25,"az":269,"ss":43,"used":true},{"PRN":14,"el":73,"az":35,"ss":46,"used":true},{"PRN":12,"el":6,"az":30,"ss":45,"used":true},{"PRN":11,"el":2,"az":263,"ss":24,"used":false},{"PRN":31,"el":85,"az":237,"ss":48,"used":true},{"PRN":16,"el":0,"az":184,"ss":-0,"used":false}]} 
59.580          GPSD_json            pGPSd           {"class":"SKY","device":"/dev/garmingps","xdop":0.58,"ydop":0.59,"vdop":1.16,"tdop":0.72,"hdop":0.82,"gdop":1.59,"pdop":1.42,"satellites":[{"PRN":10,"el":16,"az":150,"ss":43,"used":true},{"PRN":3,"el":25,"az":314,"ss":41,"used":true},{"PRN":26,"el":22,"az":171,"ss":40,"used":true},{"PRN":22,"el":45,"az":301,"ss":42,"used":true},{"PRN":32,"el":49,"az":82,"ss":45,"used":true},{"PRN":25,"el":35,"az":62,"ss":45,"used":true},{"PRN":1,"el":25,"az":269,"ss":43,"used":true},{"PRN":14,"el":73,"az":35,"ss":46,"used":true},{"PRN":12,"el":6,"az":30,"ss":44,"used":true},{"PRN":11,"el":2,"az":263,"ss":24,"used":false},{"PRN":31,"el":85,"az":237,"ss":47,"used":true},{"PRN":16,"el":0,"az":184,"ss":-0,"used":false}]} 
61.584          GPSD_json            pGPSd           {"class":"SKY","device":"/dev/garmingps","xdop":0.58,"ydop":0.59,"vdop":1.16,"tdop":0.72,"hdop":0.82,"gdop":1.59,"pdop":1.42,"satellites":[{"PRN":10,"el":16,"az":150,"ss":42,"used":true},{"PRN":3,"el":25,"az":314,"ss":44,"used":true},{"PRN":26,"el":22,"az":171,"ss":40,"used":true},{"PRN":22,"el":45,"az":301,"ss":43,"used":true},{"PRN":32,"el":49,"az":82,"ss":45,"used":true},{"PRN":25,"el":35,"az":62,"ss":47,"used":true},{"PRN":1,"el":25,"az":269,"ss":44,"used":true},{"PRN":14,"el":73,"az":35,"ss":47,"used":true},{"PRN":12,"el":6,"az":30,"ss":44,"used":true},{"PRN":11,"el":2,"az":263,"ss":24,"used":false},{"PRN":31,"el":85,"az":237,"ss":46,"used":true},{"PRN":16,"el":0,"az":184,"ss":-0,"used":false}]} 
62.586          GPSD_json            pGPSd           {"class":"SKY","device":"/dev/garmingps","xdop":0.58,"ydop":0.59,"vdop":1.16,"tdop":0.72,"hdop":0.82,"gdop":1.59,"pdop":1.42,"satellites":[{"PRN":10,"el":16,"az":150,"ss":41,"used":true},{"PRN":3,"el":25,"az":314,"ss":43,"used":true},{"PRN":26,"el":22,"az":171,"ss":40,"used":true},{"PRN":22,"el":45,"az":301,"ss":41,"used":true},{"PRN":32,"el":49,"az":82,"ss":45,"used":true},{"PRN":25,"el":35,"az":62,"ss":47,"used":true},{"PRN":1,"el":25,"az":269,"ss":43,"used":true},{"PRN":14,"el":73,"az":35,"ss":48,"used":true},{"PRN":12,"el":6,"az":30,"ss":43,"used":true},{"PRN":11,"el":2,"az":263,"ss":24,"used":false},{"PRN":31,"el":85,"az":237,"ss":47,"used":true},{"PRN":16,"el":0,"az":184,"ss":-0,"used":false}]} 
63.589          GPSD_json            pGPSd           {"class":"SKY","device":"/dev/garmingps","xdop":0.58,"ydop":0.59,"vdop":1.16,"tdop":0.72,"hdop":0.82,"gdop":1.59,"pdop":1.42,"satellites":[{"PRN":10,"el":16,"az":150,"ss":41,"used":true},{"PRN":3,"el":25,"az":314,"ss":43,"used":true},{"PRN":26,"el":22,"az":171,"ss":41,"used":true},{"PRN":22,"el":45,"az":301,"ss":43,"used":true},{"PRN":32,"el":49,"az":82,"ss":47,"used":true},{"PRN":25,"el":35,"az":62,"ss":48,"used":true},{"PRN":1,"el":25,"az":269,"ss":44,"used":true},{"PRN":14,"el":73,"az":35,"ss":46,"used":true},{"PRN":12,"el":6,"az":30,"ss":44,"used":true},{"PRN":11,"el":2,"az":263,"ss":23,"used":false},{"PRN":31,"el":85,"az":237,"ss":47,"used":true},{"PRN":16,"el":0,"az":184,"ss":-0,"used":false}]} 
64.592          GPSD_json            pGPSd           {"class":"SKY","device":"/dev/garmingps","xdop":0.58,"ydop":0.59,"vdop":1.16,"tdop":0.72,"hdop":0.82,"gdop":1.59,"pdop":1.42,"satellites":[{"PRN":10,"el":16,"az":150,"ss":42,"used":true},{"PRN":3,"el":25,"az":314,"ss":43,"used":true},{"PRN":26,"el":22,"az":171,"ss":40,"used":true},{"PRN":22,"el":45,"az":301,"ss":43,"used":true},{"PRN":32,"el":49,"az":82,"ss":47,"used":true},{"PRN":25,"el":34,"az":62,"ss":45,"used":true},{"PRN":1,"el":25,"az":269,"ss":43,"used":true},{"PRN":14,"el":73,"az":35,"ss":46,"used":true},{"PRN":12,"el":6,"az":30,"ss":44,"used":true},{"PRN":11,"el":2,"az":263,"ss":24,"used":false},{"PRN":31,"el":85,"az":237,"ss":47,"used":true},{"PRN":16,"el":0,"az":184,"ss":-0,"used":false}]} 
65.595          GPSD_json            pGPSd           {"class":"SKY","device":"/dev/garmingps","xdop":0.58,"ydop":0.59,"vdop":1.16,"tdop":0.72,"hdop":0.82,"gdop":1.59,"pdop":1.42,"satellites":[{"PRN":10,"el":16,"az":150,"ss":43,"used":true},{"PRN":3,"el":25,"az":314,"ss":43,"used":true},{"PRN":26,"el":22,"az":171,"ss":41,"used":true},{"PRN":22,"el":45,"az":301,"ss":43,"used":true},{"PRN":32,"el":49,"az":82,"ss":45,"used":true},{"PRN":25,"el":34,"az":62,"ss":44,"used":true},{"PRN":1,"el":25,"az":269,"ss":44,"used":true},{"PRN":14,"el":73,"az":35,"ss":48,"used":true},{"PRN":12,"el":6,"az":30,"ss":44,"used":true},{"PRN":11,"el":2,"az":263,"ss":24,"used":false},{"PRN":31,"el":85,"az":237,"ss":47,"used":true},{"PRN":16,"el":0,"az":184,"ss":-0,"used":false}]} 
66.598          GPSD_json            pGPSd           {"class":"SKY","device":"/dev/garmingps","xdop":0.58,"ydop":0.59,"vdop":1.16,"tdop":0.72,"hdop":0.82,"gdop":1.59,"pdop":1.42,"satellites":[{"PRN":10,"el":16,"az":150,"ss":43,"used":true},{"PRN":3,"el":25,"az":314,"ss":43,"used":true},{"PRN":26,"el":23,"az":171,"ss":43,"used":true},{"PRN":22,"el":45,"az":301,"ss":43,"used":true},{"PRN":32,"el":49,"az":82,"ss":45,"used":true},{"PRN":25,"el":34,"az":62,"ss":44,"used":true},{"PRN":1,"el":25,"az":269,"ss":44,"used":true},{"PRN":14,"el":73,"az":35,"ss":47,"used":true},{"PRN":12,"el":6,"az":30,"ss":44,"used":true},{"PRN":11,"el":2,"az":263,"ss":24,"used":false},{"PRN":31,"el":85,"az":237,"ss":47,"used":true},{"PRN":16,"el":0,"az":184,"ss":-0,"used":false}]} 
67.599          GPSD_json            pGPSd           {"class":"SKY","device":"/dev/garmingps","xdop":0.58,"ydop":0.59,"vdop":1.16,"tdop":0.72,"hdop":0.82,"gdop":1.59,"pdop":1.42,"satellites":[{"PRN":10,"el":16,"az":150,"ss":43,"used":true},{"PRN":3,"el":25,"az":314,"ss":43,"used":true},{"PRN":26,"el":23,"az":171,"ss":42,"used":true},{"PRN":22,"el":45,"az":301,"ss":43,"used":true},{"PRN":32,"el":49,"az":82,"ss":44,"used":true},{"PRN":25,"el":34,"az":62,"ss":44,"used":true},{"PRN":1,"el":25,"az":269,"ss":44,"used":true},{"PRN":14,"el":73,"az":35,"ss":48,"used":true},{"PRN":12,"el":6,"az":30,"ss":44,"used":true},{"PRN":11,"el":2,"az":263,"ss":23,"used":false},{"PRN":31,"el":85,"az":237,"ss":47,"used":true},{"PRN":16,"el":0,"az":184,"ss":-0,"used":false}]} 
68.601          GPSD_json            pGPSd           {"class":"SKY","device":"/dev/garmingps","xdop":0.58,"ydop":0.59,"vdop":1.16,"tdop":0.72,"hdop":0.82,"gdop":1.59,"pdop":1.42,"satellites":[{"PRN":10,"el":16,"az":150,"ss":44,"used":true},{"PRN":3,"el":25,"az":314,"ss":43,"used":true},{"PRN":26,"el":23,"az":171,"ss":41,"used":true},{"PRN":22,"el":45,"az":301,"ss":43,"used":true},{"PRN":32,"el":49,"az":82,"ss":45,"used":true},{"PRN":25,"el":34,"az":62,"ss":44,"used":true},{"PRN":1,"el":25,"az":269,"ss":43,"used":true},{"PRN":14,"el":73,"az":35,"ss":48,"used":true},{"PRN":12,"el":6,"az":30,"ss":44,"used":true},{"PRN":11,"el":2,"az":263,"ss":19,"used":false},{"PRN":31,"el":85,"az":237,"ss":46,"used":true},{"PRN":16,"el":0,"az":184,"ss":-0,"used":false}]} 
69.604          GPSD_json            pGPSd           {"class":"SKY","device":"/dev/garmingps","xdop":0.58,"ydop":0.59,"vdop":1.16,"tdop":0.72,"hdop":0.82,"gdop":1.59,"pdop":1.42,"satellites":[{"PRN":10,"el":16,"az":150,"ss":45,"used":true},{"PRN":3,"el":25,"az":314,"ss":43,"used":true},{"PRN":26,"el":23,"az":171,"ss":40,"used":true},{"PRN":22,"el":45,"az":301,"ss":42,"used":true},{"PRN":32,"el":49,"az":82,"ss":45,"used":true},{"PRN":25,"el":34,"az":62,"ss":44,"used":true},{"PRN":1,"el":25,"az":269,"ss":44,"used":true},{"PRN":14,"el":73,"az":35,"ss":48,"used":true},{"PRN":12,"el":6,"az":30,"ss":44,"used":true},{"PRN":11,"el":2,"az":263,"ss":16,"used":false},{"PRN":31,"el":85,"az":237,"ss":47,"used":true},{"PRN":16,"el":0,"az":184,"ss":-0,"used":false}]} 
70.606          GPSD_json            pGPSd           {"class":"SKY","device":"/dev/garmingps","xdop":0.58,"ydop":0.59,"vdop":1.16,"tdop":0.72,"hdop":0.82,"gdop":1.59,"pdop":1.42,"satellites":[{"PRN":10,"el":16,"az":150,"ss":44,"used":true},{"PRN":3,"el":25,"az":314,"ss":43,"used":true},{"PRN":26,"el":23,"az":171,"ss":40,"used":true},{"PRN":22,"el":45,"az":301,"ss":42,"used":true},{"PRN":32,"el":49,"az":82,"ss":46,"used":true},{"PRN":25,"el":34,"az":62,"ss":43,"used":true},{"PRN":1,"el":25,"az":269,"ss":44,"used":true},{"PRN":14,"el":73,"az":35,"ss":48,"used":true},{"PRN":12,"el":6,"az":30,"ss":44,"used":true},{"PRN":11,"el":2,"az":263,"ss":18,"used":false},{"PRN":31,"el":85,"az":237,"ss":47,"used":true},{"PRN":16,"el":0,"az":184,"ss":-0,"used":false}]} 
71.609          GPSD_json            pGPSd           {"class":"SKY","device":"/dev/garmingps","xdop":0.58,"ydop":0.59,"vdop":1.16,"tdop":0.72,"hdop":0.82,"gdop":1.59,"pdop":1.42,"satellites":[{"PRN":10,"el":16,"az":150,"ss":44,"used":true},{"PRN":3,"el":25,"az":314,"ss":42,"used":true},{"PRN":26,"el":23,"az":171,"ss":41,"used":true},{"PRN":22,"el":45,"az":301,"ss":43,"used":true},{"PRN":32,"el":49,"az":82,"ss":47,"used":true},{"PRN":25,"el":34,"az":62,"ss":43,"used":true},{"PRN":1,"el":25,"az":269,"ss":43,"used":true},{"PRN":14,"el":73,"az":35,"ss":48,"used":true},{"PRN":12,"el":6,"az":30,"ss":44,"used":true},{"PRN":11,"el":2,"az":263,"ss":21,"used":false},{"PRN":31,"el":85,"az":237,"ss":46,"used":true},{"PRN":16,"el":0,"az":184,"ss":-0,"used":false}]} 
72.611          GPSD_json            pGPSd           {"class":"SKY","device":"/dev/garmingps","xdop":0.58,"ydop":0.59,"vdop":1.16,"tdop":0.72,"hdop":0.82,"gdop":1.59,"pdop":1.42,"satellites":[{"PRN":10,"el":16,"az":150,"ss":44,"used":true},{"PRN":3,"el":25,"az":314,"ss":42,"used":true},{"PRN":26,"el":23,"az":171,"ss":41,"used":true},{"PRN":22,"el":45,"az":301,"ss":45,"used":true},{"PRN":32,"el":49,"az":82,"ss":47,"used":true},{"PRN":25,"el":34,"az":62,"ss":43,"used":true},{"PRN":1,"el":25,"az":269,"ss":44,"used":true},{"PRN":14,"el":73,"az":35,"ss":48,"used":true},{"PRN":12,"el":6,"az":30,"ss":45,"used":true},{"PRN":11,"el":2,"az":263,"ss":23,"used":false},{"PRN":31,"el":85,"az":237,"ss":47,"used":true},{"PRN":16,"el":0,"az":184,"ss":-0,"used":false}]} 
73.614          GPSD_json            pGPSd           {"class":"SKY","device":"/dev/garmingps","xdop":0.58,"ydop":0.59,"vdop":1.16,"tdop":0.72,"hdop":0.82,"gdop":1.59,"pdop":1.42,"satellites":[{"PRN":10,"el":16,"az":150,"ss":44,"used":true},{"PRN":3,"el":25,"az":314,"ss":43,"used":true},{"PRN":26,"el":23,"az":171,"ss":41,"used":true},{"PRN":22,"el":45,"az":301,"ss":44,"used":true},{"PRN":32,"el":49,"az":82,"ss":46,"used":true},{"PRN":25,"el":34,"az":62,"ss":43,"used":true},{"PRN":1,"el":25,"az":269,"ss":44,"used":true},{"PRN":14,"el":73,"az":35,"ss":47,"used":true},{"PRN":12,"el":6,"az":30,"ss":45,"used":true},{"PRN":11,"el":2,"az":263,"ss":27,"used":false},{"PRN":31,"el":85,"az":237,"ss":46,"used":true},{"PRN":16,"el":0,"az":184,"ss":-0,"used":false}]} 
74.616          GPSD_json            pGPSd           {"class":"SKY","device":"/dev/garmingps","xdop":0.58,"ydop":0.59,"vdop":1.16,"tdop":0.72,"hdop":0.82,"gdop":1.59,"pdop":1.42,"satellites":[{"PRN":10,"el":16,"az":150,"ss":42,"used":true},{"PRN":3,"el":25,"az":314,"ss":43,"used":true},{"PRN":26,"el":23,"az":171,"ss":41,"used":true},{"PRN":22,"el":45,"az":301,"ss":45,"used":true},{"PRN":32,"el":49,"az":82,"ss":46,"used":true},{"PRN":25,"el":34,"az":62,"ss":44,"used":true},{"PRN":1,"el":25,"az":269,"ss":43,"used":true},{"PRN":14,"el":73,"az":35,"ss":48,"used":true},{"PRN":12,"el":6,"az":30,"ss":45,"used":true},{"PRN":11,"el":2,"az":263,"ss":27,"used":false},{"PRN":31,"el":85,"az":237,"ss":48,"used":true},{"PRN":16,"el":0,"az":184,"ss":-0,"used":false}]} 
75.619          GPSD_json            pGPSd           {"class":"SKY","device":"/dev/garmingps","xdop":0.58,"ydop":0.59,"vdop":1.16,"tdop":0.72,"hdop":0.82,"gdop":1.59,"pdop":1.42,"satellites":[{"PRN":10,"el":16,"az":150,"ss":42,"used":true},{"PRN":3,"el":25,"az":314,"ss":43,"used":true},{"PRN":26,"el":23,"az":171,"ss":41,"used":true},{"PRN":22,"el":45,"az":301,"ss":44,"used":true},{"PRN":32,"el":49,"az":82,"ss":44,"used":true},{"PRN":25,"el":34,"az":62,"ss":44,"used":true},{"PRN":1,"el":25,"az":269,"ss":43,"used":true},{"PRN":14,"el":73,"az":35,"ss":48,"used":true},{"PRN":12,"el":6,"az":30,"ss":45,"used":true},{"PRN":11,"el":2,"az":263,"ss":28,"used":false},{"PRN":31,"el":85,"az":237,"ss":48,"used":true},{"PRN":16,"el":0,"az":184,"ss":-0,"used":false}]} 
76.621          GPSD_json            pGPSd           {"class":"SKY","device":"/dev/garmingps","xdop":0.58,"ydop":0.59,"vdop":1.16,"tdop":0.72,"hdop":0.82,"gdop":1.59,"pdop":1.42,"satellites":[{"PRN":10,"el":16,"az":150,"ss":42,"used":true},{"PRN":3,"el":25,"az":314,"ss":43,"used":true},{"PRN":26,"el":23,"az":171,"ss":41,"used":true},{"PRN":22,"el":45,"az":301,"ss":44,"used":true},{"PRN":32,"el":49,"az":82,"ss":44,"used":true},{"PRN":25,"el":34,"az":62,"ss":45,"used":true},{"PRN":1,"el":25,"az":269,"ss":43,"used":true},{"PRN":14,"el":73,"az":35,"ss":48,"used":true},{"PRN":12,"el":6,"az":30,"ss":45,"used":true},{"PRN":11,"el":2,"az":263,"ss":27,"used":false},{"PRN":31,"el":85,"az":240,"ss":47,"used":true},{"PRN":16,"el":0,"az":184,"ss":-0,"used":false}]} 
77.624          GPSD_json            pGPSd           {"class":"SKY","device":"/dev/garmingps","xdop":0.58,"ydop":0.59,"vdop":1.16,"tdop":0.72,"hdop":0.82,"gdop":1.59,"pdop":1.42,"satellites":[{"PRN":10,"el":16,"az":150,"ss":43,"used":true},{"PRN":3,"el":25,"az":314,"ss":43,"used":true},{"PRN":26,"el":23,"az":171,"ss":41,"used":true},{"PRN":22,"el":45,"az":301,"ss":43,"used":true},{"PRN":32,"el":49,"az":82,"ss":45,"used":true},{"PRN":25,"el":34,"az":62,"ss":47,"used":true},{"PRN":1,"el":25,"az":269,"ss":44,"used":true},{"PRN":14,"el":73,"az":35,"ss":48,"used":true},{"PRN":12,"el":6,"az":30,"ss":45,"used":true},{"PRN":11,"el":2,"az":263,"ss":26,"used":false},{"PRN":31,"el":85,"az":240,"ss":47,"used":true},{"PRN":16,"el":0,"az":184,"ss":-0,"used":false}]} 
