0.961           GPSD_json            pGPSd           {"class":"SKY","device":"/dev/garmingps","xdop":0.57,"ydop":0.58,"vdop":1.12,"tdop":0.70,"hdop":0.82,"gdop":1.56,"pdop":1.39,"satellites":[{"PRN":10,"el":13,"az":151,"ss":23,"used":true},{"PRN":3,"el":28,"az":314,"ss":44,"used":true},{"PRN":26,"el":25,"az":170,"ss":41,"used":true},{"PRN":22,"el":47,"az":298,"ss":45,"used":true},{"PRN":32,"el":47,"az":85,"ss":42,"used":true},{"PRN":25,"el":33,"az":59,"ss":48,"used":true},{"PRN":1,"el":24,"az":266,"ss":34,"used":true},{"PRN":14,"el":71,"az":44,"ss":45,"used":true},{"PRN":12,"el":4,"az":29,"ss":42,"used":true},{"PRN":31,"el":88,"az":270,"ss":46,"used":true},{"PRN":16,"el":2,"az":184,"ss":-0,"used":false},{"PRN":23,"el":0,"az":286,"ss":-0,"used":false}]}
1.963           GPSD_json            pGPSd           {"class":"SKY","device":"/dev/garmingps","xdop":0.57,"ydop":0.58,"vdop":1.12,"tdop":0.70,"hdop":0.82,"gdop":1.56,"pdop":1.39,"satellites":[{"PRN":10,"el":13,"az":151,"ss":25,"used":true},{"PRN":3,"el":28,"az":314,"ss":44,"used":true},{"PRN":26,"el":25,"az":170,"ss":41,"used":true},{"PRN":22,"el":47,"az":298,"ss":45,"used":true},{"PRN":32,"el":47,"az":85,"ss":41,"used":true},{"PRN":25,"el":33,"az":59,"ss":48,"used":true},{"PRN":1,"el":24,"az":266,"ss":34,"used":true},{"PRN":14,"el":71,"az":44,"ss":46,"used":true},{"PRN":12,"el":4,"az":29,"ss":41,"used":true},{"PRN":31,"el":88,"az":270,"ss":45,"used":true},{"PRN":16,"el":2,"az":184,"ss":-0,"used":false},{"PRN":23,"el":0,"az":286,"ss":-0,"used":false}]} 
2.966           GPSD_json            pGPSd           {"class":"SKY","device":"/dev/garmingps","xdop":0.57,"ydop":0.58,"vdop":1.12,"tdop":0.70,"hdop":0.82,"gdop":1.56,"pdop":1.39,"satellites":[{"PRN":10,"el":13,"az":151,"ss":27,"used":true},{"PRN":3,"el":28,"az":314,"ss":44,"used":true},{"PRN":26,"el":25,"az":170,"ss":41,"used":true},{"PRN":22,"el":47,"az":298,"ss":45,"used":true},{"PRN":32,"el":47,"az":85,"ss":41,"used":true},{"PRN":25,"el":33,"az":59,"ss":47,"used":true},{"PRN":1,"el":24,"az":266,"ss":32,"used":true},{"PRN":14,"el":71,"az":44,"ss":46,"used":true},{"PRN":12,"el":4,"az":29,"ss":41,"used":true},{"PRN":31,"el":88,"az":270,"ss":46,"used":true},{"PRN":16,"el":2,"az":184,"ss":-0,"used":false},{"PRN":23,"el":0,"az":286,"ss":-0,"used":false}]} 
2.966           GPSD_json            pGPSd           {"class":"SKY","device":"/dev/garmingps","xdop":0.57,"ydop":0.58,"vdop":1.12,"tdop":0.70,"hdop":0.82,"gdop":1.56,"pdop":1.39,"satellites":[{"PRN":10,"el":13,"az":151,"ss":27,"used":true},{"PRN":3,"el":28,"az":314,"ss":44,"used":true},{"PRN":26,"el":25,"az":170,"ss":41,"used":true},{"PRN":22,"el":47,"az":298,"ss":45,"used":true},{"PRN":32,"el":47,"az":85,"ss":41,"used":true},{"PRN":25,"el":33,"az":59,"ss":47,"used":true},{"PRN":1,"el":24,"az":266,"ss":32,"used":true},{"PRN":14,"el":71,"az":44,"ss":46,"used":true},{"PRN":12,"el":4,"az":29,"ss":41,"used":true},{"PRN":31,"el":88,"az":270,"ss":46,"used":true},{"PRN":16,"el":2,"az":184,"ss":-0,"used":false},{"PRN":23,"el":0,"az":286,"ss":-0,"used":false}]} 
3.969           GPSD_json            pGPSd           {"class":"SKY","device":"/dev/garmingps","xdop":0.57,"ydop":0.58,"vdop":1.12,"tdop":0.70,"hdop":0.82,"gdop":1.56,"pdop":1.39,"satellites":[{"PRN":10,"el":13,"az":151,"ss":28,"used":true},{"PRN":3,"el":28,"az":314,"ss":44,"used":true},{"PRN":26,"el":25,"az":170,"ss":41,"used":true},{"PRN":22,"el":47,"az":298,"ss":44,"used":true},{"PRN":32,"el":47,"az":85,"ss":39,"used":true},{"PRN":25,"el":33,"az":59,"ss":45,"used":true},{"PRN":1,"el":24,"az":266,"ss":32,"used":true},{"PRN":14,"el":71,"az":44,"ss":46,"used":true},{"PRN":12,"el":4,"az":29,"ss":41,"used":true},{"PRN":31,"el":88,"az":270,"ss":45,"used":true},{"PRN":16,"el":2,"az":184,"ss":-0,"used":false},{"PRN":23,"el":0,"az":286,"ss":-0,"used":false}]} 
3.969           GPSD_json            pGPSd           {"class":"SKY","device":"/dev/garmingps","xdop":0.57,"ydop":0.58,"vdop":1.12,"tdop":0.70,"hdop":0.82,"gdop":1.56,"pdop":1.39,"satellites":[{"PRN":10,"el":13,"az":151,"ss":28,"used":true},{"PRN":3,"el":28,"az":314,"ss":44,"used":true},{"PRN":26,"el":25,"az":170,"ss":41,"used":true},{"PRN":22,"el":47,"az":298,"ss":44,"used":true},{"PRN":32,"el":47,"az":85,"ss":39,"used":true},{"PRN":25,"el":33,"az":59,"ss":45,"used":true},{"PRN":1,"el":24,"az":266,"ss":32,"used":true},{"PRN":14,"el":71,"az":44,"ss":46,"used":true},{"PRN":12,"el":4,"az":29,"ss":41,"used":true},{"PRN":31,"el":88,"az":270,"ss":45,"used":true},{"PRN":16,"el":2,"az":184,"ss":-0,"used":false},{"PRN":23,"el":0,"az":286,"ss":-0,"used":false}]} 
4.970           GPSD_json            pGPSd           {"class":"SKY","device":"/dev/garmingps","xdop":0.57,"ydop":0.58,"vdop":1.12,"tdop":0.70,"hdop":0.82,"gdop":1.56,"pdop":1.39,"satellites":[{"PRN":10,"el":13,"az":151,"ss":28,"used":true},{"PRN":3,"el":28,"az":314,"ss":44,"used":true},{"PRN":26,"el":25,"az":170,"ss":41,"used":true},{"PRN":22,"el":47,"az":298,"ss":45,"used":true},{"PRN":32,"el":47,"az":85,"ss":40,"used":true},{"PRN":25,"el":33,"az":59,"ss":45,"used":true},{"PRN":1,"el":24,"az":266,"ss":32,"used":true},{"PRN":14,"el":71,"az":44,"ss":47,"used":true},{"PRN":12,"el":4,"az":29,"ss":40,"used":true},{"PRN":31,"el":88,"az":270,"ss":45,"used":true},{"PRN":16,"el":2,"az":184,"ss":-0,"used":false},{"PRN":23,"el":0,"az":286,"ss":-0,"used":false}]} 
5.973           GPSD_json            pGPSd           {"class":"SKY","device":"/dev/garmingps","xdop":0.57,"ydop":0.58,"vdop":1.12,"tdop":0.70,"hdop":0.82,"gdop":1.56,"pdop":1.39,"satellites":[{"PRN":10,"el":13,"az":151,"ss":25,"used":true},{"PRN":3,"el":28,"az":314,"ss":44,"used":true},{"PRN":26,"el":25,"az":170,"ss":42,"used":true},{"PRN":22,"el":47,"az":298,"ss":44,"used":true},{"PRN":32,"el":47,"az":85,"ss":40,"used":true},{"PRN":25,"el":33,"az":59,"ss":47,"used":true},{"PRN":1,"el":24,"az":266,"ss":32,"used":true},{"PRN":14,"el":71,"az":44,"ss":47,"used":true},{"PRN":12,"el":4,"az":29,"ss":40,"used":true},{"PRN":31,"el":88,"az":270,"ss":46,"used":true},{"PRN":16,"el":2,"az":184,"ss":-0,"used":false},{"PRN":23,"el":0,"az":286,"ss":-0,"used":false}]} 
7.978           GPSD_json            pGPSd           {"class":"SKY","device":"/dev/garmingps","xdop":0.57,"ydop":0.58,"vdop":1.12,"tdop":0.70,"hdop":0.82,"gdop":1.56,"pdop":1.39,"satellites":[{"PRN":10,"el":13,"az":151,"ss":25,"used":true},{"PRN":3,"el":28,"az":314,"ss":45,"used":true},{"PRN":26,"el":25,"az":170,"ss":42,"used":true},{"PRN":22,"el":47,"az":298,"ss":44,"used":true},{"PRN":32,"el":47,"az":85,"ss":40,"used":true},{"PRN":25,"el":33,"az":59,"ss":47,"used":true},{"PRN":1,"el":24,"az":266,"ss":33,"used":true},{"PRN":14,"el":71,"az":44,"ss":47,"used":true},{"PRN":12,"el":4,"az":29,"ss":40,"used":true},{"PRN":31,"el":88,"az":270,"ss":45,"used":true},{"PRN":16,"el":2,"az":184,"ss":-0,"used":false},{"PRN":23,"el":0,"az":286,"ss":-0,"used":false}]} 
8.981           GPSD_json            pGPSd           {"class":"SKY","device":"/dev/garmingps","xdop":0.57,"ydop":0.58,"vdop":1.12,"tdop":0.70,"hdop":0.82,"gdop":1.56,"pdop":1.39,"satellites":[{"PRN":10,"el":13,"az":151,"ss":25,"used":true},{"PRN":3,"el":28,"az":314,"ss":44,"used":true},{"PRN":26,"el":25,"az":170,"ss":42,"used":true},{"PRN":22,"el":47,"az":298,"ss":45,"used":true},{"PRN":32,"el":47,"az":85,"ss":40,"used":true},{"PRN":25,"el":33,"az":59,"ss":48,"used":true},{"PRN":1,"el":24,"az":266,"ss":33,"used":true},{"PRN":14,"el":71,"az":44,"ss":46,"used":true},{"PRN":12,"el":4,"az":29,"ss":40,"used":true},{"PRN":31,"el":88,"az":270,"ss":45,"used":true},{"PRN":16,"el":2,"az":184,"ss":-0,"used":false},{"PRN":23,"el":0,"az":286,"ss":-0,"used":false}]} 
9.984           GPSD_json            pGPSd           {"class":"SKY","device":"/dev/garmingps","xdop":0.57,"ydop":0.58,"vdop":1.12,"tdop":0.70,"hdop":0.82,"gdop":1.56,"pdop":1.39,"satellites":[{"PRN":10,"el":13,"az":151,"ss":25,"used":true},{"PRN":3,"el":28,"az":314,"ss":44,"used":true},{"PRN":26,"el":25,"az":170,"ss":42,"used":true},{"PRN":22,"el":47,"az":298,"ss":45,"used":true},{"PRN":32,"el":47,"az":85,"ss":40,"used":true},{"PRN":25,"el":33,"az":59,"ss":47,"used":true},{"PRN":1,"el":24,"az":266,"ss":32,"used":true},{"PRN":14,"el":71,"az":44,"ss":47,"used":true},{"PRN":12,"el":4,"az":29,"ss":40,"used":true},{"PRN":31,"el":88,"az":270,"ss":45,"used":true},{"PRN":16,"el":2,"az":184,"ss":-0,"used":false},{"PRN":23,"el":0,"az":286,"ss":-0,"used":false}]} 
10.986          GPSD_json            pGPSd           {"class":"SKY","device":"/dev/garmingps","xdop":0.57,"ydop":0.58,"vdop":1.12,"tdop":0.70,"hdop":0.82,"gdop":1.56,"pdop":1.39,"satellites":[{"PRN":10,"el":13,"az":151,"ss":26,"used":true},{"PRN":3,"el":28,"az":314,"ss":44,"used":true},{"PRN":26,"el":25,"az":170,"ss":42,"used":true},{"PRN":22,"el":47,"az":298,"ss":45,"used":true},{"PRN":32,"el":47,"az":85,"ss":40,"used":true},{"PRN":25,"el":33,"az":59,"ss":46,"used":true},{"PRN":1,"el":24,"az":266,"ss":32,"used":true},{"PRN":14,"el":71,"az":44,"ss":46,"used":true},{"PRN":12,"el":4,"az":29,"ss":40,"used":true},{"PRN":31,"el":88,"az":270,"ss":45,"used":true},{"PRN":16,"el":2,"az":184,"ss":-0,"used":false},{"PRN":23,"el":0,"az":286,"ss":-0,"used":false}]} 
11.987          GPSD_json            pGPSd           {"class":"SKY","device":"/dev/garmingps","xdop":0.57,"ydop":0.58,"vdop":1.12,"tdop":0.70,"hdop":0.82,"gdop":1.56,"pdop":1.39,"satellites":[{"PRN":10,"el":13,"az":151,"ss":25,"used":true},{"PRN":3,"el":28,"az":314,"ss":44,"used":true},{"PRN":26,"el":26,"az":170,"ss":42,"used":true},{"PRN":22,"el":47,"az":298,"ss":45,"used":true},{"PRN":32,"el":47,"az":85,"ss":38,"used":true},{"PRN":25,"el":33,"az":59,"ss":47,"used":true},{"PRN":1,"el":24,"az":266,"ss":32,"used":true},{"PRN":14,"el":71,"az":44,"ss":47,"used":true},{"PRN":12,"el":4,"az":29,"ss":40,"used":true},{"PRN":31,"el":88,"az":270,"ss":45,"used":true},{"PRN":16,"el":2,"az":184,"ss":-0,"used":false},{"PRN":23,"el":0,"az":286,"ss":-0,"used":false}]} 
12.989          GPSD_json            pGPSd           {"class":"SKY","device":"/dev/garmingps","xdop":0.57,"ydop":0.58,"vdop":1.12,"tdop":0.70,"hdop":0.82,"gdop":1.56,"pdop":1.39,"satellites":[{"PRN":10,"el":13,"az":151,"ss":26,"used":true},{"PRN":3,"el":28,"az":314,"ss":43,"used":true},{"PRN":26,"el":26,"az":170,"ss":42,"used":true},{"PRN":22,"el":47,"az":298,"ss":45,"used":true},{"PRN":32,"el":47,"az":85,"ss":37,"used":true},{"PRN":25,"el":33,"az":59,"ss":47,"used":true},{"PRN":1,"el":24,"az":266,"ss":32,"used":true},{"PRN":14,"el":71,"az":44,"ss":47,"used":true},{"PRN":12,"el":4,"az":29,"ss":40,"used":true},{"PRN":31,"el":88,"az":270,"ss":45,"used":true},{"PRN":16,"el":2,"az":184,"ss":-0,"used":false},{"PRN":23,"el":0,"az":286,"ss":-0,"used":false}]} 
13.991          GPSD_json            pGPSd           {"class":"SKY","device":"/dev/garmingps","xdop":0.57,"ydop":0.58,"vdop":1.12,"tdop":0.70,"hdop":0.82,"gdop":1.56,"pdop":1.39,"satellites":[{"PRN":10,"el":13,"az":151,"ss":26,"used":true},{"PRN":3,"el":28,"az":314,"ss":44,"used":true},{"PRN":26,"el":26,"az":170,"ss":43,"used":true},{"PRN":22,"el":47,"az":298,"ss":44,"used":true},{"PRN":32,"el":47,"az":85,"ss":38,"used":true},{"PRN":25,"el":33,"az":59,"ss":47,"used":true},{"PRN":1,"el":24,"az":266,"ss":32,"used":true},{"PRN":14,"el":71,"az":44,"ss":46,"used":true},{"PRN":12,"el":4,"az":29,"ss":40,"used":true},{"PRN":31,"el":88,"az":270,"ss":45,"used":true},{"PRN":16,"el":2,"az":184,"ss":-0,"used":false},{"PRN":23,"el":0,"az":286,"ss":-0,"used":false}]} 
13.991          GPSD_json            pGPSd           {"class":"SKY","device":"/dev/garmingps","xdop":0.57,"ydop":0.58,"vdop":1.12,"tdop":0.70,"hdop":0.82,"gdop":1.56,"pdop":1.39,"satellites":[{"PRN":10,"el":13,"az":151,"ss":26,"used":true},{"PRN":3,"el":28,"az":314,"ss":44,"used":true},{"PRN":26,"el":26,"az":170,"ss":43,"used":true},{"PRN":22,"el":47,"az":298,"ss":44,"used":true},{"PRN":32,"el":47,"az":85,"ss":38,"used":true},{"PRN":25,"el":33,"az":59,"ss":47,"used":true},{"PRN":1,"el":24,"az":266,"ss":32,"used":true},{"PRN":14,"el":71,"az":44,"ss":46,"used":true},{"PRN":12,"el":4,"az":29,"ss":40,"used":true},{"PRN":31,"el":88,"az":270,"ss":45,"used":true},{"PRN":16,"el":2,"az":184,"ss":-0,"used":false},{"PRN":23,"el":0,"az":286,"ss":-0,"used":false}]} 
14.993          GPSD_json            pGPSd           {"class":"SKY","device":"/dev/garmingps","xdop":0.57,"ydop":0.58,"vdop":1.12,"tdop":0.70,"hdop":0.82,"gdop":1.56,"pdop":1.39,"satellites":[{"PRN":10,"el":13,"az":151,"ss":25,"used":true},{"PRN":3,"el":28,"az":314,"ss":44,"used":true},{"PRN":26,"el":26,"az":170,"ss":43,"used":true},{"PRN":22,"el":47,"az":298,"ss":45,"used":true},{"PRN":32,"el":47,"az":85,"ss":38,"used":true},{"PRN":25,"el":33,"az":59,"ss":48,"used":true},{"PRN":1,"el":24,"az":266,"ss":32,"used":true},{"PRN":14,"el":71,"az":44,"ss":46,"used":true},{"PRN":12,"el":4,"az":29,"ss":40,"used":true},{"PRN":31,"el":88,"az":270,"ss":45,"used":true},{"PRN":16,"el":2,"az":184,"ss":-0,"used":false},{"PRN":23,"el":0,"az":286,"ss":-0,"used":false}]} 
15.995          GPSD_json            pGPSd           {"class":"SKY","device":"/dev/garmingps","xdop":0.57,"ydop":0.58,"vdop":1.12,"tdop":0.70,"hdop":0.82,"gdop":1.56,"pdop":1.39,"satellites":[{"PRN":10,"el":13,"az":151,"ss":27,"used":true},{"PRN":3,"el":28,"az":314,"ss":44,"used":true},{"PRN":26,"el":26,"az":170,"ss":43,"used":true},{"PRN":22,"el":47,"az":298,"ss":44,"used":true},{"PRN":32,"el":47,"az":85,"ss":37,"used":true},{"PRN":25,"el":33,"az":59,"ss":48,"used":true},{"PRN":1,"el":24,"az":266,"ss":32,"used":true},{"PRN":14,"el":71,"az":44,"ss":47,"used":true},{"PRN":12,"el":4,"az":29,"ss":40,"used":true},{"PRN":31,"el":88,"az":270,"ss":46,"used":true},{"PRN":16,"el":2,"az":184,"ss":-0,"used":false},{"PRN":23,"el":0,"az":286,"ss":-0,"used":false}]} 
16.998          GPSD_json            pGPSd           {"class":"SKY","device":"/dev/garmingps","xdop":0.57,"ydop":0.58,"vdop":1.12,"tdop":0.70,"hdop":0.82,"gdop":1.56,"pdop":1.39,"satellites":[{"PRN":10,"el":13,"az":151,"ss":28,"used":true},{"PRN":3,"el":28,"az":314,"ss":44,"used":true},{"PRN":26,"el":26,"az":170,"ss":43,"used":true},{"PRN":22,"el":47,"az":298,"ss":43,"used":true},{"PRN":32,"el":47,"az":85,"ss":37,"used":true},{"PRN":25,"el":33,"az":59,"ss":47,"used":true},{"PRN":1,"el":24,"az":266,"ss":31,"used":true},{"PRN":14,"el":71,"az":44,"ss":47,"used":true},{"PRN":12,"el":4,"az":29,"ss":40,"used":true},{"PRN":31,"el":88,"az":270,"ss":45,"used":true},{"PRN":16,"el":2,"az":184,"ss":-0,"used":false},{"PRN":23,"el":0,"az":286,"ss":-0,"used":false}]} 
18.001          GPSD_json            pGPSd           {"class":"SKY","device":"/dev/garmingps","xdop":0.57,"ydop":0.58,"vdop":1.12,"tdop":0.70,"hdop":0.82,"gdop":1.56,"pdop":1.39,"satellites":[{"PRN":10,"el":13,"az":151,"ss":28,"used":true},{"PRN":3,"el":28,"az":314,"ss":43,"used":true},{"PRN":26,"el":26,"az":170,"ss":43,"used":true},{"PRN":22,"el":47,"az":298,"ss":43,"used":true},{"PRN":32,"el":47,"az":85,"ss":36,"used":true},{"PRN":25,"el":33,"az":59,"ss":47,"used":true},{"PRN":1,"el":24,"az":266,"ss":30,"used":true},{"PRN":14,"el":71,"az":44,"ss":47,"used":true},{"PRN":12,"el":4,"az":29,"ss":40,"used":true},{"PRN":31,"el":88,"az":270,"ss":45,"used":true},{"PRN":16,"el":2,"az":184,"ss":-0,"used":false},{"PRN":23,"el":0,"az":286,"ss":-0,"used":false}]} 
19.002          GPSD_json            pGPSd           {"class":"SKY","device":"/dev/garmingps","xdop":0.57,"ydop":0.58,"vdop":1.12,"tdop":0.70,"hdop":0.82,"gdop":1.56,"pdop":1.39,"satellites":[{"PRN":10,"el":13,"az":151,"ss":27,"used":true},{"PRN":3,"el":28,"az":314,"ss":44,"used":true},{"PRN":26,"el":26,"az":170,"ss":42,"used":true},{"PRN":22,"el":47,"az":298,"ss":43,"used":true},{"PRN":32,"el":47,"az":85,"ss":36,"used":true},{"PRN":25,"el":33,"az":59,"ss":47,"used":true},{"PRN":1,"el":24,"az":266,"ss":30,"used":true},{"PRN":14,"el":71,"az":44,"ss":45,"used":true},{"PRN":12,"el":4,"az":29,"ss":40,"used":true},{"PRN":31,"el":88,"az":270,"ss":46,"used":true},{"PRN":16,"el":2,"az":184,"ss":-0,"used":false},{"PRN":23,"el":0,"az":286,"ss":-0,"used":false}]} 
20.005          GPSD_json            pGPSd           {"class":"SKY","device":"/dev/garmingps","xdop":0.57,"ydop":0.58,"vdop":1.12,"tdop":0.70,"hdop":0.82,"gdop":1.56,"pdop":1.39,"satellites":[{"PRN":10,"el":13,"az":151,"ss":26,"used":true},{"PRN":3,"el":28,"az":314,"ss":44,"used":true},{"PRN":26,"el":26,"az":170,"ss":42,"used":true},{"PRN":22,"el":47,"az":298,"ss":44,"used":true},{"PRN":32,"el":47,"az":85,"ss":37,"used":true},{"PRN":25,"el":33,"az":59,"ss":47,"used":true},{"PRN":1,"el":24,"az":266,"ss":30,"used":true},{"PRN":14,"el":71,"az":44,"ss":47,"used":true},{"PRN":12,"el":4,"az":29,"ss":39,"used":true},{"PRN":31,"el":88,"az":270,"ss":46,"used":true},{"PRN":16,"el":2,"az":184,"ss":-0,"used":false},{"PRN":23,"el":0,"az":286,"ss":-0,"used":false}]} 
21.008          GPSD_json            pGPSd           {"class":"SKY","device":"/dev/garmingps","xdop":0.57,"ydop":0.58,"vdop":1.12,"tdop":0.70,"hdop":0.82,"gdop":1.56,"pdop":1.39,"satellites":[{"PRN":10,"el":13,"az":151,"ss":25,"used":true},{"PRN":3,"el":28,"az":314,"ss":44,"used":true},{"PRN":26,"el":26,"az":170,"ss":43,"used":true},{"PRN":22,"el":47,"az":298,"ss":44,"used":true},{"PRN":32,"el":47,"az":85,"ss":35,"used":true},{"PRN":25,"el":33,"az":59,"ss":46,"used":true},{"PRN":1,"el":24,"az":266,"ss":30,"used":true},{"PRN":14,"el":71,"az":44,"ss":46,"used":true},{"PRN":12,"el":4,"az":29,"ss":39,"used":true},{"PRN":31,"el":88,"az":270,"ss":46,"used":true},{"PRN":16,"el":2,"az":184,"ss":-0,"used":false},{"PRN":23,"el":0,"az":286,"ss":-0,"used":false}]} 
22.009          GPSD_json            pGPSd           {"class":"SKY","device":"/dev/garmingps","xdop":0.57,"ydop":0.58,"vdop":1.12,"tdop":0.70,"hdop":0.82,"gdop":1.56,"pdop":1.39,"satellites":[{"PRN":10,"el":13,"az":151,"ss":24,"used":true},{"PRN":3,"el":28,"az":314,"ss":45,"used":true},{"PRN":26,"el":26,"az":170,"ss":42,"used":true},{"PRN":22,"el":47,"az":298,"ss":43,"used":true},{"PRN":32,"el":47,"az":85,"ss":35,"used":true},{"PRN":25,"el":33,"az":59,"ss":46,"used":true},{"PRN":1,"el":24,"az":266,"ss":31,"used":true},{"PRN":14,"el":71,"az":44,"ss":46,"used":true},{"PRN":12,"el":4,"az":29,"ss":39,"used":true},{"PRN":31,"el":88,"az":276,"ss":47,"used":true},{"PRN":16,"el":2,"az":184,"ss":-0,"used":false},{"PRN":23,"el":0,"az":286,"ss":-0,"used":false}]} 
23.012          GPSD_json            pGPSd           {"class":"SKY","device":"/dev/garmingps","xdop":0.57,"ydop":0.58,"vdop":1.12,"tdop":0.70,"hdop":0.82,"gdop":1.56,"pdop":1.39,"satellites":[{"PRN":10,"el":13,"az":151,"ss":24,"used":true},{"PRN":3,"el":28,"az":314,"ss":45,"used":true},{"PRN":26,"el":26,"az":170,"ss":42,"used":true},{"PRN":22,"el":47,"az":298,"ss":42,"used":true},{"PRN":32,"el":47,"az":85,"ss":35,"used":true},{"PRN":25,"el":33,"az":59,"ss":47,"used":true},{"PRN":1,"el":24,"az":266,"ss":31,"used":true},{"PRN":14,"el":71,"az":44,"ss":47,"used":true},{"PRN":12,"el":4,"az":29,"ss":39,"used":true},{"PRN":31,"el":88,"az":276,"ss":47,"used":true},{"PRN":16,"el":2,"az":184,"ss":-0,"used":false},{"PRN":23,"el":0,"az":286,"ss":-0,"used":false}]} 
24.014          GPSD_json            pGPSd           {"class":"SKY","device":"/dev/garmingps","xdop":0.57,"ydop":0.58,"vdop":1.12,"tdop":0.70,"hdop":0.82,"gdop":1.56,"pdop":1.39,"satellites":[{"PRN":10,"el":13,"az":151,"ss":24,"used":true},{"PRN":3,"el":28,"az":314,"ss":45,"used":true},{"PRN":26,"el":26,"az":170,"ss":41,"used":true},{"PRN":22,"el":47,"az":298,"ss":43,"used":true},{"PRN":32,"el":47,"az":86,"ss":36,"used":true},{"PRN":25,"el":33,"az":59,"ss":47,"used":true},{"PRN":1,"el":24,"az":266,"ss":31,"used":true},{"PRN":14,"el":71,"az":44,"ss":46,"used":true},{"PRN":12,"el":4,"az":29,"ss":39,"used":true},{"PRN":31,"el":88,"az":276,"ss":46,"used":true},{"PRN":16,"el":2,"az":184,"ss":-0,"used":false},{"PRN":23,"el":0,"az":286,"ss":-0,"used":false}]} 
25.016          GPSD_json            pGPSd           {"class":"SKY","device":"/dev/garmingps","xdop":0.57,"ydop":0.58,"vdop":1.12,"tdop":0.70,"hdop":0.82,"gdop":1.56,"pdop":1.39,"satellites":[{"PRN":10,"el":13,"az":151,"ss":24,"used":true},{"PRN":3,"el":28,"az":314,"ss":45,"used":true},{"PRN":26,"el":26,"az":170,"ss":42,"used":true},{"PRN":22,"el":47,"az":298,"ss":43,"used":true},{"PRN":32,"el":47,"az":86,"ss":35,"used":true},{"PRN":25,"el":33,"az":59,"ss":47,"used":true},{"PRN":1,"el":24,"az":266,"ss":31,"used":true},{"PRN":14,"el":71,"az":44,"ss":46,"used":true},{"PRN":12,"el":4,"az":29,"ss":39,"used":true},{"PRN":31,"el":88,"az":276,"ss":46,"used":true},{"PRN":16,"el":2,"az":184,"ss":-0,"used":false},{"PRN":23,"el":0,"az":286,"ss":-0,"used":false}]} 
26.018          GPSD_json            pGPSd           {"class":"SKY","device":"/dev/garmingps","xdop":0.57,"ydop":0.58,"vdop":1.12,"tdop":0.70,"hdop":0.82,"gdop":1.56,"pdop":1.39,"satellites":[{"PRN":10,"el":13,"az":151,"ss":24,"used":true},{"PRN":3,"el":28,"az":314,"ss":45,"used":true},{"PRN":26,"el":26,"az":170,"ss":42,"used":true},{"PRN":22,"el":47,"az":298,"ss":42,"used":true},{"PRN":32,"el":47,"az":86,"ss":33,"used":true},{"PRN":25,"el":33,"az":59,"ss":47,"used":true},{"PRN":1,"el":24,"az":266,"ss":32,"used":true},{"PRN":14,"el":71,"az":44,"ss":46,"used":true},{"PRN":12,"el":4,"az":29,"ss":40,"used":true},{"PRN":31,"el":88,"az":276,"ss":46,"used":true},{"PRN":16,"el":2,"az":184,"ss":-0,"used":false},{"PRN":23,"el":0,"az":286,"ss":-0,"used":false}]} 
27.021          GPSD_json            pGPSd           {"class":"SKY","device":"/dev/garmingps","xdop":0.57,"ydop":0.58,"vdop":1.12,"tdop":0.70,"hdop":0.82,"gdop":1.56,"pdop":1.39,"satellites":[{"PRN":10,"el":13,"az":151,"ss":23,"used":true},{"PRN":3,"el":28,"az":314,"ss":45,"used":true},{"PRN":26,"el":26,"az":170,"ss":42,"used":true},{"PRN":22,"el":47,"az":298,"ss":42,"used":true},{"PRN":32,"el":47,"az":86,"ss":34,"used":true},{"PRN":25,"el":33,"az":59,"ss":48,"used":true},{"PRN":1,"el":24,"az":266,"ss":32,"used":true},{"PRN":14,"el":71,"az":44,"ss":46,"used":true},{"PRN":12,"el":4,"az":29,"ss":39,"used":true},{"PRN":31,"el":88,"az":276,"ss":46,"used":true},{"PRN":16,"el":2,"az":184,"ss":-0,"used":false},{"PRN":23,"el":0,"az":286,"ss":-0,"used":false}]} 
28.022          GPSD_json            pGPSd           {"class":"SKY","device":"/dev/garmingps","xdop":0.57,"ydop":0.58,"vdop":1.12,"tdop":0.70,"hdop":0.82,"gdop":1.56,"pdop":1.39,"satellites":[{"PRN":10,"el":13,"az":151,"ss":22,"used":true},{"PRN":3,"el":28,"az":314,"ss":45,"used":true},{"PRN":26,"el":26,"az":170,"ss":43,"used":true},{"PRN":22,"el":47,"az":298,"ss":43,"used":true},{"PRN":32,"el":47,"az":86,"ss":34,"used":true},{"PRN":25,"el":33,"az":59,"ss":48,"used":true},{"PRN":1,"el":24,"az":266,"ss":31,"used":true},{"PRN":14,"el":71,"az":44,"ss":46,"used":true},{"PRN":12,"el":4,"az":29,"ss":39,"used":true},{"PRN":31,"el":88,"az":276,"ss":46,"used":true},{"PRN":16,"el":2,"az":184,"ss":-0,"used":false},{"PRN":23,"el":0,"az":286,"ss":-0,"used":false}]} 
29.025          GPSD_json            pGPSd           {"class":"SKY","device":"/dev/garmingps","xdop":0.57,"ydop":0.58,"vdop":1.12,"tdop":0.70,"hdop":0.82,"gdop":1.56,"pdop":1.39,"satellites":[{"PRN":10,"el":13,"az":151,"ss":22,"used":true},{"PRN":3,"el":28,"az":314,"ss":45,"used":true},{"PRN":26,"el":26,"az":170,"ss":42,"used":true},{"PRN":22,"el":47,"az":298,"ss":43,"used":true},{"PRN":32,"el":47,"az":86,"ss":37,"used":true},{"PRN":25,"el":33,"az":59,"ss":47,"used":true},{"PRN":1,"el":24,"az":266,"ss":31,"used":true},{"PRN":14,"el":71,"az":44,"ss":46,"used":true},{"PRN":12,"el":4,"az":29,"ss":39,"used":true},{"PRN":31,"el":88,"az":276,"ss":46,"used":true},{"PRN":16,"el":2,"az":184,"ss":-0,"used":false},{"PRN":23,"el":0,"az":286,"ss":-0,"used":false}]} 
30.027          GPSD_json            pGPSd           {"class":"SKY","device":"/dev/garmingps","xdop":0.57,"ydop":0.58,"vdop":1.12,"tdop":0.70,"hdop":0.82,"gdop":1.56,"pdop":1.39,"satellites":[{"PRN":10,"el":13,"az":151,"ss":22,"used":true},{"PRN":3,"el":28,"az":314,"ss":46,"used":true},{"PRN":26,"el":26,"az":170,"ss":42,"used":true},{"PRN":22,"el":47,"az":298,"ss":44,"used":true},{"PRN":32,"el":47,"az":86,"ss":35,"used":true},{"PRN":25,"el":33,"az":59,"ss":46,"used":true},{"PRN":1,"el":24,"az":266,"ss":30,"used":true},{"PRN":14,"el":71,"az":44,"ss":45,"used":true},{"PRN":12,"el":4,"az":29,"ss":40,"used":true},{"PRN":31,"el":88,"az":276,"ss":47,"used":true},{"PRN":16,"el":2,"az":184,"ss":-0,"used":false},{"PRN":23,"el":0,"az":286,"ss":-0,"used":false}]} 
31.029          GPSD_json            pGPSd           {"class":"SKY","device":"/dev/garmingps","xdop":0.57,"ydop":0.58,"vdop":1.12,"tdop":0.70,"hdop":0.82,"gdop":1.56,"pdop":1.39,"satellites":[{"PRN":10,"el":13,"az":151,"ss":22,"used":true},{"PRN":3,"el":28,"az":314,"ss":45,"used":true},{"PRN":26,"el":26,"az":170,"ss":43,"used":true},{"PRN":22,"el":47,"az":298,"ss":43,"used":true},{"PRN":32,"el":47,"az":86,"ss":35,"used":true},{"PRN":25,"el":33,"az":59,"ss":46,"used":true},{"PRN":1,"el":24,"az":266,"ss":31,"used":true},{"PRN":14,"el":71,"az":44,"ss":46,"used":true},{"PRN":12,"el":4,"az":29,"ss":40,"used":true},{"PRN":31,"el":88,"az":276,"ss":46,"used":true},{"PRN":16,"el":2,"az":184,"ss":-0,"used":false},{"PRN":23,"el":0,"az":286,"ss":-0,"used":false}]} 
32.030          GPSD_json            pGPSd           {"class":"SKY","device":"/dev/garmingps","xdop":0.57,"ydop":0.58,"vdop":1.12,"tdop":0.70,"hdop":0.82,"gdop":1.56,"pdop":1.39,"satellites":[{"PRN":10,"el":13,"az":151,"ss":22,"used":true},{"PRN":3,"el":28,"az":314,"ss":45,"used":true},{"PRN":26,"el":26,"az":170,"ss":43,"used":true},{"PRN":22,"el":47,"az":298,"ss":43,"used":true},{"PRN":32,"el":47,"az":86,"ss":35,"used":true},{"PRN":25,"el":33,"az":59,"ss":47,"used":true},{"PRN":1,"el":24,"az":266,"ss":30,"used":true},{"PRN":14,"el":71,"az":44,"ss":46,"used":true},{"PRN":12,"el":4,"az":29,"ss":40,"used":true},{"PRN":31,"el":88,"az":276,"ss":47,"used":true},{"PRN":16,"el":2,"az":184,"ss":-0,"used":false},{"PRN":23,"el":0,"az":286,"ss":-0,"used":false}]} 
33.033          GPSD_json            pGPSd           {"class":"SKY","device":"/dev/garmingps","xdop":0.57,"ydop":0.58,"vdop":1.12,"tdop":0.70,"hdop":0.82,"gdop":1.56,"pdop":1.39,"satellites":[{"PRN":10,"el":13,"az":151,"ss":22,"used":true},{"PRN":3,"el":28,"az":314,"ss":46,"used":true},{"PRN":26,"el":26,"az":170,"ss":42,"used":true},{"PRN":22,"el":47,"az":298,"ss":44,"used":true},{"PRN":32,"el":47,"az":86,"ss":36,"used":true},{"PRN":25,"el":33,"az":59,"ss":46,"used":true},{"PRN":1,"el":24,"az":266,"ss":31,"used":true},{"PRN":14,"el":71,"az":44,"ss":46,"used":true},{"PRN":12,"el":4,"az":29,"ss":40,"used":true},{"PRN":31,"el":88,"az":276,"ss":47,"used":true},{"PRN":16,"el":2,"az":184,"ss":-0,"used":false},{"PRN":23,"el":0,"az":286,"ss":-0,"used":false}]} 
34.035          GPSD_json            pGPSd           {"class":"SKY","device":"/dev/garmingps","xdop":0.57,"ydop":0.58,"vdop":1.12,"tdop":0.70,"hdop":0.82,"gdop":1.56,"pdop":1.39,"satellites":[{"PRN":10,"el":13,"az":151,"ss":22,"used":true},{"PRN":3,"el":28,"az":314,"ss":45,"used":true},{"PRN":26,"el":26,"az":170,"ss":42,"used":true},{"PRN":22,"el":47,"az":298,"ss":43,"used":true},{"PRN":32,"el":47,"az":86,"ss":37,"used":true},{"PRN":25,"el":33,"az":59,"ss":47,"used":true},{"PRN":1,"el":24,"az":266,"ss":31,"used":true},{"PRN":14,"el":71,"az":44,"ss":47,"used":true},{"PRN":12,"el":4,"az":29,"ss":39,"used":true},{"PRN":31,"el":88,"az":276,"ss":47,"used":true},{"PRN":16,"el":2,"az":184,"ss":-0,"used":false},{"PRN":23,"el":0,"az":286,"ss":-0,"used":false}]} 
35.037          GPSD_json            pGPSd           {"class":"SKY","device":"/dev/garmingps","xdop":0.57,"ydop":0.58,"vdop":1.12,"tdop":0.70,"hdop":0.82,"gdop":1.56,"pdop":1.39,"satellites":[{"PRN":10,"el":13,"az":151,"ss":22,"used":true},{"PRN":3,"el":28,"az":314,"ss":45,"used":true},{"PRN":26,"el":26,"az":170,"ss":42,"used":true},{"PRN":22,"el":47,"az":298,"ss":43,"used":true},{"PRN":32,"el":47,"az":86,"ss":35,"used":true},{"PRN":25,"el":33,"az":59,"ss":47,"used":true},{"PRN":1,"el":24,"az":266,"ss":31,"used":true},{"PRN":14,"el":71,"az":44,"ss":46,"used":true},{"PRN":12,"el":4,"az":29,"ss":39,"used":true},{"PRN":31,"el":88,"az":276,"ss":46,"used":true},{"PRN":16,"el":2,"az":184,"ss":-0,"used":false},{"PRN":23,"el":0,"az":286,"ss":-0,"used":false}]} 
36.039          GPSD_json            pGPSd           {"class":"SKY","device":"/dev/garmingps","xdop":0.57,"ydop":0.58,"vdop":1.12,"tdop":0.70,"hdop":0.82,"gdop":1.56,"pdop":1.39,"satellites":[{"PRN":10,"el":13,"az":151,"ss":23,"used":true},{"PRN":3,"el":28,"az":314,"ss":45,"used":true},{"PRN":26,"el":26,"az":170,"ss":42,"used":true},{"PRN":22,"el":47,"az":298,"ss":42,"used":true},{"PRN":32,"el":47,"az":86,"ss":37,"used":true},{"PRN":25,"el":33,"az":59,"ss":46,"used":true},{"PRN":1,"el":24,"az":266,"ss":31,"used":true},{"PRN":14,"el":71,"az":44,"ss":46,"used":true},{"PRN":12,"el":4,"az":29,"ss":39,"used":true},{"PRN":31,"el":88,"az":276,"ss":46,"used":true},{"PRN":16,"el":2,"az":184,"ss":-0,"used":false},{"PRN":23,"el":0,"az":286,"ss":-0,"used":false}]} 
37.042          GPSD_json            pGPSd           {"class":"SKY","device":"/dev/garmingps","xdop":0.57,"ydop":0.58,"vdop":1.12,"tdop":0.70,"hdop":0.82,"gdop":1.56,"pdop":1.39,"satellites":[{"PRN":10,"el":13,"az":151,"ss":23,"used":true},{"PRN":3,"el":28,"az":314,"ss":45,"used":true},{"PRN":26,"el":26,"az":170,"ss":42,"used":true},{"PRN":22,"el":47,"az":298,"ss":44,"used":true},{"PRN":32,"el":47,"az":86,"ss":37,"used":true},{"PRN":25,"el":33,"az":59,"ss":46,"used":true},{"PRN":1,"el":24,"az":266,"ss":31,"used":true},{"PRN":14,"el":71,"az":44,"ss":46,"used":true},{"PRN":12,"el":4,"az":29,"ss":39,"used":true},{"PRN":31,"el":88,"az":276,"ss":46,"used":true},{"PRN":16,"el":2,"az":184,"ss":-0,"used":false},{"PRN":23,"el":0,"az":286,"ss":-0,"used":false}]} 
38.044          GPSD_json            pGPSd           {"class":"SKY","device":"/dev/garmingps","xdop":0.57,"ydop":0.58,"vdop":1.12,"tdop":0.70,"hdop":0.82,"gdop":1.56,"pdop":1.39,"satellites":[{"PRN":10,"el":13,"az":151,"ss":24,"used":true},{"PRN":3,"el":28,"az":314,"ss":45,"used":true},{"PRN":26,"el":26,"az":170,"ss":42,"used":true},{"PRN":22,"el":47,"az":298,"ss":44,"used":true},{"PRN":32,"el":47,"az":86,"ss":37,"used":true},{"PRN":25,"el":33,"az":59,"ss":47,"used":true},{"PRN":1,"el":24,"az":266,"ss":32,"used":true},{"PRN":14,"el":71,"az":44,"ss":47,"used":true},{"PRN":12,"el":4,"az":29,"ss":39,"used":true},{"PRN":31,"el":88,"az":276,"ss":47,"used":true},{"PRN":16,"el":2,"az":184,"ss":-0,"used":false},{"PRN":23,"el":0,"az":286,"ss":-0,"used":false}]} 
39.047          GPSD_json            pGPSd           {"class":"SKY","device":"/dev/garmingps","xdop":0.57,"ydop":0.58,"vdop":1.12,"tdop":0.70,"hdop":0.82,"gdop":1.56,"pdop":1.39,"satellites":[{"PRN":10,"el":13,"az":151,"ss":24,"used":true},{"PRN":3,"el":28,"az":314,"ss":45,"used":true},{"PRN":26,"el":26,"az":170,"ss":42,"used":true},{"PRN":22,"el":47,"az":298,"ss":44,"used":true},{"PRN":32,"el":47,"az":86,"ss":37,"used":true},{"PRN":25,"el":33,"az":59,"ss":47,"used":true},{"PRN":1,"el":24,"az":266,"ss":32,"used":true},{"PRN":14,"el":71,"az":44,"ss":46,"used":true},{"PRN":12,"el":4,"az":29,"ss":39,"used":true},{"PRN":31,"el":88,"az":276,"ss":47,"used":true},{"PRN":16,"el":2,"az":184,"ss":-0,"used":false},{"PRN":23,"el":0,"az":286,"ss":-0,"used":false}]} 
40.050          GPSD_json            pGPSd           {"class":"SKY","device":"/dev/garmingps","xdop":0.57,"ydop":0.58,"vdop":1.12,"tdop":0.70,"hdop":0.82,"gdop":1.56,"pdop":1.39,"satellites":[{"PRN":10,"el":13,"az":151,"ss":24,"used":true},{"PRN":3,"el":28,"az":314,"ss":44,"used":true},{"PRN":26,"el":26,"az":170,"ss":42,"used":true},{"PRN":22,"el":47,"az":298,"ss":44,"used":true},{"PRN":32,"el":47,"az":86,"ss":38,"used":true},{"PRN":25,"el":33,"az":59,"ss":46,"used":true},{"PRN":1,"el":24,"az":266,"ss":31,"used":true},{"PRN":14,"el":71,"az":44,"ss":46,"used":true},{"PRN":12,"el":4,"az":29,"ss":39,"used":true},{"PRN":31,"el":88,"az":276,"ss":46,"used":true},{"PRN":16,"el":2,"az":184,"ss":-0,"used":false},{"PRN":23,"el":0,"az":286,"ss":-0,"used":false}]} 
41.052          GPSD_json            pGPSd           {"class":"SKY","device":"/dev/garmingps","xdop":0.57,"ydop":0.58,"vdop":1.12,"tdop":0.70,"hdop":0.82,"gdop":1.56,"pdop":1.39,"satellites":[{"PRN":10,"el":13,"az":151,"ss":24,"used":true},{"PRN":3,"el":28,"az":314,"ss":44,"used":true},{"PRN":26,"el":26,"az":170,"ss":42,"used":true},{"PRN":22,"el":47,"az":298,"ss":44,"used":true},{"PRN":32,"el":47,"az":86,"ss":39,"used":true},{"PRN":25,"el":33,"az":59,"ss":46,"used":true},{"PRN":1,"el":24,"az":266,"ss":32,"used":true},{"PRN":14,"el":71,"az":44,"ss":46,"used":true},{"PRN":12,"el":4,"az":29,"ss":39,"used":true},{"PRN":31,"el":88,"az":276,"ss":47,"used":true},{"PRN":16,"el":2,"az":184,"ss":-0,"used":false},{"PRN":23,"el":0,"az":286,"ss":-0,"used":false}]} 
42.054          GPSD_json            pGPSd           {"class":"SKY","device":"/dev/garmingps","xdop":0.57,"ydop":0.58,"vdop":1.12,"tdop":0.70,"hdop":0.82,"gdop":1.56,"pdop":1.39,"satellites":[{"PRN":10,"el":13,"az":151,"ss":24,"used":true},{"PRN":3,"el":28,"az":314,"ss":44,"used":true},{"PRN":26,"el":26,"az":170,"ss":42,"used":true},{"PRN":22,"el":47,"az":298,"ss":44,"used":true},{"PRN":32,"el":47,"az":86,"ss":39,"used":true},{"PRN":25,"el":33,"az":59,"ss":46,"used":true},{"PRN":1,"el":24,"az":266,"ss":31,"used":true},{"PRN":14,"el":71,"az":44,"ss":47,"used":true},{"PRN":12,"el":4,"az":29,"ss":39,"used":true},{"PRN":31,"el":88,"az":276,"ss":47,"used":true},{"PRN":16,"el":2,"az":184,"ss":-0,"used":false},{"PRN":23,"el":0,"az":286,"ss":-0,"used":false}]} 
43.056          GPSD_json            pGPSd           {"class":"SKY","device":"/dev/garmingps","xdop":0.57,"ydop":0.58,"vdop":1.12,"tdop":0.70,"hdop":0.82,"gdop":1.56,"pdop":1.39,"satellites":[{"PRN":10,"el":13,"az":151,"ss":24,"used":true},{"PRN":3,"el":28,"az":314,"ss":45,"used":true},{"PRN":26,"el":26,"az":170,"ss":42,"used":true},{"PRN":22,"el":47,"az":298,"ss":44,"used":true},{"PRN":32,"el":47,"az":86,"ss":39,"used":true},{"PRN":25,"el":33,"az":59,"ss":46,"used":true},{"PRN":1,"el":24,"az":266,"ss":31,"used":true},{"PRN":14,"el":71,"az":44,"ss":46,"used":true},{"PRN":12,"el":4,"az":29,"ss":39,"used":true},{"PRN":31,"el":88,"az":276,"ss":48,"used":true},{"PRN":16,"el":2,"az":184,"ss":-0,"used":false},{"PRN":23,"el":0,"az":286,"ss":-0,"used":false}]} 
44.058          GPSD_json            pGPSd           {"class":"SKY","device":"/dev/garmingps","xdop":0.57,"ydop":0.58,"vdop":1.12,"tdop":0.70,"hdop":0.82,"gdop":1.56,"pdop":1.39,"satellites":[{"PRN":10,"el":13,"az":151,"ss":24,"used":true},{"PRN":3,"el":28,"az":314,"ss":45,"used":true},{"PRN":26,"el":26,"az":170,"ss":42,"used":true},{"PRN":22,"el":47,"az":298,"ss":44,"used":true},{"PRN":32,"el":47,"az":86,"ss":40,"used":true},{"PRN":25,"el":33,"az":59,"ss":46,"used":true},{"PRN":1,"el":24,"az":266,"ss":29,"used":true},{"PRN":14,"el":71,"az":44,"ss":45,"used":true},{"PRN":12,"el":4,"az":29,"ss":40,"used":true},{"PRN":31,"el":88,"az":276,"ss":47,"used":true},{"PRN":16,"el":2,"az":184,"ss":-0,"used":false},{"PRN":23,"el":0,"az":286,"ss":-0,"used":false}]} 
45.060          GPSD_json            pGPSd           {"class":"SKY","device":"/dev/garmingps","xdop":0.57,"ydop":0.58,"vdop":1.12,"tdop":0.70,"hdop":0.82,"gdop":1.56,"pdop":1.39,"satellites":[{"PRN":10,"el":13,"az":151,"ss":25,"used":true},{"PRN":3,"el":28,"az":314,"ss":44,"used":true},{"PRN":26,"el":26,"az":170,"ss":42,"used":true},{"PRN":22,"el":47,"az":298,"ss":45,"used":true},{"PRN":32,"el":47,"az":86,"ss":39,"used":true},{"PRN":25,"el":33,"az":59,"ss":47,"used":true},{"PRN":1,"el":24,"az":266,"ss":24,"used":true},{"PRN":14,"el":71,"az":44,"ss":46,"used":true},{"PRN":12,"el":4,"az":29,"ss":40,"used":true},{"PRN":31,"el":88,"az":276,"ss":47,"used":true},{"PRN":16,"el":2,"az":184,"ss":-0,"used":false},{"PRN":23,"el":0,"az":286,"ss":-0,"used":false}]} 
46.062          GPSD_json            pGPSd           {"class":"SKY","device":"/dev/garmingps","xdop":0.57,"ydop":0.58,"vdop":1.12,"tdop":0.70,"hdop":0.82,"gdop":1.56,"pdop":1.39,"satellites":[{"PRN":10,"el":13,"az":151,"ss":26,"used":true},{"PRN":3,"el":28,"az":314,"ss":44,"used":true},{"PRN":26,"el":26,"az":170,"ss":42,"used":true},{"PRN":22,"el":47,"az":298,"ss":45,"used":true},{"PRN":32,"el":47,"az":86,"ss":39,"used":true},{"PRN":25,"el":33,"az":59,"ss":47,"used":true},{"PRN":1,"el":24,"az":266,"ss":23,"used":true},{"PRN":14,"el":71,"az":44,"ss":45,"used":true},{"PRN":12,"el":4,"az":29,"ss":40,"used":true},{"PRN":31,"el":88,"az":276,"ss":47,"used":true},{"PRN":16,"el":2,"az":184,"ss":-0,"used":false},{"PRN":23,"el":0,"az":286,"ss":-0,"used":false}]} 
47.064          GPSD_json            pGPSd           {"class":"SKY","device":"/dev/garmingps","xdop":0.57,"ydop":0.58,"vdop":1.12,"tdop":0.70,"hdop":0.82,"gdop":1.56,"pdop":1.39,"satellites":[{"PRN":10,"el":13,"az":151,"ss":25,"used":true},{"PRN":3,"el":28,"az":314,"ss":44,"used":true},{"PRN":26,"el":26,"az":170,"ss":42,"used":true},{"PRN":22,"el":47,"az":298,"ss":44,"used":true},{"PRN":32,"el":47,"az":86,"ss":39,"used":true},{"PRN":25,"el":33,"az":59,"ss":47,"used":true},{"PRN":1,"el":24,"az":266,"ss":23,"used":true},{"PRN":14,"el":71,"az":44,"ss":46,"used":true},{"PRN":12,"el":4,"az":29,"ss":40,"used":true},{"PRN":31,"el":88,"az":276,"ss":47,"used":true},{"PRN":16,"el":2,"az":184,"ss":-0,"used":false},{"PRN":23,"el":0,"az":286,"ss":-0,"used":false}]} 
48.066          GPSD_json            pGPSd           {"class":"SKY","device":"/dev/garmingps","xdop":0.57,"ydop":0.58,"vdop":1.12,"tdop":0.70,"hdop":0.82,"gdop":1.56,"pdop":1.39,"satellites":[{"PRN":10,"el":13,"az":151,"ss":25,"used":true},{"PRN":3,"el":28,"az":314,"ss":44,"used":true},{"PRN":26,"el":26,"az":170,"ss":42,"used":true},{"PRN":22,"el":47,"az":298,"ss":44,"used":true},{"PRN":32,"el":47,"az":86,"ss":36,"used":true},{"PRN":25,"el":33,"az":59,"ss":47,"used":true},{"PRN":1,"el":24,"az":266,"ss":23,"used":true},{"PRN":14,"el":71,"az":44,"ss":46,"used":true},{"PRN":12,"el":4,"az":29,"ss":40,"used":true},{"PRN":31,"el":88,"az":276,"ss":47,"used":true},{"PRN":16,"el":2,"az":184,"ss":-0,"used":false},{"PRN":23,"el":0,"az":286,"ss":-0,"used":false}]} 
49.069          GPSD_json            pGPSd           {"class":"SKY","device":"/dev/garmingps","xdop":0.57,"ydop":0.58,"vdop":1.12,"tdop":0.70,"hdop":0.82,"gdop":1.56,"pdop":1.39,"satellites":[{"PRN":10,"el":13,"az":151,"ss":25,"used":true},{"PRN":3,"el":28,"az":314,"ss":44,"used":true},{"PRN":26,"el":26,"az":170,"ss":42,"used":true},{"PRN":22,"el":47,"az":298,"ss":44,"used":true},{"PRN":32,"el":47,"az":86,"ss":37,"used":true},{"PRN":25,"el":33,"az":59,"ss":47,"used":true},{"PRN":1,"el":24,"az":266,"ss":23,"used":true},{"PRN":14,"el":71,"az":44,"ss":47,"used":true},{"PRN":12,"el":4,"az":29,"ss":39,"used":true},{"PRN":31,"el":88,"az":276,"ss":47,"used":true},{"PRN":16,"el":2,"az":184,"ss":-0,"used":false},{"PRN":23,"el":0,"az":286,"ss":-0,"used":false}]} 
50.072          GPSD_json            pGPSd           {"class":"SKY","device":"/dev/garmingps","xdop":0.57,"ydop":0.58,"vdop":1.12,"tdop":0.70,"hdop":0.82,"gdop":1.56,"pdop":1.39,"satellites":[{"PRN":10,"el":13,"az":151,"ss":25,"used":true},{"PRN":3,"el":28,"az":314,"ss":44,"used":true},{"PRN":26,"el":26,"az":170,"ss":42,"used":true},{"PRN":22,"el":47,"az":298,"ss":44,"used":true},{"PRN":32,"el":47,"az":86,"ss":37,"used":true},{"PRN":25,"el":33,"az":59,"ss":47,"used":true},{"PRN":1,"el":24,"az":266,"ss":23,"used":true},{"PRN":14,"el":71,"az":44,"ss":45,"used":true},{"PRN":12,"el":4,"az":29,"ss":39,"used":true},{"PRN":31,"el":88,"az":276,"ss":47,"used":true},{"PRN":16,"el":2,"az":184,"ss":-0,"used":false},{"PRN":23,"el":0,"az":286,"ss":-0,"used":false}]} 
51.074          GPSD_json            pGPSd           {"class":"SKY","device":"/dev/garmingps","xdop":0.57,"ydop":0.58,"vdop":1.12,"tdop":0.70,"hdop":0.82,"gdop":1.56,"pdop":1.39,"satellites":[{"PRN":10,"el":13,"az":151,"ss":26,"used":true},{"PRN":3,"el":28,"az":314,"ss":43,"used":true},{"PRN":26,"el":26,"az":170,"ss":42,"used":true},{"PRN":22,"el":47,"az":298,"ss":43,"used":true},{"PRN":32,"el":47,"az":86,"ss":36,"used":true},{"PRN":25,"el":33,"az":59,"ss":47,"used":true},{"PRN":1,"el":24,"az":266,"ss":23,"used":true},{"PRN":14,"el":71,"az":44,"ss":46,"used":true},{"PRN":12,"el":4,"az":29,"ss":39,"used":true},{"PRN":31,"el":88,"az":276,"ss":48,"used":true},{"PRN":16,"el":2,"az":184,"ss":-0,"used":false},{"PRN":23,"el":0,"az":286,"ss":-0,"used":false}]} 
52.075          GPSD_json            pGPSd           {"class":"SKY","device":"/dev/garmingps","xdop":0.57,"ydop":0.58,"vdop":1.12,"tdop":0.70,"hdop":0.82,"gdop":1.56,"pdop":1.39,"satellites":[{"PRN":10,"el":13,"az":151,"ss":26,"used":true},{"PRN":3,"el":28,"az":314,"ss":44,"used":true},{"PRN":26,"el":26,"az":170,"ss":42,"used":true},{"PRN":22,"el":47,"az":298,"ss":45,"used":true},{"PRN":32,"el":47,"az":86,"ss":37,"used":true},{"PRN":25,"el":33,"az":59,"ss":47,"used":true},{"PRN":1,"el":24,"az":266,"ss":24,"used":true},{"PRN":14,"el":71,"az":45,"ss":46,"used":true},{"PRN":12,"el":4,"az":29,"ss":40,"used":true},{"PRN":31,"el":88,"az":276,"ss":48,"used":true},{"PRN":16,"el":2,"az":184,"ss":-0,"used":false},{"PRN":23,"el":0,"az":286,"ss":-0,"used":false}]} 
53.077          GPSD_json            pGPSd           {"class":"SKY","device":"/dev/garmingps","xdop":0.57,"ydop":0.58,"vdop":1.12,"tdop":0.70,"hdop":0.82,"gdop":1.56,"pdop":1.39,"satellites":[{"PRN":10,"el":13,"az":151,"ss":26,"used":true},{"PRN":3,"el":28,"az":314,"ss":43,"used":true},{"PRN":26,"el":26,"az":170,"ss":42,"used":true},{"PRN":22,"el":47,"az":298,"ss":43,"used":true},{"PRN":32,"el":47,"az":86,"ss":38,"used":true},{"PRN":25,"el":33,"az":59,"ss":47,"used":true},{"PRN":1,"el":24,"az":266,"ss":23,"used":false},{"PRN":14,"el":71,"az":45,"ss":45,"used":true},{"PRN":12,"el":4,"az":29,"ss":39,"used":true},{"PRN":31,"el":88,"az":276,"ss":45,"used":true},{"PRN":16,"el":2,"az":184,"ss":-0,"used":false},{"PRN":23,"el":0,"az":286,"ss":-0,"used":false}]} 
54.080          GPSD_json            pGPSd           {"class":"SKY","device":"/dev/garmingps","xdop":0.57,"ydop":0.58,"vdop":1.12,"tdop":0.70,"hdop":0.82,"gdop":1.56,"pdop":1.39,"satellites":[{"PRN":10,"el":13,"az":151,"ss":26,"used":true},{"PRN":3,"el":28,"az":314,"ss":44,"used":true},{"PRN":26,"el":26,"az":170,"ss":42,"used":true},{"PRN":22,"el":47,"az":298,"ss":43,"used":true},{"PRN":32,"el":47,"az":86,"ss":35,"used":true},{"PRN":25,"el":33,"az":59,"ss":46,"used":true},{"PRN":1,"el":24,"az":266,"ss":24,"used":true},{"PRN":14,"el":71,"az":45,"ss":45,"used":true},{"PRN":12,"el":4,"az":29,"ss":39,"used":true},{"PRN":31,"el":88,"az":276,"ss":46,"used":true},{"PRN":16,"el":2,"az":184,"ss":-0,"used":false},{"PRN":23,"el":0,"az":286,"ss":-0,"used":false}]} 
55.082          GPSD_json            pGPSd           {"class":"SKY","device":"/dev/garmingps","xdop":0.57,"ydop":0.58,"vdop":1.12,"tdop":0.70,"hdop":0.82,"gdop":1.56,"pdop":1.39,"satellites":[{"PRN":10,"el":13,"az":151,"ss":25,"used":true},{"PRN":3,"el":28,"az":314,"ss":43,"used":true},{"PRN":26,"el":26,"az":170,"ss":42,"used":true},{"PRN":22,"el":47,"az":298,"ss":43,"used":true},{"PRN":32,"el":47,"az":86,"ss":39,"used":true},{"PRN":25,"el":33,"az":59,"ss":46,"used":true},{"PRN":1,"el":24,"az":266,"ss":24,"used":true},{"PRN":14,"el":71,"az":45,"ss":45,"used":true},{"PRN":12,"el":4,"az":29,"ss":39,"used":true},{"PRN":31,"el":88,"az":276,"ss":46,"used":true},{"PRN":16,"el":2,"az":184,"ss":-0,"used":false},{"PRN":23,"el":0,"az":286,"ss":-0,"used":false}]} 
56.083          GPSD_json            pGPSd           {"class":"SKY","device":"/dev/garmingps","xdop":0.57,"ydop":0.58,"vdop":1.12,"tdop":0.70,"hdop":0.82,"gdop":1.56,"pdop":1.39,"satellites":[{"PRN":10,"el":13,"az":151,"ss":26,"used":true},{"PRN":3,"el":28,"az":314,"ss":43,"used":true},{"PRN":26,"el":26,"az":170,"ss":42,"used":true},{"PRN":22,"el":47,"az":298,"ss":44,"used":true},{"PRN":32,"el":47,"az":86,"ss":36,"used":true},{"PRN":25,"el":33,"az":59,"ss":46,"used":true},{"PRN":1,"el":24,"az":266,"ss":24,"used":true},{"PRN":14,"el":71,"az":45,"ss":44,"used":true},{"PRN":12,"el":4,"az":29,"ss":39,"used":true},{"PRN":31,"el":88,"az":276,"ss":47,"used":true},{"PRN":16,"el":2,"az":184,"ss":-0,"used":false},{"PRN":23,"el":0,"az":286,"ss":-0,"used":false}]} 
57.085          GPSD_json            pGPSd           {"class":"SKY","device":"/dev/garmingps","xdop":0.57,"ydop":0.58,"vdop":1.12,"tdop":0.70,"hdop":0.82,"gdop":1.56,"pdop":1.39,"satellites":[{"PRN":10,"el":13,"az":151,"ss":26,"used":true},{"PRN":3,"el":28,"az":314,"ss":43,"used":true},{"PRN":26,"el":26,"az":170,"ss":42,"used":true},{"PRN":22,"el":47,"az":298,"ss":44,"used":true},{"PRN":32,"el":47,"az":86,"ss":37,"used":true},{"PRN":25,"el":33,"az":59,"ss":45,"used":true},{"PRN":1,"el":24,"az":266,"ss":25,"used":true},{"PRN":14,"el":71,"az":45,"ss":45,"used":true},{"PRN":12,"el":4,"az":29,"ss":40,"used":true},{"PRN":31,"el":88,"az":276,"ss":47,"used":true},{"PRN":16,"el":2,"az":184,"ss":-0,"used":false},{"PRN":23,"el":0,"az":286,"ss":-0,"used":false}]} 
58.088          GPSD_json            pGPSd           {"class":"SKY","device":"/dev/garmingps","xdop":0.57,"ydop":0.58,"vdop":1.12,"tdop":0.70,"hdop":0.82,"gdop":1.56,"pdop":1.39,"satellites":[{"PRN":10,"el":13,"az":151,"ss":28,"used":true},{"PRN":3,"el":28,"az":314,"ss":43,"used":true},{"PRN":26,"el":26,"az":170,"ss":42,"used":true},{"PRN":22,"el":47,"az":298,"ss":45,"used":true},{"PRN":32,"el":47,"az":86,"ss":36,"used":true},{"PRN":25,"el":33,"az":59,"ss":45,"used":true},{"PRN":1,"el":24,"az":266,"ss":26,"used":true},{"PRN":14,"el":71,"az":45,"ss":45,"used":true},{"PRN":12,"el":4,"az":29,"ss":40,"used":true},{"PRN":31,"el":88,"az":276,"ss":47,"used":true},{"PRN":16,"el":2,"az":184,"ss":-0,"used":false},{"PRN":23,"el":0,"az":286,"ss":-0,"used":false}]} 
59.091          GPSD_json            pGPSd           {"class":"SKY","device":"/dev/garmingps","xdop":0.57,"ydop":0.58,"vdop":1.12,"tdop":0.70,"hdop":0.82,"gdop":1.56,"pdop":1.39,"satellites":[{"PRN":10,"el":13,"az":151,"ss":28,"used":true},{"PRN":3,"el":28,"az":314,"ss":42,"used":true},{"PRN":26,"el":26,"az":170,"ss":42,"used":true},{"PRN":22,"el":47,"az":298,"ss":45,"used":true},{"PRN":32,"el":47,"az":86,"ss":36,"used":true},{"PRN":25,"el":33,"az":59,"ss":46,"used":true},{"PRN":1,"el":24,"az":266,"ss":26,"used":true},{"PRN":14,"el":71,"az":45,"ss":46,"used":true},{"PRN":12,"el":4,"az":29,"ss":39,"used":true},{"PRN":31,"el":88,"az":276,"ss":47,"used":true},{"PRN":16,"el":2,"az":184,"ss":-0,"used":false},{"PRN":23,"el":0,"az":286,"ss":-0,"used":false}]} 
60.094          GPSD_json            pGPSd           {"class":"SKY","device":"/dev/garmingps","xdop":0.57,"ydop":0.58,"vdop":1.12,"tdop":0.70,"hdop":0.82,"gdop":1.56,"pdop":1.39,"satellites":[{"PRN":10,"el":13,"az":151,"ss":27,"used":true},{"PRN":3,"el":28,"az":314,"ss":42,"used":true},{"PRN":26,"el":26,"az":170,"ss":42,"used":true},{"PRN":22,"el":47,"az":298,"ss":45,"used":true},{"PRN":32,"el":47,"az":86,"ss":37,"used":true},{"PRN":25,"el":33,"az":59,"ss":46,"used":true},{"PRN":1,"el":24,"az":266,"ss":26,"used":true},{"PRN":14,"el":71,"az":45,"ss":45,"used":true},{"PRN":12,"el":4,"az":29,"ss":40,"used":true},{"PRN":31,"el":88,"az":276,"ss":46,"used":true},{"PRN":16,"el":2,"az":184,"ss":-0,"used":false},{"PRN":23,"el":0,"az":286,"ss":-0,"used":false}]} 
61.097          GPSD_json            pGPSd           {"class":"SKY","device":"/dev/garmingps","xdop":0.57,"ydop":0.58,"vdop":1.12,"tdop":0.70,"hdop":0.82,"gdop":1.56,"pdop":1.39,"satellites":[{"PRN":10,"el":13,"az":151,"ss":27,"used":true},{"PRN":3,"el":28,"az":314,"ss":43,"used":true},{"PRN":26,"el":26,"az":170,"ss":42,"used":true},{"PRN":22,"el":47,"az":298,"ss":45,"used":true},{"PRN":32,"el":47,"az":86,"ss":37,"used":true},{"PRN":25,"el":33,"az":59,"ss":46,"used":true},{"PRN":1,"el":24,"az":266,"ss":24,"used":true},{"PRN":14,"el":71,"az":45,"ss":45,"used":true},{"PRN":12,"el":4,"az":29,"ss":39,"used":true},{"PRN":31,"el":88,"az":276,"ss":46,"used":true},{"PRN":16,"el":2,"az":184,"ss":-0,"used":false},{"PRN":23,"el":0,"az":286,"ss":-0,"used":false}]} 
62.100          GPSD_json            pGPSd           {"class":"SKY","device":"/dev/garmingps","xdop":0.57,"ydop":0.58,"vdop":1.12,"tdop":0.70,"hdop":0.82,"gdop":1.56,"pdop":1.39,"satellites":[{"PRN":10,"el":13,"az":151,"ss":27,"used":true},{"PRN":3,"el":28,"az":314,"ss":43,"used":true},{"PRN":26,"el":26,"az":170,"ss":41,"used":true},{"PRN":22,"el":47,"az":298,"ss":45,"used":true},{"PRN":32,"el":47,"az":86,"ss":37,"used":true},{"PRN":25,"el":33,"az":59,"ss":47,"used":true},{"PRN":1,"el":24,"az":266,"ss":24,"used":true},{"PRN":14,"el":71,"az":45,"ss":45,"used":true},{"PRN":12,"el":4,"az":29,"ss":39,"used":true},{"PRN":31,"el":88,"az":276,"ss":46,"used":true},{"PRN":16,"el":2,"az":184,"ss":-0,"used":false},{"PRN":23,"el":0,"az":286,"ss":-0,"used":false}]} 
63.103          GPSD_json            pGPSd           {"class":"SKY","device":"/dev/garmingps","xdop":0.57,"ydop":0.58,"vdop":1.12,"tdop":0.70,"hdop":0.82,"gdop":1.56,"pdop":1.39,"satellites":[{"PRN":10,"el":13,"az":151,"ss":27,"used":true},{"PRN":3,"el":28,"az":314,"ss":43,"used":true},{"PRN":26,"el":26,"az":170,"ss":41,"used":true},{"PRN":22,"el":47,"az":298,"ss":44,"used":true},{"PRN":32,"el":47,"az":86,"ss":36,"used":true},{"PRN":25,"el":33,"az":59,"ss":47,"used":true},{"PRN":1,"el":24,"az":266,"ss":24,"used":true},{"PRN":14,"el":71,"az":45,"ss":45,"used":true},{"PRN":12,"el":4,"az":29,"ss":39,"used":true},{"PRN":31,"el":88,"az":276,"ss":46,"used":true},{"PRN":16,"el":2,"az":184,"ss":-0,"used":false},{"PRN":23,"el":0,"az":286,"ss":-0,"used":false}]} 
64.105          GPSD_json            pGPSd           {"class":"SKY","device":"/dev/garmingps","xdop":0.57,"ydop":0.58,"vdop":1.12,"tdop":0.70,"hdop":0.82,"gdop":1.56,"pdop":1.39,"satellites":[{"PRN":10,"el":13,"az":151,"ss":25,"used":true},{"PRN":3,"el":28,"az":314,"ss":43,"used":true},{"PRN":26,"el":26,"az":170,"ss":41,"used":true},{"PRN":22,"el":47,"az":298,"ss":45,"used":true},{"PRN":32,"el":47,"az":86,"ss":36,"used":true},{"PRN":25,"el":33,"az":59,"ss":46,"used":true},{"PRN":1,"el":24,"az":266,"ss":24,"used":true},{"PRN":14,"el":71,"az":45,"ss":45,"used":true},{"PRN":12,"el":4,"az":29,"ss":40,"used":true},{"PRN":31,"el":88,"az":276,"ss":45,"used":true},{"PRN":16,"el":2,"az":184,"ss":-0,"used":false},{"PRN":23,"el":0,"az":286,"ss":-0,"used":false}]} 
65.107          GPSD_json            pGPSd           {"class":"SKY","device":"/dev/garmingps","xdop":0.57,"ydop":0.58,"vdop":1.12,"tdop":0.70,"hdop":0.82,"gdop":1.56,"pdop":1.39,"satellites":[{"PRN":10,"el":13,"az":151,"ss":26,"used":true},{"PRN":3,"el":28,"az":314,"ss":44,"used":true},{"PRN":26,"el":26,"az":170,"ss":41,"used":true},{"PRN":22,"el":47,"az":298,"ss":44,"used":true},{"PRN":32,"el":47,"az":86,"ss":39,"used":true},{"PRN":25,"el":33,"az":59,"ss":46,"used":true},{"PRN":1,"el":24,"az":266,"ss":27,"used":true},{"PRN":14,"el":71,"az":45,"ss":45,"used":true},{"PRN":12,"el":4,"az":29,"ss":40,"used":true},{"PRN":31,"el":88,"az":276,"ss":44,"used":true},{"PRN":16,"el":2,"az":184,"ss":-0,"used":false},{"PRN":23,"el":0,"az":286,"ss":-0,"used":false}]} 
66.109          GPSD_json            pGPSd           {"class":"SKY","device":"/dev/garmingps","xdop":0.57,"ydop":0.58,"vdop":1.12,"tdop":0.70,"hdop":0.82,"gdop":1.56,"pdop":1.39,"satellites":[{"PRN":10,"el":13,"az":151,"ss":27,"used":true},{"PRN":3,"el":28,"az":314,"ss":44,"used":true},{"PRN":26,"el":26,"az":170,"ss":41,"used":true},{"PRN":22,"el":47,"az":298,"ss":45,"used":true},{"PRN":32,"el":47,"az":86,"ss":38,"used":true},{"PRN":25,"el":33,"az":59,"ss":45,"used":true},{"PRN":1,"el":24,"az":266,"ss":28,"used":true},{"PRN":14,"el":71,"az":45,"ss":45,"used":true},{"PRN":12,"el":4,"az":29,"ss":40,"used":true},{"PRN":31,"el":88,"az":276,"ss":45,"used":true},{"PRN":16,"el":2,"az":184,"ss":-0,"used":false},{"PRN":23,"el":0,"az":286,"ss":-0,"used":false}]} 
67.111          GPSD_json            pGPSd           {"class":"SKY","device":"/dev/garmingps","xdop":0.57,"ydop":0.58,"vdop":1.12,"tdop":0.70,"hdop":0.82,"gdop":1.56,"pdop":1.39,"satellites":[{"PRN":10,"el":13,"az":151,"ss":27,"used":true},{"PRN":3,"el":28,"az":314,"ss":44,"used":true},{"PRN":26,"el":26,"az":170,"ss":41,"used":true},{"PRN":22,"el":47,"az":298,"ss":45,"used":true},{"PRN":32,"el":47,"az":86,"ss":39,"used":true},{"PRN":25,"el":33,"az":59,"ss":45,"used":true},{"PRN":1,"el":24,"az":266,"ss":26,"used":true},{"PRN":14,"el":71,"az":45,"ss":45,"used":true},{"PRN":12,"el":4,"az":29,"ss":40,"used":true},{"PRN":31,"el":88,"az":276,"ss":45,"used":true},{"PRN":16,"el":2,"az":184,"ss":-0,"used":false},{"PRN":23,"el":0,"az":286,"ss":-0,"used":false}]} 
68.113          GPSD_json            pGPSd           {"class":"SKY","device":"/dev/garmingps","xdop":0.57,"ydop":0.58,"vdop":1.12,"tdop":0.70,"hdop":0.82,"gdop":1.56,"pdop":1.39,"satellites":[{"PRN":10,"el":13,"az":151,"ss":27,"used":true},{"PRN":3,"el":28,"az":314,"ss":44,"used":true},{"PRN":26,"el":26,"az":170,"ss":42,"used":true},{"PRN":22,"el":47,"az":298,"ss":45,"used":true},{"PRN":32,"el":47,"az":86,"ss":38,"used":true},{"PRN":25,"el":33,"az":59,"ss":46,"used":true},{"PRN":1,"el":24,"az":266,"ss":26,"used":true},{"PRN":14,"el":71,"az":45,"ss":46,"used":true},{"PRN":12,"el":4,"az":29,"ss":40,"used":true},{"PRN":31,"el":88,"az":276,"ss":45,"used":true},{"PRN":16,"el":2,"az":184,"ss":-0,"used":false},{"PRN":23,"el":0,"az":286,"ss":-0,"used":false}]} 
69.115          GPSD_json            pGPSd           {"class":"SKY","device":"/dev/garmingps","xdop":0.57,"ydop":0.58,"vdop":1.12,"tdop":0.70,"hdop":0.82,"gdop":1.56,"pdop":1.39,"satellites":[{"PRN":10,"el":13,"az":151,"ss":27,"used":true},{"PRN":3,"el":28,"az":314,"ss":44,"used":true},{"PRN":26,"el":26,"az":170,"ss":42,"used":true},{"PRN":22,"el":47,"az":298,"ss":44,"used":true},{"PRN":32,"el":47,"az":86,"ss":39,"used":true},{"PRN":25,"el":33,"az":59,"ss":46,"used":true},{"PRN":1,"el":24,"az":266,"ss":26,"used":true},{"PRN":14,"el":71,"az":45,"ss":46,"used":true},{"PRN":12,"el":4,"az":29,"ss":40,"used":true},{"PRN":31,"el":88,"az":276,"ss":45,"used":true},{"PRN":16,"el":2,"az":184,"ss":-0,"used":false},{"PRN":23,"el":0,"az":286,"ss":-0,"used":false}]} 
70.117          GPSD_json            pGPSd           {"class":"SKY","device":"/dev/garmingps","xdop":0.57,"ydop":0.58,"vdop":1.12,"tdop":0.70,"hdop":0.82,"gdop":1.56,"pdop":1.39,"satellites":[{"PRN":10,"el":13,"az":151,"ss":26,"used":true},{"PRN":3,"el":28,"az":314,"ss":44,"used":true},{"PRN":26,"el":26,"az":170,"ss":42,"used":true},{"PRN":22,"el":47,"az":298,"ss":45,"used":true},{"PRN":32,"el":47,"az":86,"ss":39,"used":true},{"PRN":25,"el":33,"az":59,"ss":46,"used":true},{"PRN":1,"el":24,"az":266,"ss":26,"used":true},{"PRN":14,"el":71,"az":45,"ss":46,"used":true},{"PRN":12,"el":4,"az":29,"ss":41,"used":true},{"PRN":31,"el":88,"az":276,"ss":46,"used":true},{"PRN":16,"el":2,"az":184,"ss":-0,"used":false},{"PRN":23,"el":0,"az":286,"ss":-0,"used":false}]} 
71.120          GPSD_json            pGPSd           {"class":"SKY","device":"/dev/garmingps","xdop":0.57,"ydop":0.58,"vdop":1.12,"tdop":0.70,"hdop":0.82,"gdop":1.56,"pdop":1.39,"satellites":[{"PRN":10,"el":13,"az":151,"ss":27,"used":true},{"PRN":3,"el":28,"az":314,"ss":44,"used":true},{"PRN":26,"el":26,"az":170,"ss":42,"used":true},{"PRN":22,"el":47,"az":298,"ss":45,"used":true},{"PRN":32,"el":47,"az":86,"ss":39,"used":true},{"PRN":25,"el":33,"az":59,"ss":45,"used":true},{"PRN":1,"el":24,"az":266,"ss":25,"used":true},{"PRN":14,"el":71,"az":45,"ss":46,"used":true},{"PRN":12,"el":4,"az":29,"ss":40,"used":true},{"PRN":31,"el":88,"az":276,"ss":45,"used":true},{"PRN":16,"el":2,"az":184,"ss":-0,"used":false},{"PRN":23,"el":0,"az":286,"ss":-0,"used":false}]} 
72.122          GPSD_json            pGPSd           {"class":"SKY","device":"/dev/garmingps","xdop":0.57,"ydop":0.58,"vdop":1.12,"tdop":0.70,"hdop":0.82,"gdop":1.56,"pdop":1.39,"satellites":[{"PRN":10,"el":13,"az":151,"ss":26,"used":true},{"PRN":3,"el":28,"az":314,"ss":44,"used":true},{"PRN":26,"el":26,"az":170,"ss":42,"used":true},{"PRN":22,"el":47,"az":298,"ss":45,"used":true},{"PRN":32,"el":47,"az":86,"ss":39,"used":true},{"PRN":25,"el":33,"az":59,"ss":44,"used":true},{"PRN":1,"el":24,"az":266,"ss":25,"used":true},{"PRN":14,"el":71,"az":45,"ss":45,"used":true},{"PRN":12,"el":4,"az":29,"ss":40,"used":true},{"PRN":31,"el":88,"az":276,"ss":45,"used":true},{"PRN":16,"el":2,"az":184,"ss":-0,"used":false},{"PRN":23,"el":0,"az":286,"ss":-0,"used":false}]} 
73.124          GPSD_json            pGPSd           {"class":"SKY","device":"/dev/garmingps","xdop":0.57,"ydop":0.58,"vdop":1.12,"tdop":0.70,"hdop":0.82,"gdop":1.56,"pdop":1.39,"satellites":[{"PRN":10,"el":13,"az":151,"ss":26,"used":true},{"PRN":3,"el":28,"az":314,"ss":43,"used":true},{"PRN":26,"el":26,"az":170,"ss":42,"used":true},{"PRN":22,"el":47,"az":298,"ss":45,"used":true},{"PRN":32,"el":47,"az":86,"ss":39,"used":true},{"PRN":25,"el":33,"az":59,"ss":44,"used":true},{"PRN":1,"el":24,"az":266,"ss":25,"used":true},{"PRN":14,"el":71,"az":45,"ss":45,"used":true},{"PRN":12,"el":4,"az":29,"ss":40,"used":true},{"PRN":31,"el":88,"az":276,"ss":46,"used":true},{"PRN":16,"el":2,"az":184,"ss":-0,"used":false},{"PRN":23,"el":0,"az":286,"ss":-0,"used":false}]} 
74.127          GPSD_json            pGPSd           {"class":"SKY","device":"/dev/garmingps","xdop":0.57,"ydop":0.58,"vdop":1.12,"tdop":0.70,"hdop":0.82,"gdop":1.56,"pdop":1.39,"satellites":[{"PRN":10,"el":13,"az":151,"ss":26,"used":true},{"PRN":3,"el":28,"az":314,"ss":43,"used":true},{"PRN":26,"el":26,"az":170,"ss":42,"used":true},{"PRN":22,"el":47,"az":298,"ss":45,"used":true},{"PRN":32,"el":47,"az":86,"ss":40,"used":true},{"PRN":25,"el":33,"az":58,"ss":45,"used":true},{"PRN":1,"el":24,"az":266,"ss":24,"used":true},{"PRN":14,"el":71,"az":45,"ss":46,"used":true},{"PRN":12,"el":4,"az":29,"ss":40,"used":true},{"PRN":31,"el":88,"az":276,"ss":45,"used":true},{"PRN":16,"el":2,"az":184,"ss":-0,"used":false},{"PRN":23,"el":0,"az":286,"ss":-0,"used":false}]} 
75.129          GPSD_json            pGPSd           {"class":"SKY","device":"/dev/garmingps","xdop":0.57,"ydop":0.58,"vdop":1.12,"tdop":0.70,"hdop":0.82,"gdop":1.56,"pdop":1.39,"satellites":[{"PRN":10,"el":13,"az":151,"ss":23,"used":true},{"PRN":3,"el":28,"az":314,"ss":43,"used":true},{"PRN":26,"el":26,"az":170,"ss":42,"used":true},{"PRN":22,"el":47,"az":298,"ss":44,"used":true},{"PRN":32,"el":47,"az":86,"ss":39,"used":true},{"PRN":25,"el":33,"az":58,"ss":45,"used":true},{"PRN":1,"el":24,"az":266,"ss":23,"used":true},{"PRN":14,"el":71,"az":45,"ss":46,"used":true},{"PRN":12,"el":4,"az":29,"ss":40,"used":true},{"PRN":31,"el":88,"az":276,"ss":46,"used":true},{"PRN":16,"el":2,"az":184,"ss":-0,"used":false},{"PRN":23,"el":0,"az":286,"ss":-0,"used":false}]} 
76.132          GPSD_json            pGPSd           {"class":"SKY","device":"/dev/garmingps","xdop":0.57,"ydop":0.58,"vdop":1.12,"tdop":0.70,"hdop":0.82,"gdop":1.56,"pdop":1.39,"satellites":[{"PRN":10,"el":13,"az":151,"ss":22,"used":true},{"PRN":3,"el":28,"az":314,"ss":43,"used":true},{"PRN":26,"el":26,"az":170,"ss":42,"used":true},{"PRN":22,"el":47,"az":298,"ss":45,"used":true},{"PRN":32,"el":47,"az":86,"ss":40,"used":true},{"PRN":25,"el":33,"az":58,"ss":45,"used":true},{"PRN":14,"el":71,"az":45,"ss":47,"used":true},{"PRN":12,"el":4,"az":29,"ss":41,"used":true},{"PRN":31,"el":88,"az":276,"ss":46,"used":true},{"PRN":1,"el":24,"az":266,"ss":-0,"used":false},{"PRN":16,"el":2,"az":184,"ss":-0,"used":false},{"PRN":23,"el":0,"az":286,"ss":-0,"used":false}]} 
