1.460           GPSD_json            pGPSd           {"class":"SKY","device":"/dev/garmingps","xdop":0.56,"ydop":0.76,"vdop":1.29,"tdop":0.79,"hdop":0.95,"gdop":1.78,"pdop":1.60,"satellites":[{"PRN":20,"el":18,"az":140,"ss":39,"used":true},{"PRN":10,"el":49,"az":136,"ss":42,"used":true},{"PRN":24,"el":4,"az":46,"ss":34,"used":false},{"PRN":22,"el":17,"az":311,"ss":42,"used":true},{"PRN":32,"el":72,"az":27,"ss":53,"used":true},{"PRN":25,"el":31,"az":102,"ss":37,"used":true},{"PRN":1,"el":27,"az":305,"ss":43,"used":true},{"PRN":14,"el":65,"az":298,"ss":45,"used":true},{"PRN":12,"el":21,"az":56,"ss":45,"used":true},{"PRN":11,"el":14,"az":292,"ss":39,"used":true},{"PRN":31,"el":48,"az":207,"ss":47,"used":true}]} 
2.463           GPSD_json            pGPSd           {"class":"SKY","device":"/dev/garmingps","xdop":0.56,"ydop":0.76,"vdop":1.29,"tdop":0.79,"hdop":0.95,"gdop":1.78,"pdop":1.60,"satellites":[{"PRN":20,"el":18,"az":140,"ss":38,"used":true},{"PRN":10,"el":49,"az":136,"ss":43,"used":true},{"PRN":24,"el":4,"az":46,"ss":34,"used":false},{"PRN":22,"el":17,"az":311,"ss":43,"used":true},{"PRN":32,"el":72,"az":27,"ss":52,"used":true},{"PRN":25,"el":31,"az":102,"ss":37,"used":true},{"PRN":1,"el":27,"az":305,"ss":44,"used":true},{"PRN":14,"el":65,"az":298,"ss":44,"used":true},{"PRN":12,"el":21,"az":56,"ss":46,"used":true},{"PRN":11,"el":14,"az":292,"ss":36,"used":true},{"PRN":31,"el":48,"az":207,"ss":49,"used":true}]} 
2.463           GPSD_json            pGPSd           {"class":"SKY","device":"/dev/garmingps","xdop":0.56,"ydop":0.76,"vdop":1.29,"tdop":0.79,"hdop":0.95,"gdop":1.78,"pdop":1.60,"satellites":[{"PRN":20,"el":18,"az":140,"ss":38,"used":true},{"PRN":10,"el":49,"az":136,"ss":43,"used":true},{"PRN":24,"el":4,"az":46,"ss":34,"used":false},{"PRN":22,"el":17,"az":311,"ss":43,"used":true},{"PRN":32,"el":72,"az":27,"ss":52,"used":true},{"PRN":25,"el":31,"az":102,"ss":37,"used":true},{"PRN":1,"el":27,"az":305,"ss":44,"used":true},{"PRN":14,"el":65,"az":298,"ss":44,"used":true},{"PRN":12,"el":21,"az":56,"ss":46,"used":true},{"PRN":11,"el":14,"az":292,"ss":36,"used":true},{"PRN":31,"el":48,"az":207,"ss":49,"used":true}]} 
3.471           GPSD_json            pGPSd           {"class":"SKY","device":"/dev/garmingps","xdop":0.56,"ydop":0.76,"vdop":1.29,"tdop":0.79,"hdop":0.95,"gdop":1.78,"pdop":1.60,"satellites":[{"PRN":20,"el":18,"az":140,"ss":37,"used":true},{"PRN":10,"el":49,"az":136,"ss":45,"used":true},{"PRN":24,"el":4,"az":46,"ss":30,"used":false},{"PRN":22,"el":17,"az":311,"ss":43,"used":true},{"PRN":32,"el":72,"az":27,"ss":52,"used":true},{"PRN":25,"el":31,"az":102,"ss":38,"used":true},{"PRN":1,"el":27,"az":305,"ss":41,"used":true},{"PRN":14,"el":65,"az":298,"ss":44,"used":true},{"PRN":12,"el":21,"az":56,"ss":46,"used":true},{"PRN":11,"el":14,"az":292,"ss":40,"used":true},{"PRN":31,"el":48,"az":207,"ss":50,"used":true}]} 
3.471           GPSD_json            pGPSd           {"class":"SKY","device":"/dev/garmingps","xdop":0.56,"ydop":0.76,"vdop":1.29,"tdop":0.79,"hdop":0.95,"gdop":1.78,"pdop":1.60,"satellites":[{"PRN":20,"el":18,"az":140,"ss":37,"used":true},{"PRN":10,"el":49,"az":136,"ss":45,"used":true},{"PRN":24,"el":4,"az":46,"ss":30,"used":false},{"PRN":22,"el":17,"az":311,"ss":43,"used":true},{"PRN":32,"el":72,"az":27,"ss":52,"used":true},{"PRN":25,"el":31,"az":102,"ss":38,"used":true},{"PRN":1,"el":27,"az":305,"ss":41,"used":true},{"PRN":14,"el":65,"az":298,"ss":44,"used":true},{"PRN":12,"el":21,"az":56,"ss":46,"used":true},{"PRN":11,"el":14,"az":292,"ss":40,"used":true},{"PRN":31,"el":48,"az":207,"ss":50,"used":true}]} 
4.469           GPSD_json            pGPSd           {"class":"SKY","device":"/dev/garmingps","xdop":0.56,"ydop":0.76,"vdop":1.29,"tdop":0.79,"hdop":0.95,"gdop":1.78,"pdop":1.60,"satellites":[{"PRN":20,"el":18,"az":140,"ss":39,"used":true},{"PRN":10,"el":49,"az":136,"ss":44,"used":true},{"PRN":24,"el":4,"az":46,"ss":27,"used":false},{"PRN":22,"el":17,"az":311,"ss":41,"used":true},{"PRN":32,"el":72,"az":27,"ss":52,"used":true},{"PRN":25,"el":31,"az":102,"ss":38,"used":true},{"PRN":1,"el":27,"az":305,"ss":41,"used":true},{"PRN":14,"el":65,"az":298,"ss":45,"used":true},{"PRN":12,"el":21,"az":56,"ss":47,"used":true},{"PRN":11,"el":14,"az":292,"ss":42,"used":true},{"PRN":31,"el":48,"az":207,"ss":47,"used":true}]} 
5.471           GPSD_json            pGPSd           {"class":"SKY","device":"/dev/garmingps","xdop":0.56,"ydop":0.76,"vdop":1.29,"tdop":0.79,"hdop":0.95,"gdop":1.78,"pdop":1.60,"satellites":[{"PRN":20,"el":18,"az":140,"ss":39,"used":true},{"PRN":10,"el":49,"az":136,"ss":42,"used":true},{"PRN":24,"el":4,"az":46,"ss":29,"used":false},{"PRN":22,"el":17,"az":311,"ss":42,"used":true},{"PRN":32,"el":72,"az":27,"ss":52,"used":true},{"PRN":25,"el":31,"az":102,"ss":40,"used":true},{"PRN":1,"el":27,"az":305,"ss":44,"used":true},{"PRN":14,"el":65,"az":298,"ss":45,"used":true},{"PRN":12,"el":21,"az":56,"ss":44,"used":true},{"PRN":11,"el":14,"az":292,"ss":38,"used":true},{"PRN":31,"el":48,"az":207,"ss":46,"used":true}]} 
6.474           GPSD_json            pGPSd           {"class":"SKY","device":"/dev/garmingps","xdop":0.56,"ydop":0.76,"vdop":1.29,"tdop":0.79,"hdop":0.95,"gdop":1.78,"pdop":1.60,"satellites":[{"PRN":20,"el":18,"az":140,"ss":40,"used":true},{"PRN":10,"el":49,"az":136,"ss":37,"used":true},{"PRN":24,"el":4,"az":46,"ss":31,"used":false},{"PRN":22,"el":17,"az":311,"ss":41,"used":true},{"PRN":32,"el":72,"az":27,"ss":52,"used":true},{"PRN":25,"el":31,"az":102,"ss":40,"used":true},{"PRN":1,"el":27,"az":305,"ss":42,"used":true},{"PRN":14,"el":65,"az":298,"ss":45,"used":true},{"PRN":12,"el":21,"az":56,"ss":45,"used":true},{"PRN":11,"el":14,"az":292,"ss":40,"used":true},{"PRN":31,"el":48,"az":207,"ss":47,"used":true}]} 
7.476           GPSD_json            pGPSd           {"class":"SKY","device":"/dev/garmingps","xdop":0.56,"ydop":0.76,"vdop":1.29,"tdop":0.79,"hdop":0.95,"gdop":1.78,"pdop":1.60,"satellites":[{"PRN":20,"el":18,"az":140,"ss":40,"used":true},{"PRN":10,"el":49,"az":136,"ss":36,"used":true},{"PRN":24,"el":4,"az":46,"ss":32,"used":false},{"PRN":22,"el":17,"az":311,"ss":42,"used":true},{"PRN":32,"el":72,"az":27,"ss":52,"used":true},{"PRN":25,"el":31,"az":102,"ss":39,"used":true},{"PRN":1,"el":27,"az":305,"ss":43,"used":true},{"PRN":14,"el":65,"az":298,"ss":45,"used":true},{"PRN":12,"el":21,"az":56,"ss":45,"used":true},{"PRN":11,"el":14,"az":292,"ss":39,"used":true},{"PRN":31,"el":48,"az":207,"ss":48,"used":true}]} 
8.478           GPSD_json            pGPSd           {"class":"SKY","device":"/dev/garmingps","xdop":0.56,"ydop":0.76,"vdop":1.29,"tdop":0.79,"hdop":0.95,"gdop":1.78,"pdop":1.60,"satellites":[{"PRN":20,"el":18,"az":140,"ss":40,"used":true},{"PRN":10,"el":49,"az":136,"ss":34,"used":true},{"PRN":24,"el":4,"az":46,"ss":33,"used":false},{"PRN":22,"el":17,"az":311,"ss":43,"used":true},{"PRN":32,"el":72,"az":27,"ss":52,"used":true},{"PRN":25,"el":31,"az":102,"ss":38,"used":true},{"PRN":1,"el":27,"az":305,"ss":43,"used":true},{"PRN":14,"el":65,"az":298,"ss":45,"used":true},{"PRN":12,"el":21,"az":56,"ss":45,"used":true},{"PRN":11,"el":14,"az":292,"ss":40,"used":true},{"PRN":31,"el":48,"az":207,"ss":49,"used":true}]} 
9.480           GPSD_json            pGPSd           {"class":"SKY","device":"/dev/garmingps","xdop":0.56,"ydop":0.76,"vdop":1.29,"tdop":0.79,"hdop":0.95,"gdop":1.78,"pdop":1.60,"satellites":[{"PRN":20,"el":18,"az":140,"ss":39,"used":true},{"PRN":10,"el":49,"az":136,"ss":34,"used":true},{"PRN":24,"el":4,"az":46,"ss":34,"used":false},{"PRN":22,"el":17,"az":311,"ss":38,"used":true},{"PRN":32,"el":72,"az":27,"ss":53,"used":true},{"PRN":25,"el":31,"az":102,"ss":38,"used":true},{"PRN":1,"el":27,"az":305,"ss":42,"used":true},{"PRN":14,"el":65,"az":298,"ss":44,"used":true},{"PRN":12,"el":21,"az":56,"ss":47,"used":true},{"PRN":11,"el":14,"az":292,"ss":40,"used":true},{"PRN":31,"el":48,"az":207,"ss":49,"used":true}]} 
10.482          GPSD_json            pGPSd           {"class":"SKY","device":"/dev/garmingps","xdop":0.56,"ydop":0.76,"vdop":1.29,"tdop":0.79,"hdop":0.95,"gdop":1.78,"pdop":1.60,"satellites":[{"PRN":20,"el":18,"az":140,"ss":38,"used":true},{"PRN":10,"el":49,"az":136,"ss":37,"used":true},{"PRN":24,"el":4,"az":46,"ss":34,"used":false},{"PRN":22,"el":17,"az":311,"ss":42,"used":true},{"PRN":32,"el":72,"az":27,"ss":52,"used":true},{"PRN":25,"el":31,"az":102,"ss":38,"used":true},{"PRN":1,"el":27,"az":305,"ss":43,"used":true},{"PRN":14,"el":65,"az":298,"ss":45,"used":true},{"PRN":12,"el":21,"az":56,"ss":47,"used":true},{"PRN":11,"el":14,"az":292,"ss":40,"used":true},{"PRN":31,"el":48,"az":207,"ss":49,"used":true}]} 
11.485          GPSD_json            pGPSd           {"class":"SKY","device":"/dev/garmingps","xdop":0.56,"ydop":0.76,"vdop":1.29,"tdop":0.79,"hdop":0.95,"gdop":1.78,"pdop":1.60,"satellites":[{"PRN":20,"el":18,"az":140,"ss":37,"used":true},{"PRN":10,"el":49,"az":136,"ss":38,"used":true},{"PRN":24,"el":4,"az":46,"ss":33,"used":false},{"PRN":22,"el":17,"az":311,"ss":40,"used":true},{"PRN":32,"el":72,"az":27,"ss":52,"used":true},{"PRN":25,"el":31,"az":102,"ss":41,"used":true},{"PRN":1,"el":27,"az":305,"ss":43,"used":true},{"PRN":14,"el":65,"az":298,"ss":43,"used":true},{"PRN":12,"el":21,"az":56,"ss":46,"used":true},{"PRN":11,"el":14,"az":292,"ss":40,"used":true},{"PRN":31,"el":48,"az":207,"ss":49,"used":true}]} 
12.487          GPSD_json            pGPSd           {"class":"SKY","device":"/dev/garmingps","xdop":0.56,"ydop":0.76,"vdop":1.29,"tdop":0.79,"hdop":0.95,"gdop":1.78,"pdop":1.60,"satellites":[{"PRN":20,"el":18,"az":140,"ss":35,"used":true},{"PRN":10,"el":49,"az":136,"ss":39,"used":true},{"PRN":24,"el":4,"az":46,"ss":33,"used":false},{"PRN":22,"el":17,"az":311,"ss":43,"used":true},{"PRN":32,"el":72,"az":27,"ss":52,"used":true},{"PRN":25,"el":31,"az":102,"ss":42,"used":true},{"PRN":1,"el":27,"az":305,"ss":40,"used":true},{"PRN":14,"el":65,"az":298,"ss":43,"used":true},{"PRN":12,"el":21,"az":56,"ss":46,"used":true},{"PRN":11,"el":14,"az":292,"ss":40,"used":true},{"PRN":31,"el":48,"az":207,"ss":49,"used":true}]} 
13.489          GPSD_json            pGPSd           {"class":"SKY","device":"/dev/garmingps","xdop":0.56,"ydop":0.76,"vdop":1.29,"tdop":0.79,"hdop":0.95,"gdop":1.78,"pdop":1.60,"satellites":[{"PRN":20,"el":18,"az":140,"ss":35,"used":true},{"PRN":10,"el":49,"az":136,"ss":42,"used":true},{"PRN":24,"el":4,"az":46,"ss":33,"used":false},{"PRN":22,"el":17,"az":311,"ss":41,"used":true},{"PRN":32,"el":72,"az":27,"ss":52,"used":true},{"PRN":25,"el":31,"az":102,"ss":43,"used":true},{"PRN":1,"el":27,"az":305,"ss":41,"used":true},{"PRN":14,"el":65,"az":298,"ss":44,"used":true},{"PRN":12,"el":21,"az":56,"ss":47,"used":true},{"PRN":11,"el":14,"az":292,"ss":39,"used":true},{"PRN":31,"el":49,"az":207,"ss":48,"used":true}]} 
14.491          GPSD_json            pGPSd           {"class":"SKY","device":"/dev/garmingps","xdop":0.56,"ydop":0.76,"vdop":1.29,"tdop":0.79,"hdop":0.95,"gdop":1.78,"pdop":1.60,"satellites":[{"PRN":20,"el":18,"az":140,"ss":35,"used":true},{"PRN":10,"el":49,"az":136,"ss":43,"used":true},{"PRN":24,"el":4,"az":46,"ss":34,"used":false},{"PRN":22,"el":17,"az":311,"ss":42,"used":true},{"PRN":32,"el":72,"az":27,"ss":52,"used":true},{"PRN":25,"el":31,"az":102,"ss":43,"used":true},{"PRN":1,"el":27,"az":305,"ss":42,"used":true},{"PRN":14,"el":65,"az":298,"ss":45,"used":true},{"PRN":12,"el":21,"az":56,"ss":47,"used":true},{"PRN":11,"el":14,"az":292,"ss":38,"used":true},{"PRN":31,"el":49,"az":207,"ss":48,"used":true}]} 
15.493          GPSD_json            pGPSd           {"class":"SKY","device":"/dev/garmingps","xdop":0.56,"ydop":0.76,"vdop":1.29,"tdop":0.79,"hdop":0.95,"gdop":1.78,"pdop":1.60,"satellites":[{"PRN":20,"el":18,"az":140,"ss":35,"used":true},{"PRN":10,"el":49,"az":136,"ss":43,"used":true},{"PRN":24,"el":4,"az":46,"ss":34,"used":false},{"PRN":22,"el":17,"az":311,"ss":41,"used":true},{"PRN":32,"el":72,"az":28,"ss":52,"used":true},{"PRN":25,"el":31,"az":102,"ss":43,"used":true},{"PRN":1,"el":27,"az":305,"ss":41,"used":true},{"PRN":14,"el":65,"az":298,"ss":43,"used":true},{"PRN":12,"el":21,"az":56,"ss":48,"used":true},{"PRN":11,"el":14,"az":292,"ss":38,"used":true},{"PRN":31,"el":49,"az":207,"ss":48,"used":true}]} 
16.496          GPSD_json            pGPSd           {"class":"SKY","device":"/dev/garmingps","xdop":0.56,"ydop":0.76,"vdop":1.29,"tdop":0.79,"hdop":0.95,"gdop":1.78,"pdop":1.60,"satellites":[{"PRN":20,"el":18,"az":140,"ss":33,"used":true},{"PRN":10,"el":49,"az":136,"ss":41,"used":true},{"PRN":24,"el":4,"az":46,"ss":35,"used":false},{"PRN":22,"el":17,"az":311,"ss":41,"used":true},{"PRN":32,"el":72,"az":28,"ss":52,"used":true},{"PRN":25,"el":31,"az":102,"ss":43,"used":true},{"PRN":1,"el":27,"az":305,"ss":40,"used":true},{"PRN":14,"el":65,"az":298,"ss":43,"used":true},{"PRN":12,"el":21,"az":56,"ss":47,"used":true},{"PRN":11,"el":14,"az":292,"ss":38,"used":true},{"PRN":31,"el":49,"az":207,"ss":48,"used":true}]} 
17.504          GPSD_json            pGPSd           {"class":"SKY","device":"/dev/garmingps","xdop":0.56,"ydop":0.76,"vdop":1.29,"tdop":0.79,"hdop":0.95,"gdop":1.78,"pdop":1.60,"satellites":[{"PRN":20,"el":18,"az":140,"ss":34,"used":true},{"PRN":10,"el":49,"az":136,"ss":36,"used":true},{"PRN":24,"el":4,"az":46,"ss":33,"used":false},{"PRN":22,"el":17,"az":311,"ss":41,"used":true},{"PRN":32,"el":72,"az":28,"ss":52,"used":true},{"PRN":25,"el":31,"az":102,"ss":42,"used":true},{"PRN":1,"el":27,"az":305,"ss":41,"used":true},{"PRN":14,"el":65,"az":298,"ss":44,"used":true},{"PRN":12,"el":21,"az":56,"ss":47,"used":true},{"PRN":11,"el":14,"az":292,"ss":36,"used":true},{"PRN":31,"el":49,"az":207,"ss":47,"used":true}]} 
18.499          GPSD_json            pGPSd           {"class":"SKY","device":"/dev/garmingps","xdop":0.56,"ydop":0.76,"vdop":1.29,"tdop":0.79,"hdop":0.95,"gdop":1.78,"pdop":1.60,"satellites":[{"PRN":20,"el":18,"az":140,"ss":36,"used":true},{"PRN":10,"el":49,"az":136,"ss":27,"used":true},{"PRN":24,"el":4,"az":46,"ss":33,"used":false},{"PRN":22,"el":17,"az":311,"ss":42,"used":true},{"PRN":32,"el":72,"az":28,"ss":51,"used":true},{"PRN":25,"el":31,"az":102,"ss":42,"used":true},{"PRN":1,"el":27,"az":305,"ss":43,"used":true},{"PRN":14,"el":65,"az":298,"ss":45,"used":true},{"PRN":12,"el":21,"az":56,"ss":47,"used":true},{"PRN":11,"el":14,"az":292,"ss":37,"used":true},{"PRN":31,"el":49,"az":207,"ss":44,"used":true}]} 
19.500          GPSD_json            pGPSd           {"class":"SKY","device":"/dev/garmingps","xdop":0.56,"ydop":0.76,"vdop":1.29,"tdop":0.79,"hdop":0.95,"gdop":1.78,"pdop":1.60,"satellites":[{"PRN":20,"el":18,"az":140,"ss":38,"used":true},{"PRN":10,"el":49,"az":136,"ss":30,"used":true},{"PRN":24,"el":4,"az":46,"ss":33,"used":false},{"PRN":22,"el":17,"az":311,"ss":42,"used":true},{"PRN":32,"el":72,"az":28,"ss":52,"used":true},{"PRN":25,"el":31,"az":102,"ss":42,"used":true},{"PRN":1,"el":27,"az":305,"ss":40,"used":true},{"PRN":14,"el":65,"az":298,"ss":46,"used":true},{"PRN":12,"el":21,"az":56,"ss":46,"used":true},{"PRN":11,"el":14,"az":292,"ss":34,"used":true},{"PRN":31,"el":49,"az":207,"ss":43,"used":true}]} 
20.502          GPSD_json            pGPSd           {"class":"SKY","device":"/dev/garmingps","xdop":0.56,"ydop":0.76,"vdop":1.29,"tdop":0.79,"hdop":0.95,"gdop":1.78,"pdop":1.60,"satellites":[{"PRN":20,"el":18,"az":140,"ss":38,"used":true},{"PRN":10,"el":49,"az":136,"ss":38,"used":true},{"PRN":24,"el":4,"az":46,"ss":34,"used":false},{"PRN":22,"el":17,"az":311,"ss":42,"used":true},{"PRN":32,"el":72,"az":28,"ss":52,"used":true},{"PRN":25,"el":31,"az":102,"ss":42,"used":true},{"PRN":1,"el":27,"az":305,"ss":44,"used":true},{"PRN":14,"el":65,"az":298,"ss":43,"used":true},{"PRN":12,"el":21,"az":56,"ss":45,"used":true},{"PRN":11,"el":14,"az":292,"ss":38,"used":true},{"PRN":31,"el":49,"az":207,"ss":43,"used":true}]} 
21.505          GPSD_json            pGPSd           {"class":"SKY","device":"/dev/garmingps","xdop":0.56,"ydop":0.76,"vdop":1.29,"tdop":0.79,"hdop":0.95,"gdop":1.78,"pdop":1.60,"satellites":[{"PRN":20,"el":18,"az":140,"ss":38,"used":true},{"PRN":10,"el":49,"az":136,"ss":39,"used":true},{"PRN":24,"el":4,"az":46,"ss":34,"used":false},{"PRN":22,"el":17,"az":311,"ss":41,"used":true},{"PRN":32,"el":72,"az":28,"ss":52,"used":true},{"PRN":25,"el":31,"az":102,"ss":42,"used":true},{"PRN":1,"el":27,"az":305,"ss":43,"used":true},{"PRN":14,"el":65,"az":298,"ss":43,"used":true},{"PRN":12,"el":21,"az":56,"ss":43,"used":true},{"PRN":11,"el":14,"az":292,"ss":36,"used":true},{"PRN":31,"el":49,"az":207,"ss":45,"used":true}]} 
22.506          GPSD_json            pGPSd           {"class":"SKY","device":"/dev/garmingps","xdop":0.56,"ydop":0.76,"vdop":1.29,"tdop":0.79,"hdop":0.95,"gdop":1.78,"pdop":1.60,"satellites":[{"PRN":20,"el":18,"az":140,"ss":38,"used":true},{"PRN":10,"el":49,"az":136,"ss":39,"used":true},{"PRN":24,"el":4,"az":46,"ss":27,"used":false},{"PRN":22,"el":17,"az":311,"ss":40,"used":true},{"PRN":32,"el":72,"az":28,"ss":51,"used":true},{"PRN":25,"el":31,"az":102,"ss":40,"used":true},{"PRN":1,"el":27,"az":305,"ss":44,"used":true},{"PRN":14,"el":65,"az":298,"ss":44,"used":true},{"PRN":12,"el":21,"az":56,"ss":43,"used":true},{"PRN":11,"el":14,"az":292,"ss":38,"used":true},{"PRN":31,"el":49,"az":207,"ss":45,"used":true}]} 
23.508          GPSD_json            pGPSd           {"class":"SKY","device":"/dev/garmingps","xdop":0.56,"ydop":0.76,"vdop":1.29,"tdop":0.79,"hdop":0.95,"gdop":1.78,"pdop":1.60,"satellites":[{"PRN":20,"el":18,"az":140,"ss":38,"used":true},{"PRN":10,"el":49,"az":136,"ss":35,"used":true},{"PRN":24,"el":4,"az":46,"ss":27,"used":false},{"PRN":22,"el":17,"az":311,"ss":40,"used":true},{"PRN":32,"el":72,"az":28,"ss":51,"used":true},{"PRN":25,"el":31,"az":102,"ss":40,"used":true},{"PRN":1,"el":27,"az":305,"ss":41,"used":true},{"PRN":14,"el":65,"az":298,"ss":44,"used":true},{"PRN":12,"el":21,"az":56,"ss":43,"used":true},{"PRN":11,"el":14,"az":292,"ss":38,"used":true},{"PRN":31,"el":49,"az":207,"ss":44,"used":true}]} 
24.510          GPSD_json            pGPSd           {"class":"SKY","device":"/dev/garmingps","xdop":0.56,"ydop":0.76,"vdop":1.29,"tdop":0.79,"hdop":0.95,"gdop":1.78,"pdop":1.60,"satellites":[{"PRN":20,"el":18,"az":140,"ss":37,"used":true},{"PRN":10,"el":49,"az":136,"ss":33,"used":true},{"PRN":24,"el":4,"az":46,"ss":31,"used":false},{"PRN":22,"el":17,"az":311,"ss":42,"used":true},{"PRN":32,"el":72,"az":28,"ss":51,"used":true},{"PRN":25,"el":31,"az":102,"ss":40,"used":true},{"PRN":1,"el":27,"az":305,"ss":42,"used":true},{"PRN":14,"el":65,"az":298,"ss":43,"used":true},{"PRN":12,"el":21,"az":56,"ss":43,"used":true},{"PRN":11,"el":14,"az":292,"ss":37,"used":true},{"PRN":31,"el":49,"az":207,"ss":45,"used":true}]} 
25.512          GPSD_json            pGPSd           {"class":"SKY","device":"/dev/garmingps","xdop":0.56,"ydop":0.76,"vdop":1.29,"tdop":0.79,"hdop":0.95,"gdop":1.78,"pdop":1.60,"satellites":[{"PRN":20,"el":18,"az":140,"ss":35,"used":true},{"PRN":10,"el":49,"az":136,"ss":40,"used":true},{"PRN":24,"el":4,"az":46,"ss":32,"used":false},{"PRN":22,"el":17,"az":311,"ss":42,"used":true},{"PRN":32,"el":72,"az":28,"ss":52,"used":true},{"PRN":25,"el":31,"az":102,"ss":40,"used":true},{"PRN":1,"el":27,"az":305,"ss":43,"used":true},{"PRN":14,"el":65,"az":298,"ss":43,"used":true},{"PRN":12,"el":21,"az":56,"ss":44,"used":true},{"PRN":11,"el":14,"az":292,"ss":38,"used":true},{"PRN":31,"el":49,"az":207,"ss":47,"used":true}]} 
26.513          GPSD_json            pGPSd           {"class":"SKY","device":"/dev/garmingps","xdop":0.56,"ydop":0.76,"vdop":1.29,"tdop":0.79,"hdop":0.95,"gdop":1.78,"pdop":1.60,"satellites":[{"PRN":20,"el":18,"az":140,"ss":34,"used":true},{"PRN":10,"el":49,"az":136,"ss":39,"used":true},{"PRN":24,"el":4,"az":46,"ss":31,"used":false},{"PRN":22,"el":17,"az":311,"ss":42,"used":true},{"PRN":32,"el":72,"az":28,"ss":52,"used":true},{"PRN":25,"el":31,"az":102,"ss":40,"used":true},{"PRN":1,"el":27,"az":305,"ss":44,"used":true},{"PRN":14,"el":65,"az":298,"ss":44,"used":true},{"PRN":12,"el":21,"az":56,"ss":43,"used":true},{"PRN":11,"el":14,"az":292,"ss":36,"used":true},{"PRN":31,"el":49,"az":207,"ss":46,"used":true}]} 
27.516          GPSD_json            pGPSd           {"class":"SKY","device":"/dev/garmingps","xdop":0.56,"ydop":0.76,"vdop":1.29,"tdop":0.79,"hdop":0.95,"gdop":1.78,"pdop":1.60,"satellites":[{"PRN":20,"el":18,"az":140,"ss":35,"used":true},{"PRN":10,"el":49,"az":136,"ss":38,"used":true},{"PRN":24,"el":4,"az":46,"ss":31,"used":false},{"PRN":22,"el":17,"az":311,"ss":41,"used":true},{"PRN":32,"el":72,"az":28,"ss":52,"used":true},{"PRN":25,"el":31,"az":102,"ss":43,"used":true},{"PRN":1,"el":27,"az":305,"ss":44,"used":true},{"PRN":14,"el":65,"az":298,"ss":45,"used":true},{"PRN":12,"el":21,"az":56,"ss":45,"used":true},{"PRN":11,"el":14,"az":292,"ss":37,"used":true},{"PRN":31,"el":49,"az":207,"ss":45,"used":true}]} 
28.518          GPSD_json            pGPSd           {"class":"SKY","device":"/dev/garmingps","xdop":0.56,"ydop":0.76,"vdop":1.29,"tdop":0.79,"hdop":0.95,"gdop":1.78,"pdop":1.60,"satellites":[{"PRN":20,"el":18,"az":140,"ss":36,"used":true},{"PRN":10,"el":49,"az":136,"ss":40,"used":true},{"PRN":24,"el":4,"az":46,"ss":32,"used":false},{"PRN":22,"el":17,"az":311,"ss":41,"used":true},{"PRN":32,"el":72,"az":28,"ss":52,"used":true},{"PRN":25,"el":31,"az":102,"ss":42,"used":true},{"PRN":1,"el":27,"az":305,"ss":44,"used":true},{"PRN":14,"el":65,"az":298,"ss":46,"used":true},{"PRN":12,"el":21,"az":56,"ss":46,"used":true},{"PRN":11,"el":14,"az":292,"ss":37,"used":true},{"PRN":31,"el":49,"az":207,"ss":45,"used":true}]} 
29.520          GPSD_json            pGPSd           {"class":"SKY","device":"/dev/garmingps","xdop":0.56,"ydop":0.76,"vdop":1.29,"tdop":0.79,"hdop":0.95,"gdop":1.78,"pdop":1.60,"satellites":[{"PRN":20,"el":18,"az":140,"ss":35,"used":true},{"PRN":10,"el":49,"az":136,"ss":44,"used":true},{"PRN":24,"el":4,"az":46,"ss":32,"used":false},{"PRN":22,"el":17,"az":311,"ss":41,"used":true},{"PRN":32,"el":72,"az":28,"ss":52,"used":true},{"PRN":25,"el":31,"az":102,"ss":40,"used":true},{"PRN":1,"el":27,"az":305,"ss":43,"used":true},{"PRN":14,"el":65,"az":298,"ss":45,"used":true},{"PRN":12,"el":21,"az":56,"ss":46,"used":true},{"PRN":11,"el":14,"az":292,"ss":37,"used":true},{"PRN":31,"el":49,"az":207,"ss":44,"used":true}]} 
30.523          GPSD_json            pGPSd           {"class":"SKY","device":"/dev/garmingps","xdop":0.56,"ydop":0.76,"vdop":1.29,"tdop":0.79,"hdop":0.95,"gdop":1.78,"pdop":1.60,"satellites":[{"PRN":20,"el":18,"az":140,"ss":35,"used":true},{"PRN":10,"el":49,"az":136,"ss":43,"used":true},{"PRN":24,"el":4,"az":46,"ss":32,"used":false},{"PRN":22,"el":17,"az":311,"ss":40,"used":true},{"PRN":32,"el":72,"az":28,"ss":52,"used":true},{"PRN":25,"el":31,"az":102,"ss":46,"used":true},{"PRN":1,"el":27,"az":305,"ss":42,"used":true},{"PRN":14,"el":65,"az":298,"ss":45,"used":true},{"PRN":12,"el":21,"az":56,"ss":47,"used":true},{"PRN":11,"el":14,"az":292,"ss":37,"used":true},{"PRN":31,"el":49,"az":207,"ss":47,"used":true}]} 
31.525          GPSD_json            pGPSd           {"class":"SKY","device":"/dev/garmingps","xdop":0.56,"ydop":0.76,"vdop":1.29,"tdop":0.79,"hdop":0.95,"gdop":1.78,"pdop":1.60,"satellites":[{"PRN":20,"el":18,"az":140,"ss":34,"used":true},{"PRN":10,"el":49,"az":136,"ss":40,"used":true},{"PRN":24,"el":4,"az":46,"ss":33,"used":false},{"PRN":22,"el":17,"az":311,"ss":41,"used":true},{"PRN":32,"el":72,"az":28,"ss":52,"used":true},{"PRN":25,"el":31,"az":102,"ss":45,"used":true},{"PRN":1,"el":27,"az":305,"ss":42,"used":true},{"PRN":14,"el":65,"az":298,"ss":45,"used":true},{"PRN":12,"el":21,"az":56,"ss":47,"used":true},{"PRN":11,"el":14,"az":292,"ss":37,"used":true},{"PRN":31,"el":49,"az":207,"ss":47,"used":true}]} 
32.526          GPSD_json            pGPSd           {"class":"SKY","device":"/dev/garmingps","xdop":0.56,"ydop":0.76,"vdop":1.29,"tdop":0.79,"hdop":0.95,"gdop":1.78,"pdop":1.60,"satellites":[{"PRN":20,"el":18,"az":140,"ss":32,"used":true},{"PRN":10,"el":49,"az":136,"ss":40,"used":true},{"PRN":24,"el":4,"az":46,"ss":34,"used":false},{"PRN":22,"el":17,"az":311,"ss":41,"used":true},{"PRN":32,"el":72,"az":28,"ss":52,"used":true},{"PRN":25,"el":31,"az":102,"ss":45,"used":true},{"PRN":1,"el":27,"az":305,"ss":42,"used":true},{"PRN":14,"el":65,"az":298,"ss":45,"used":true},{"PRN":12,"el":21,"az":56,"ss":48,"used":true},{"PRN":11,"el":14,"az":292,"ss":38,"used":true},{"PRN":31,"el":49,"az":207,"ss":46,"used":true}]} 
33.528          GPSD_json            pGPSd           {"class":"SKY","device":"/dev/garmingps","xdop":0.56,"ydop":0.76,"vdop":1.29,"tdop":0.79,"hdop":0.95,"gdop":1.78,"pdop":1.60,"satellites":[{"PRN":20,"el":18,"az":140,"ss":32,"used":true},{"PRN":10,"el":49,"az":136,"ss":40,"used":true},{"PRN":24,"el":4,"az":46,"ss":35,"used":false},{"PRN":22,"el":17,"az":311,"ss":42,"used":true},{"PRN":32,"el":72,"az":28,"ss":52,"used":true},{"PRN":25,"el":31,"az":102,"ss":44,"used":true},{"PRN":1,"el":27,"az":305,"ss":42,"used":true},{"PRN":14,"el":65,"az":298,"ss":45,"used":true},{"PRN":12,"el":21,"az":56,"ss":48,"used":true},{"PRN":11,"el":14,"az":292,"ss":37,"used":true},{"PRN":31,"el":49,"az":207,"ss":47,"used":true}]} 
34.530          GPSD_json            pGPSd           {"class":"SKY","device":"/dev/garmingps","xdop":0.56,"ydop":0.76,"vdop":1.29,"tdop":0.79,"hdop":0.95,"gdop":1.78,"pdop":1.60,"satellites":[{"PRN":20,"el":18,"az":140,"ss":31,"used":true},{"PRN":10,"el":49,"az":136,"ss":38,"used":true},{"PRN":24,"el":4,"az":46,"ss":35,"used":false},{"PRN":22,"el":17,"az":311,"ss":41,"used":true},{"PRN":32,"el":72,"az":28,"ss":52,"used":true},{"PRN":25,"el":31,"az":102,"ss":44,"used":true},{"PRN":1,"el":27,"az":305,"ss":43,"used":true},{"PRN":14,"el":65,"az":298,"ss":44,"used":true},{"PRN":12,"el":21,"az":56,"ss":47,"used":true},{"PRN":11,"el":14,"az":292,"ss":37,"used":true},{"PRN":31,"el":49,"az":207,"ss":48,"used":true}]} 
35.532          GPSD_json            pGPSd           {"class":"SKY","device":"/dev/garmingps","xdop":0.56,"ydop":0.76,"vdop":1.29,"tdop":0.79,"hdop":0.95,"gdop":1.78,"pdop":1.60,"satellites":[{"PRN":20,"el":18,"az":140,"ss":26,"used":true},{"PRN":10,"el":48,"az":136,"ss":38,"used":true},{"PRN":24,"el":4,"az":46,"ss":34,"used":false},{"PRN":22,"el":17,"az":311,"ss":41,"used":true},{"PRN":32,"el":72,"az":28,"ss":52,"used":true},{"PRN":25,"el":31,"az":102,"ss":44,"used":true},{"PRN":1,"el":27,"az":305,"ss":44,"used":true},{"PRN":14,"el":65,"az":298,"ss":45,"used":true},{"PRN":12,"el":21,"az":56,"ss":46,"used":true},{"PRN":11,"el":14,"az":292,"ss":37,"used":true},{"PRN":31,"el":49,"az":207,"ss":48,"used":true}]} 
36.535          GPSD_json            pGPSd           {"class":"SKY","device":"/dev/garmingps","xdop":0.56,"ydop":0.76,"vdop":1.29,"tdop":0.79,"hdop":0.95,"gdop":1.78,"pdop":1.60,"satellites":[{"PRN":20,"el":18,"az":140,"ss":27,"used":true},{"PRN":10,"el":48,"az":136,"ss":42,"used":true},{"PRN":24,"el":4,"az":46,"ss":33,"used":false},{"PRN":22,"el":17,"az":311,"ss":40,"used":true},{"PRN":32,"el":72,"az":28,"ss":52,"used":true},{"PRN":25,"el":31,"az":102,"ss":44,"used":true},{"PRN":1,"el":27,"az":305,"ss":44,"used":true},{"PRN":14,"el":65,"az":298,"ss":46,"used":true},{"PRN":12,"el":21,"az":56,"ss":46,"used":true},{"PRN":11,"el":14,"az":292,"ss":37,"used":true},{"PRN":31,"el":49,"az":207,"ss":49,"used":true}]} 
37.536          GPSD_json            pGPSd           {"class":"SKY","device":"/dev/garmingps","xdop":0.56,"ydop":0.76,"vdop":1.29,"tdop":0.79,"hdop":0.95,"gdop":1.78,"pdop":1.60,"satellites":[{"PRN":20,"el":18,"az":140,"ss":31,"used":true},{"PRN":10,"el":48,"az":136,"ss":44,"used":true},{"PRN":24,"el":4,"az":46,"ss":33,"used":false},{"PRN":22,"el":17,"az":311,"ss":40,"used":true},{"PRN":32,"el":72,"az":28,"ss":52,"used":true},{"PRN":25,"el":31,"az":102,"ss":43,"used":true},{"PRN":1,"el":27,"az":305,"ss":43,"used":true},{"PRN":14,"el":65,"az":298,"ss":46,"used":true},{"PRN":12,"el":21,"az":56,"ss":46,"used":true},{"PRN":11,"el":14,"az":291,"ss":37,"used":true},{"PRN":31,"el":49,"az":207,"ss":49,"used":true}]} 
38.538          GPSD_json            pGPSd           {"class":"SKY","device":"/dev/garmingps","xdop":0.56,"ydop":0.76,"vdop":1.29,"tdop":0.79,"hdop":0.95,"gdop":1.78,"pdop":1.60,"satellites":[{"PRN":20,"el":18,"az":140,"ss":31,"used":true},{"PRN":10,"el":48,"az":136,"ss":45,"used":true},{"PRN":24,"el":4,"az":46,"ss":34,"used":false},{"PRN":22,"el":17,"az":311,"ss":40,"used":true},{"PRN":32,"el":72,"az":28,"ss":52,"used":true},{"PRN":25,"el":31,"az":102,"ss":44,"used":true},{"PRN":1,"el":27,"az":305,"ss":42,"used":true},{"PRN":14,"el":65,"az":298,"ss":46,"used":true},{"PRN":12,"el":21,"az":56,"ss":46,"used":true},{"PRN":11,"el":14,"az":291,"ss":37,"used":true},{"PRN":31,"el":49,"az":207,"ss":49,"used":true}]} 
39.541          GPSD_json            pGPSd           {"class":"SKY","device":"/dev/garmingps","xdop":0.56,"ydop":0.76,"vdop":1.29,"tdop":0.79,"hdop":0.95,"gdop":1.78,"pdop":1.60,"satellites":[{"PRN":20,"el":18,"az":140,"ss":32,"used":true},{"PRN":10,"el":48,"az":136,"ss":44,"used":true},{"PRN":24,"el":4,"az":46,"ss":33,"used":false},{"PRN":22,"el":17,"az":311,"ss":40,"used":true},{"PRN":32,"el":72,"az":28,"ss":52,"used":true},{"PRN":25,"el":31,"az":102,"ss":45,"used":true},{"PRN":1,"el":27,"az":305,"ss":42,"used":true},{"PRN":14,"el":65,"az":298,"ss":46,"used":true},{"PRN":12,"el":21,"az":56,"ss":46,"used":true},{"PRN":11,"el":14,"az":291,"ss":37,"used":true},{"PRN":31,"el":49,"az":207,"ss":49,"used":true}]} 
40.542          GPSD_json            pGPSd           {"class":"SKY","device":"/dev/garmingps","xdop":0.56,"ydop":0.76,"vdop":1.29,"tdop":0.79,"hdop":0.95,"gdop":1.78,"pdop":1.60,"satellites":[{"PRN":20,"el":18,"az":140,"ss":32,"used":true},{"PRN":10,"el":48,"az":136,"ss":45,"used":true},{"PRN":24,"el":4,"az":46,"ss":35,"used":false},{"PRN":22,"el":17,"az":311,"ss":40,"used":true},{"PRN":32,"el":72,"az":28,"ss":52,"used":true},{"PRN":25,"el":31,"az":102,"ss":47,"used":true},{"PRN":1,"el":27,"az":305,"ss":41,"used":true},{"PRN":14,"el":65,"az":298,"ss":47,"used":true},{"PRN":12,"el":21,"az":56,"ss":46,"used":true},{"PRN":11,"el":14,"az":291,"ss":37,"used":true},{"PRN":31,"el":49,"az":207,"ss":49,"used":true}]} 
41.545          GPSD_json            pGPSd           {"class":"SKY","device":"/dev/garmingps","xdop":0.56,"ydop":0.76,"vdop":1.29,"tdop":0.79,"hdop":0.95,"gdop":1.78,"pdop":1.60,"satellites":[{"PRN":20,"el":18,"az":140,"ss":27,"used":true},{"PRN":10,"el":48,"az":136,"ss":45,"used":true},{"PRN":24,"el":4,"az":46,"ss":37,"used":false},{"PRN":22,"el":17,"az":311,"ss":40,"used":true},{"PRN":32,"el":72,"az":28,"ss":49,"used":true},{"PRN":25,"el":31,"az":102,"ss":45,"used":true},{"PRN":1,"el":27,"az":305,"ss":42,"used":true},{"PRN":14,"el":65,"az":298,"ss":46,"used":true},{"PRN":12,"el":21,"az":56,"ss":47,"used":true},{"PRN":11,"el":14,"az":291,"ss":37,"used":true},{"PRN":31,"el":49,"az":207,"ss":49,"used":true}]} 
42.547          GPSD_json            pGPSd           {"class":"SKY","device":"/dev/garmingps","xdop":0.56,"ydop":0.76,"vdop":1.29,"tdop":0.79,"hdop":0.95,"gdop":1.78,"pdop":1.60,"satellites":[{"PRN":20,"el":18,"az":140,"ss":26,"used":true},{"PRN":10,"el":48,"az":136,"ss":46,"used":true},{"PRN":24,"el":4,"az":46,"ss":37,"used":false},{"PRN":22,"el":17,"az":311,"ss":41,"used":true},{"PRN":32,"el":72,"az":28,"ss":50,"used":true},{"PRN":25,"el":31,"az":102,"ss":45,"used":true},{"PRN":1,"el":27,"az":305,"ss":41,"used":true},{"PRN":14,"el":65,"az":298,"ss":46,"used":true},{"PRN":12,"el":21,"az":56,"ss":47,"used":true},{"PRN":11,"el":14,"az":291,"ss":38,"used":true},{"PRN":31,"el":49,"az":207,"ss":47,"used":true}]} 
43.549          GPSD_json            pGPSd           {"class":"SKY","device":"/dev/garmingps","xdop":0.56,"ydop":0.76,"vdop":1.29,"tdop":0.79,"hdop":0.95,"gdop":1.78,"pdop":1.60,"satellites":[{"PRN":20,"el":18,"az":140,"ss":28,"used":true},{"PRN":10,"el":48,"az":136,"ss":47,"used":true},{"PRN":24,"el":4,"az":46,"ss":36,"used":false},{"PRN":22,"el":17,"az":311,"ss":41,"used":true},{"PRN":32,"el":72,"az":28,"ss":50,"used":true},{"PRN":25,"el":31,"az":102,"ss":43,"used":true},{"PRN":1,"el":27,"az":305,"ss":42,"used":true},{"PRN":14,"el":65,"az":299,"ss":45,"used":true},{"PRN":12,"el":21,"az":56,"ss":47,"used":true},{"PRN":11,"el":14,"az":291,"ss":36,"used":true},{"PRN":31,"el":49,"az":207,"ss":47,"used":true}]} 
44.552          GPSD_json            pGPSd           {"class":"SKY","device":"/dev/garmingps","xdop":0.56,"ydop":0.76,"vdop":1.29,"tdop":0.79,"hdop":0.95,"gdop":1.78,"pdop":1.60,"satellites":[{"PRN":20,"el":18,"az":140,"ss":28,"used":true},{"PRN":10,"el":48,"az":136,"ss":47,"used":true},{"PRN":24,"el":4,"az":46,"ss":37,"used":false},{"PRN":22,"el":17,"az":311,"ss":41,"used":true},{"PRN":32,"el":72,"az":28,"ss":49,"used":true},{"PRN":25,"el":31,"az":102,"ss":43,"used":true},{"PRN":1,"el":27,"az":305,"ss":41,"used":true},{"PRN":14,"el":65,"az":299,"ss":45,"used":true},{"PRN":12,"el":21,"az":56,"ss":47,"used":true},{"PRN":11,"el":14,"az":291,"ss":34,"used":true},{"PRN":31,"el":49,"az":207,"ss":47,"used":true}]} 
45.553          GPSD_json            pGPSd           {"class":"SKY","device":"/dev/garmingps","xdop":0.56,"ydop":0.76,"vdop":1.29,"tdop":0.79,"hdop":0.95,"gdop":1.78,"pdop":1.60,"satellites":[{"PRN":20,"el":18,"az":140,"ss":29,"used":true},{"PRN":10,"el":48,"az":136,"ss":47,"used":true},{"PRN":24,"el":4,"az":46,"ss":37,"used":false},{"PRN":22,"el":17,"az":311,"ss":39,"used":true},{"PRN":32,"el":72,"az":28,"ss":48,"used":true},{"PRN":25,"el":31,"az":102,"ss":40,"used":true},{"PRN":1,"el":27,"az":305,"ss":41,"used":true},{"PRN":14,"el":65,"az":299,"ss":45,"used":true},{"PRN":12,"el":21,"az":56,"ss":47,"used":true},{"PRN":11,"el":14,"az":291,"ss":35,"used":true},{"PRN":31,"el":49,"az":207,"ss":49,"used":true}]} 
46.555          GPSD_json            pGPSd           {"class":"SKY","device":"/dev/garmingps","xdop":0.56,"ydop":0.76,"vdop":1.29,"tdop":0.79,"hdop":0.95,"gdop":1.78,"pdop":1.60,"satellites":[{"PRN":20,"el":18,"az":140,"ss":32,"used":true},{"PRN":10,"el":48,"az":136,"ss":48,"used":true},{"PRN":24,"el":4,"az":46,"ss":37,"used":false},{"PRN":22,"el":17,"az":311,"ss":39,"used":true},{"PRN":32,"el":72,"az":28,"ss":49,"used":true},{"PRN":25,"el":31,"az":102,"ss":40,"used":true},{"PRN":1,"el":27,"az":305,"ss":41,"used":true},{"PRN":14,"el":65,"az":299,"ss":46,"used":true},{"PRN":12,"el":21,"az":56,"ss":47,"used":true},{"PRN":11,"el":14,"az":291,"ss":36,"used":true},{"PRN":31,"el":49,"az":207,"ss":48,"used":true}]} 
48.560          GPSD_json            pGPSd           {"class":"SKY","device":"/dev/garmingps","xdop":0.56,"ydop":0.76,"vdop":1.29,"tdop":0.79,"hdop":0.95,"gdop":1.78,"pdop":1.60,"satellites":[{"PRN":20,"el":18,"az":140,"ss":33,"used":true},{"PRN":10,"el":48,"az":136,"ss":48,"used":true},{"PRN":24,"el":4,"az":46,"ss":38,"used":false},{"PRN":22,"el":17,"az":311,"ss":40,"used":true},{"PRN":32,"el":72,"az":28,"ss":48,"used":true},{"PRN":25,"el":31,"az":102,"ss":43,"used":true},{"PRN":1,"el":27,"az":305,"ss":41,"used":true},{"PRN":14,"el":65,"az":299,"ss":45,"used":true},{"PRN":12,"el":21,"az":56,"ss":47,"used":true},{"PRN":11,"el":14,"az":291,"ss":38,"used":true},{"PRN":31,"el":49,"az":207,"ss":48,"used":true}]} 
49.563          GPSD_json            pGPSd           {"class":"SKY","device":"/dev/garmingps","xdop":0.56,"ydop":0.76,"vdop":1.29,"tdop":0.79,"hdop":0.95,"gdop":1.78,"pdop":1.60,"satellites":[{"PRN":20,"el":18,"az":140,"ss":33,"used":true},{"PRN":10,"el":48,"az":136,"ss":47,"used":true},{"PRN":24,"el":4,"az":46,"ss":37,"used":false},{"PRN":22,"el":17,"az":311,"ss":41,"used":true},{"PRN":32,"el":72,"az":28,"ss":47,"used":true},{"PRN":25,"el":31,"az":102,"ss":45,"used":true},{"PRN":1,"el":27,"az":305,"ss":40,"used":true},{"PRN":14,"el":65,"az":299,"ss":46,"used":true},{"PRN":12,"el":21,"az":56,"ss":47,"used":true},{"PRN":11,"el":14,"az":291,"ss":38,"used":true},{"PRN":31,"el":49,"az":207,"ss":49,"used":true}]} 
50.565          GPSD_json            pGPSd           {"class":"SKY","device":"/dev/garmingps","xdop":0.56,"ydop":0.76,"vdop":1.29,"tdop":0.79,"hdop":0.95,"gdop":1.78,"pdop":1.60,"satellites":[{"PRN":20,"el":18,"az":140,"ss":31,"used":true},{"PRN":10,"el":48,"az":136,"ss":48,"used":true},{"PRN":24,"el":4,"az":46,"ss":37,"used":false},{"PRN":22,"el":17,"az":311,"ss":42,"used":true},{"PRN":32,"el":72,"az":28,"ss":48,"used":true},{"PRN":25,"el":31,"az":102,"ss":45,"used":true},{"PRN":1,"el":27,"az":305,"ss":40,"used":true},{"PRN":14,"el":65,"az":299,"ss":46,"used":true},{"PRN":12,"el":21,"az":56,"ss":46,"used":true},{"PRN":11,"el":14,"az":291,"ss":39,"used":true},{"PRN":31,"el":49,"az":207,"ss":48,"used":true}]} 
51.568          GPSD_json            pGPSd           {"class":"SKY","device":"/dev/garmingps","xdop":0.56,"ydop":0.76,"vdop":1.29,"tdop":0.79,"hdop":0.95,"gdop":1.78,"pdop":1.60,"satellites":[{"PRN":20,"el":18,"az":140,"ss":31,"used":true},{"PRN":10,"el":48,"az":136,"ss":47,"used":true},{"PRN":24,"el":4,"az":46,"ss":37,"used":false},{"PRN":22,"el":17,"az":311,"ss":42,"used":true},{"PRN":32,"el":72,"az":28,"ss":48,"used":true},{"PRN":25,"el":31,"az":102,"ss":46,"used":true},{"PRN":1,"el":27,"az":305,"ss":40,"used":true},{"PRN":14,"el":65,"az":299,"ss":45,"used":true},{"PRN":12,"el":21,"az":56,"ss":47,"used":true},{"PRN":11,"el":14,"az":291,"ss":39,"used":true},{"PRN":31,"el":49,"az":207,"ss":49,"used":true}]} 
52.570          GPSD_json            pGPSd           {"class":"SKY","device":"/dev/garmingps","xdop":0.56,"ydop":0.76,"vdop":1.29,"tdop":0.79,"hdop":0.95,"gdop":1.78,"pdop":1.60,"satellites":[{"PRN":20,"el":18,"az":140,"ss":30,"used":true},{"PRN":10,"el":48,"az":136,"ss":47,"used":true},{"PRN":24,"el":4,"az":46,"ss":37,"used":false},{"PRN":22,"el":17,"az":311,"ss":42,"used":true},{"PRN":32,"el":72,"az":28,"ss":47,"used":true},{"PRN":25,"el":31,"az":102,"ss":47,"used":true},{"PRN":1,"el":27,"az":305,"ss":40,"used":true},{"PRN":14,"el":65,"az":299,"ss":46,"used":true},{"PRN":12,"el":21,"az":56,"ss":47,"used":true},{"PRN":11,"el":14,"az":291,"ss":39,"used":true},{"PRN":31,"el":49,"az":207,"ss":49,"used":true}]} 
53.573          GPSD_json            pGPSd           {"class":"SKY","device":"/dev/garmingps","xdop":0.56,"ydop":0.76,"vdop":1.29,"tdop":0.79,"hdop":0.95,"gdop":1.78,"pdop":1.60,"satellites":[{"PRN":20,"el":18,"az":140,"ss":29,"used":true},{"PRN":10,"el":48,"az":136,"ss":48,"used":true},{"PRN":24,"el":4,"az":46,"ss":36,"used":false},{"PRN":22,"el":17,"az":311,"ss":43,"used":true},{"PRN":32,"el":72,"az":28,"ss":46,"used":true},{"PRN":25,"el":31,"az":102,"ss":47,"used":true},{"PRN":1,"el":27,"az":305,"ss":40,"used":true},{"PRN":14,"el":65,"az":299,"ss":46,"used":true},{"PRN":12,"el":21,"az":56,"ss":46,"used":true},{"PRN":11,"el":14,"az":291,"ss":39,"used":true},{"PRN":31,"el":49,"az":207,"ss":50,"used":true}]} 
54.574          GPSD_json            pGPSd           {"class":"SKY","device":"/dev/garmingps","xdop":0.56,"ydop":0.76,"vdop":1.29,"tdop":0.79,"hdop":0.95,"gdop":1.78,"pdop":1.60,"satellites":[{"PRN":20,"el":18,"az":140,"ss":33,"used":true},{"PRN":10,"el":48,"az":136,"ss":48,"used":true},{"PRN":24,"el":4,"az":46,"ss":36,"used":false},{"PRN":22,"el":17,"az":311,"ss":44,"used":true},{"PRN":32,"el":72,"az":28,"ss":46,"used":true},{"PRN":25,"el":31,"az":102,"ss":48,"used":true},{"PRN":1,"el":27,"az":305,"ss":40,"used":true},{"PRN":14,"el":65,"az":299,"ss":44,"used":true},{"PRN":12,"el":21,"az":56,"ss":46,"used":true},{"PRN":11,"el":14,"az":291,"ss":38,"used":true},{"PRN":31,"el":49,"az":207,"ss":50,"used":true}]} 
55.575          GPSD_json            pGPSd           {"class":"SKY","device":"/dev/garmingps","xdop":0.56,"ydop":0.76,"vdop":1.29,"tdop":0.79,"hdop":0.95,"gdop":1.78,"pdop":1.60,"satellites":[{"PRN":20,"el":17,"az":140,"ss":36,"used":true},{"PRN":10,"el":48,"az":136,"ss":47,"used":true},{"PRN":24,"el":4,"az":46,"ss":36,"used":false},{"PRN":22,"el":17,"az":311,"ss":44,"used":true},{"PRN":32,"el":72,"az":28,"ss":46,"used":true},{"PRN":25,"el":31,"az":102,"ss":48,"used":true},{"PRN":1,"el":27,"az":305,"ss":40,"used":true},{"PRN":14,"el":65,"az":299,"ss":45,"used":true},{"PRN":12,"el":21,"az":56,"ss":46,"used":true},{"PRN":11,"el":14,"az":291,"ss":38,"used":true},{"PRN":31,"el":49,"az":207,"ss":50,"used":true}]} 
56.578          GPSD_json            pGPSd           {"class":"SKY","device":"/dev/garmingps","xdop":0.56,"ydop":0.76,"vdop":1.29,"tdop":0.79,"hdop":0.95,"gdop":1.78,"pdop":1.60,"satellites":[{"PRN":20,"el":17,"az":140,"ss":38,"used":true},{"PRN":10,"el":48,"az":136,"ss":48,"used":true},{"PRN":24,"el":4,"az":46,"ss":36,"used":false},{"PRN":22,"el":17,"az":311,"ss":44,"used":true},{"PRN":32,"el":72,"az":28,"ss":46,"used":true},{"PRN":25,"el":31,"az":102,"ss":48,"used":true},{"PRN":1,"el":27,"az":305,"ss":40,"used":true},{"PRN":14,"el":65,"az":299,"ss":45,"used":true},{"PRN":12,"el":21,"az":56,"ss":46,"used":true},{"PRN":11,"el":14,"az":291,"ss":39,"used":true},{"PRN":31,"el":49,"az":207,"ss":49,"used":true}]} 
57.580          GPSD_json            pGPSd           {"class":"SKY","device":"/dev/garmingps","xdop":0.56,"ydop":0.76,"vdop":1.29,"tdop":0.79,"hdop":0.95,"gdop":1.78,"pdop":1.60,"satellites":[{"PRN":20,"el":17,"az":140,"ss":39,"used":true},{"PRN":10,"el":48,"az":136,"ss":47,"used":true},{"PRN":24,"el":4,"az":46,"ss":36,"used":false},{"PRN":22,"el":17,"az":311,"ss":43,"used":true},{"PRN":32,"el":72,"az":28,"ss":45,"used":true},{"PRN":25,"el":31,"az":102,"ss":47,"used":true},{"PRN":1,"el":27,"az":305,"ss":40,"used":true},{"PRN":14,"el":65,"az":299,"ss":45,"used":true},{"PRN":12,"el":21,"az":56,"ss":46,"used":true},{"PRN":11,"el":14,"az":291,"ss":39,"used":true},{"PRN":31,"el":49,"az":207,"ss":48,"used":true}]} 
58.582          GPSD_json            pGPSd           {"class":"SKY","device":"/dev/garmingps","xdop":0.56,"ydop":0.76,"vdop":1.29,"tdop":0.79,"hdop":0.95,"gdop":1.78,"pdop":1.60,"satellites":[{"PRN":20,"el":17,"az":140,"ss":41,"used":true},{"PRN":10,"el":48,"az":136,"ss":48,"used":true},{"PRN":24,"el":4,"az":46,"ss":36,"used":false},{"PRN":22,"el":17,"az":311,"ss":43,"used":true},{"PRN":32,"el":72,"az":28,"ss":45,"used":true},{"PRN":25,"el":31,"az":102,"ss":47,"used":true},{"PRN":1,"el":27,"az":305,"ss":41,"used":true},{"PRN":14,"el":65,"az":299,"ss":45,"used":true},{"PRN":12,"el":21,"az":56,"ss":47,"used":true},{"PRN":11,"el":14,"az":291,"ss":38,"used":true},{"PRN":31,"el":49,"az":207,"ss":48,"used":true}]} 
59.584          GPSD_json            pGPSd           {"class":"SKY","device":"/dev/garmingps","xdop":0.56,"ydop":0.76,"vdop":1.29,"tdop":0.79,"hdop":0.95,"gdop":1.78,"pdop":1.60,"satellites":[{"PRN":20,"el":17,"az":140,"ss":42,"used":true},{"PRN":10,"el":48,"az":136,"ss":48,"used":true},{"PRN":24,"el":4,"az":46,"ss":36,"used":false},{"PRN":22,"el":18,"az":311,"ss":43,"used":true},{"PRN":32,"el":72,"az":28,"ss":45,"used":true},{"PRN":25,"el":31,"az":102,"ss":48,"used":true},{"PRN":1,"el":27,"az":305,"ss":41,"used":true},{"PRN":14,"el":65,"az":299,"ss":45,"used":true},{"PRN":12,"el":21,"az":56,"ss":47,"used":true},{"PRN":11,"el":14,"az":291,"ss":38,"used":true},{"PRN":31,"el":49,"az":207,"ss":48,"used":true}]} 
60.587          GPSD_json            pGPSd           {"class":"SKY","device":"/dev/garmingps","xdop":0.56,"ydop":0.76,"vdop":1.29,"tdop":0.79,"hdop":0.95,"gdop":1.78,"pdop":1.60,"satellites":[{"PRN":20,"el":17,"az":140,"ss":42,"used":true},{"PRN":10,"el":48,"az":136,"ss":47,"used":true},{"PRN":24,"el":4,"az":46,"ss":36,"used":false},{"PRN":22,"el":18,"az":311,"ss":43,"used":true},{"PRN":32,"el":72,"az":28,"ss":46,"used":true},{"PRN":25,"el":31,"az":102,"ss":48,"used":true},{"PRN":1,"el":27,"az":305,"ss":41,"used":true},{"PRN":14,"el":65,"az":299,"ss":45,"used":true},{"PRN":12,"el":21,"az":56,"ss":47,"used":true},{"PRN":11,"el":14,"az":291,"ss":38,"used":true},{"PRN":31,"el":49,"az":207,"ss":46,"used":true}]} 
61.589          GPSD_json            pGPSd           {"class":"SKY","device":"/dev/garmingps","xdop":0.56,"ydop":0.76,"vdop":1.29,"tdop":0.79,"hdop":0.95,"gdop":1.78,"pdop":1.60,"satellites":[{"PRN":20,"el":17,"az":140,"ss":42,"used":true},{"PRN":10,"el":48,"az":136,"ss":48,"used":true},{"PRN":24,"el":4,"az":46,"ss":36,"used":false},{"PRN":22,"el":18,"az":311,"ss":42,"used":true},{"PRN":32,"el":72,"az":28,"ss":46,"used":true},{"PRN":25,"el":31,"az":102,"ss":48,"used":true},{"PRN":1,"el":27,"az":305,"ss":41,"used":true},{"PRN":14,"el":65,"az":299,"ss":45,"used":true},{"PRN":12,"el":21,"az":56,"ss":47,"used":true},{"PRN":11,"el":14,"az":291,"ss":38,"used":true},{"PRN":31,"el":49,"az":207,"ss":45,"used":true}]} 
62.593          GPSD_json            pGPSd           {"class":"SKY","device":"/dev/garmingps","xdop":0.56,"ydop":0.76,"vdop":1.29,"tdop":0.79,"hdop":0.95,"gdop":1.78,"pdop":1.60,"satellites":[{"PRN":20,"el":17,"az":140,"ss":42,"used":true},{"PRN":10,"el":48,"az":136,"ss":48,"used":true},{"PRN":24,"el":4,"az":46,"ss":36,"used":false},{"PRN":22,"el":18,"az":311,"ss":41,"used":true},{"PRN":32,"el":72,"az":28,"ss":44,"used":true},{"PRN":25,"el":31,"az":102,"ss":47,"used":true},{"PRN":1,"el":27,"az":305,"ss":41,"used":true},{"PRN":14,"el":65,"az":299,"ss":45,"used":true},{"PRN":12,"el":21,"az":56,"ss":47,"used":true},{"PRN":11,"el":14,"az":291,"ss":39,"used":true},{"PRN":31,"el":49,"az":207,"ss":45,"used":true}]} 
63.343          GPSD_json            pGPSd           {"class":"SKY","device":"/dev/garmingps","xdop":0.56,"ydop":0.76,"vdop":1.29,"tdop":0.79,"hdop":0.95,"gdop":1.78,"pdop":1.60,"satellites":[{"PRN":20,"el":17,"az":140,"ss":41,"used":true},{"PRN":10,"el":48,"az":136,"ss":48,"used":true},{"PRN":24,"el":3,"az":46,"ss":36,"used":false},{"PRN":22,"el":18,"az":311,"ss":41,"used":true},{"PRN":32,"el":72,"az":28,"ss":47,"used":true},{"PRN":25,"el":31,"az":102,"ss":48,"used":true},{"PRN":1,"el":27,"az":305,"ss":41,"used":true},{"PRN":14,"el":65,"az":299,"ss":46,"used":true},{"PRN":12,"el":21,"az":56,"ss":47,"used":true},{"PRN":11,"el":14,"az":291,"ss":39,"used":true},{"PRN":31,"el":49,"az":207,"ss":43,"used":true}]} 
64.596          GPSD_json            pGPSd           {"class":"SKY","device":"/dev/garmingps","xdop":0.56,"ydop":0.76,"vdop":1.29,"tdop":0.79,"hdop":0.95,"gdop":1.78,"pdop":1.60,"satellites":[{"PRN":20,"el":17,"az":140,"ss":40,"used":true},{"PRN":10,"el":48,"az":136,"ss":49,"used":true},{"PRN":24,"el":3,"az":46,"ss":36,"used":false},{"PRN":22,"el":18,"az":311,"ss":41,"used":true},{"PRN":32,"el":72,"az":28,"ss":45,"used":true},{"PRN":25,"el":31,"az":102,"ss":48,"used":true},{"PRN":1,"el":27,"az":305,"ss":42,"used":true},{"PRN":14,"el":65,"az":299,"ss":45,"used":true},{"PRN":12,"el":21,"az":56,"ss":47,"used":true},{"PRN":11,"el":14,"az":291,"ss":39,"used":true},{"PRN":31,"el":49,"az":207,"ss":44,"used":true}]} 
65.347          GPSD_json            pGPSd           {"class":"SKY","device":"/dev/garmingps","xdop":0.56,"ydop":0.76,"vdop":1.29,"tdop":0.79,"hdop":0.95,"gdop":1.78,"pdop":1.60,"satellites":[{"PRN":20,"el":17,"az":140,"ss":40,"used":true},{"PRN":10,"el":48,"az":136,"ss":48,"used":true},{"PRN":24,"el":3,"az":46,"ss":35,"used":false},{"PRN":22,"el":18,"az":311,"ss":41,"used":true},{"PRN":32,"el":72,"az":28,"ss":47,"used":true},{"PRN":25,"el":31,"az":101,"ss":48,"used":true},{"PRN":1,"el":27,"az":305,"ss":42,"used":true},{"PRN":14,"el":65,"az":299,"ss":45,"used":true},{"PRN":12,"el":21,"az":56,"ss":47,"used":true},{"PRN":11,"el":14,"az":291,"ss":39,"used":true},{"PRN":31,"el":49,"az":207,"ss":45,"used":true}]} 
66.599          GPSD_json            pGPSd           {"class":"SKY","device":"/dev/garmingps","xdop":0.56,"ydop":0.76,"vdop":1.29,"tdop":0.79,"hdop":0.95,"gdop":1.78,"pdop":1.60,"satellites":[{"PRN":20,"el":17,"az":140,"ss":39,"used":true},{"PRN":10,"el":48,"az":136,"ss":46,"used":true},{"PRN":24,"el":3,"az":46,"ss":35,"used":false},{"PRN":22,"el":18,"az":311,"ss":41,"used":true},{"PRN":32,"el":72,"az":28,"ss":47,"used":true},{"PRN":25,"el":31,"az":101,"ss":47,"used":true},{"PRN":1,"el":27,"az":305,"ss":40,"used":true},{"PRN":14,"el":65,"az":299,"ss":46,"used":true},{"PRN":12,"el":21,"az":56,"ss":45,"used":true},{"PRN":11,"el":14,"az":291,"ss":39,"used":true},{"PRN":31,"el":49,"az":207,"ss":46,"used":true}]} 
67.349          GPSD_json            pGPSd           {"class":"SKY","device":"/dev/garmingps","xdop":0.56,"ydop":0.76,"vdop":1.29,"tdop":0.79,"hdop":0.95,"gdop":1.78,"pdop":1.60,"satellites":[{"PRN":20,"el":17,"az":140,"ss":39,"used":true},{"PRN":10,"el":48,"az":136,"ss":46,"used":true},{"PRN":24,"el":3,"az":46,"ss":36,"used":false},{"PRN":22,"el":18,"az":311,"ss":41,"used":true},{"PRN":32,"el":72,"az":28,"ss":47,"used":true},{"PRN":25,"el":31,"az":101,"ss":48,"used":true},{"PRN":1,"el":27,"az":305,"ss":41,"used":true},{"PRN":14,"el":65,"az":299,"ss":47,"used":true},{"PRN":12,"el":21,"az":56,"ss":45,"used":true},{"PRN":11,"el":14,"az":291,"ss":39,"used":true},{"PRN":31,"el":49,"az":207,"ss":47,"used":true}]} 
68.601          GPSD_json            pGPSd           {"class":"SKY","device":"/dev/garmingps","xdop":0.56,"ydop":0.76,"vdop":1.29,"tdop":0.79,"hdop":0.95,"gdop":1.78,"pdop":1.60,"satellites":[{"PRN":20,"el":17,"az":140,"ss":40,"used":true},{"PRN":10,"el":48,"az":136,"ss":46,"used":true},{"PRN":24,"el":3,"az":46,"ss":36,"used":false},{"PRN":22,"el":18,"az":311,"ss":41,"used":true},{"PRN":32,"el":72,"az":28,"ss":48,"used":true},{"PRN":25,"el":31,"az":101,"ss":47,"used":true},{"PRN":1,"el":27,"az":305,"ss":42,"used":true},{"PRN":14,"el":65,"az":299,"ss":46,"used":true},{"PRN":12,"el":21,"az":56,"ss":44,"used":true},{"PRN":11,"el":14,"az":291,"ss":39,"used":true},{"PRN":31,"el":49,"az":207,"ss":48,"used":true}]} 
69.353          GPSD_json            pGPSd           {"class":"SKY","device":"/dev/garmingps","xdop":0.56,"ydop":0.76,"vdop":1.29,"tdop":0.79,"hdop":0.95,"gdop":1.78,"pdop":1.60,"satellites":[{"PRN":20,"el":17,"az":140,"ss":40,"used":true},{"PRN":10,"el":48,"az":136,"ss":46,"used":true},{"PRN":24,"el":3,"az":46,"ss":36,"used":false},{"PRN":22,"el":18,"az":311,"ss":41,"used":true},{"PRN":32,"el":72,"az":28,"ss":48,"used":true},{"PRN":25,"el":31,"az":101,"ss":48,"used":true},{"PRN":1,"el":27,"az":305,"ss":41,"used":true},{"PRN":14,"el":65,"az":299,"ss":47,"used":true},{"PRN":12,"el":21,"az":56,"ss":44,"used":true},{"PRN":11,"el":14,"az":291,"ss":38,"used":true},{"PRN":31,"el":49,"az":207,"ss":47,"used":true}]} 
70.606          GPSD_json            pGPSd           {"class":"SKY","device":"/dev/garmingps","xdop":0.56,"ydop":0.76,"vdop":1.29,"tdop":0.79,"hdop":0.95,"gdop":1.78,"pdop":1.60,"satellites":[{"PRN":20,"el":17,"az":140,"ss":41,"used":true},{"PRN":10,"el":48,"az":136,"ss":48,"used":true},{"PRN":24,"el":3,"az":46,"ss":36,"used":false},{"PRN":22,"el":18,"az":311,"ss":40,"used":true},{"PRN":32,"el":72,"az":28,"ss":50,"used":true},{"PRN":25,"el":31,"az":101,"ss":47,"used":true},{"PRN":1,"el":27,"az":305,"ss":40,"used":true},{"PRN":14,"el":65,"az":299,"ss":48,"used":true},{"PRN":12,"el":21,"az":56,"ss":45,"used":true},{"PRN":11,"el":14,"az":291,"ss":38,"used":true},{"PRN":31,"el":49,"az":207,"ss":47,"used":true}]} 
71.357          GPSD_json            pGPSd           {"class":"SKY","device":"/dev/garmingps","xdop":0.56,"ydop":0.76,"vdop":1.29,"tdop":0.79,"hdop":0.95,"gdop":1.78,"pdop":1.60,"satellites":[{"PRN":20,"el":17,"az":140,"ss":41,"used":true},{"PRN":10,"el":48,"az":136,"ss":47,"used":true},{"PRN":24,"el":3,"az":46,"ss":36,"used":false},{"PRN":22,"el":18,"az":311,"ss":40,"used":true},{"PRN":32,"el":72,"az":28,"ss":49,"used":true},{"PRN":25,"el":31,"az":101,"ss":46,"used":true},{"PRN":1,"el":27,"az":305,"ss":40,"used":true},{"PRN":14,"el":65,"az":299,"ss":47,"used":true},{"PRN":12,"el":21,"az":56,"ss":47,"used":true},{"PRN":11,"el":14,"az":291,"ss":39,"used":true},{"PRN":31,"el":49,"az":207,"ss":47,"used":true}]} 
72.610          GPSD_json            pGPSd           {"class":"SKY","device":"/dev/garmingps","xdop":0.56,"ydop":0.76,"vdop":1.29,"tdop":0.79,"hdop":0.95,"gdop":1.78,"pdop":1.60,"satellites":[{"PRN":20,"el":17,"az":140,"ss":41,"used":true},{"PRN":10,"el":48,"az":136,"ss":45,"used":true},{"PRN":24,"el":3,"az":46,"ss":36,"used":false},{"PRN":22,"el":18,"az":311,"ss":40,"used":true},{"PRN":32,"el":72,"az":28,"ss":50,"used":true},{"PRN":25,"el":31,"az":101,"ss":46,"used":true},{"PRN":1,"el":27,"az":305,"ss":41,"used":true},{"PRN":14,"el":65,"az":299,"ss":47,"used":true},{"PRN":12,"el":21,"az":56,"ss":47,"used":true},{"PRN":11,"el":14,"az":291,"ss":39,"used":true},{"PRN":31,"el":49,"az":207,"ss":47,"used":true}]} 
73.361          GPSD_json            pGPSd           {"class":"SKY","device":"/dev/garmingps","xdop":0.56,"ydop":0.76,"vdop":1.29,"tdop":0.79,"hdop":0.95,"gdop":1.78,"pdop":1.60,"satellites":[{"PRN":20,"el":17,"az":140,"ss":41,"used":true},{"PRN":10,"el":48,"az":136,"ss":45,"used":true},{"PRN":24,"el":3,"az":46,"ss":36,"used":false},{"PRN":22,"el":18,"az":311,"ss":40,"used":true},{"PRN":32,"el":72,"az":28,"ss":49,"used":true},{"PRN":25,"el":31,"az":101,"ss":45,"used":true},{"PRN":1,"el":27,"az":305,"ss":42,"used":true},{"PRN":14,"el":65,"az":299,"ss":47,"used":true},{"PRN":12,"el":21,"az":56,"ss":48,"used":true},{"PRN":11,"el":14,"az":291,"ss":39,"used":true},{"PRN":31,"el":49,"az":207,"ss":46,"used":true}]} 
74.612          GPSD_json            pGPSd           {"class":"SKY","device":"/dev/garmingps","xdop":0.56,"ydop":0.76,"vdop":1.29,"tdop":0.79,"hdop":0.95,"gdop":1.78,"pdop":1.60,"satellites":[{"PRN":20,"el":17,"az":140,"ss":41,"used":true},{"PRN":10,"el":48,"az":136,"ss":45,"used":true},{"PRN":24,"el":3,"az":46,"ss":36,"used":false},{"PRN":22,"el":18,"az":311,"ss":40,"used":true},{"PRN":32,"el":72,"az":28,"ss":50,"used":true},{"PRN":25,"el":31,"az":101,"ss":45,"used":true},{"PRN":1,"el":27,"az":305,"ss":42,"used":true},{"PRN":14,"el":65,"az":299,"ss":47,"used":true},{"PRN":12,"el":21,"az":56,"ss":48,"used":true},{"PRN":11,"el":14,"az":291,"ss":39,"used":true},{"PRN":31,"el":49,"az":207,"ss":45,"used":true}]} 
75.364          GPSD_json            pGPSd           {"class":"SKY","device":"/dev/garmingps","xdop":0.56,"ydop":0.76,"vdop":1.29,"tdop":0.79,"hdop":0.95,"gdop":1.78,"pdop":1.60,"satellites":[{"PRN":20,"el":17,"az":140,"ss":42,"used":true},{"PRN":10,"el":48,"az":136,"ss":46,"used":true},{"PRN":24,"el":3,"az":46,"ss":36,"used":false},{"PRN":22,"el":18,"az":311,"ss":40,"used":true},{"PRN":32,"el":72,"az":28,"ss":49,"used":true},{"PRN":25,"el":31,"az":101,"ss":45,"used":true},{"PRN":1,"el":27,"az":305,"ss":41,"used":true},{"PRN":14,"el":65,"az":299,"ss":47,"used":true},{"PRN":12,"el":21,"az":56,"ss":48,"used":true},{"PRN":11,"el":14,"az":291,"ss":39,"used":true},{"PRN":31,"el":49,"az":207,"ss":46,"used":true}]} 
76.366          GPSD_json            pGPSd           {"class":"SKY","device":"/dev/garmingps","xdop":0.56,"ydop":0.76,"vdop":1.29,"tdop":0.79,"hdop":0.95,"gdop":1.78,"pdop":1.60,"satellites":[{"PRN":20,"el":17,"az":140,"ss":42,"used":true},{"PRN":10,"el":48,"az":136,"ss":46,"used":true},{"PRN":24,"el":3,"az":46,"ss":36,"used":false},{"PRN":22,"el":18,"az":311,"ss":40,"used":true},{"PRN":32,"el":72,"az":28,"ss":49,"used":true},{"PRN":25,"el":31,"az":101,"ss":45,"used":true},{"PRN":1,"el":27,"az":305,"ss":41,"used":true},{"PRN":14,"el":65,"az":299,"ss":47,"used":true},{"PRN":12,"el":21,"az":56,"ss":47,"used":true},{"PRN":11,"el":14,"az":291,"ss":40,"used":true},{"PRN":31,"el":49,"az":207,"ss":47,"used":true}]} 
77.619          GPSD_json            pGPSd           {"class":"SKY","device":"/dev/garmingps","xdop":0.56,"ydop":0.76,"vdop":1.29,"tdop":0.79,"hdop":0.95,"gdop":1.78,"pdop":1.60,"satellites":[{"PRN":20,"el":17,"az":140,"ss":43,"used":true},{"PRN":10,"el":48,"az":136,"ss":45,"used":true},{"PRN":24,"el":3,"az":46,"ss":36,"used":false},{"PRN":22,"el":18,"az":311,"ss":40,"used":true},{"PRN":32,"el":72,"az":28,"ss":49,"used":true},{"PRN":25,"el":31,"az":101,"ss":46,"used":true},{"PRN":1,"el":27,"az":305,"ss":41,"used":true},{"PRN":14,"el":65,"az":299,"ss":48,"used":true},{"PRN":12,"el":21,"az":56,"ss":47,"used":true},{"PRN":11,"el":14,"az":291,"ss":40,"used":true},{"PRN":31,"el":49,"az":207,"ss":47,"used":true}]} 
78.370          GPSD_json            pGPSd           {"class":"SKY","device":"/dev/garmingps","xdop":0.56,"ydop":0.76,"vdop":1.29,"tdop":0.79,"hdop":0.95,"gdop":1.78,"pdop":1.60,"satellites":[{"PRN":20,"el":17,"az":140,"ss":41,"used":true},{"PRN":10,"el":48,"az":136,"ss":46,"used":true},{"PRN":24,"el":3,"az":46,"ss":36,"used":false},{"PRN":22,"el":18,"az":311,"ss":40,"used":true},{"PRN":32,"el":72,"az":28,"ss":49,"used":true},{"PRN":25,"el":31,"az":101,"ss":46,"used":true},{"PRN":1,"el":27,"az":305,"ss":40,"used":true},{"PRN":14,"el":65,"az":299,"ss":48,"used":true},{"PRN":12,"el":21,"az":56,"ss":47,"used":true},{"PRN":11,"el":14,"az":291,"ss":40,"used":true},{"PRN":31,"el":49,"az":207,"ss":47,"used":true}]} 
79.372          GPSD_json            pGPSd           {"class":"SKY","device":"/dev/garmingps","xdop":0.56,"ydop":0.76,"vdop":1.29,"tdop":0.79,"hdop":0.95,"gdop":1.78,"pdop":1.60,"satellites":[{"PRN":20,"el":17,"az":140,"ss":40,"used":true},{"PRN":10,"el":48,"az":136,"ss":47,"used":true},{"PRN":24,"el":3,"az":46,"ss":36,"used":false},{"PRN":22,"el":18,"az":311,"ss":40,"used":true},{"PRN":32,"el":72,"az":30,"ss":49,"used":true},{"PRN":25,"el":31,"az":101,"ss":46,"used":true},{"PRN":1,"el":27,"az":305,"ss":40,"used":true},{"PRN":14,"el":65,"az":299,"ss":47,"used":true},{"PRN":12,"el":21,"az":56,"ss":48,"used":true},{"PRN":11,"el":14,"az":291,"ss":40,"used":true},{"PRN":31,"el":49,"az":207,"ss":47,"used":true}]} 
80.374          GPSD_json            pGPSd           {"class":"SKY","device":"/dev/garmingps","xdop":0.56,"ydop":0.76,"vdop":1.29,"tdop":0.79,"hdop":0.95,"gdop":1.78,"pdop":1.60,"satellites":[{"PRN":20,"el":17,"az":140,"ss":41,"used":true},{"PRN":10,"el":48,"az":136,"ss":49,"used":true},{"PRN":24,"el":3,"az":46,"ss":36,"used":false},{"PRN":22,"el":18,"az":311,"ss":38,"used":true},{"PRN":32,"el":72,"az":30,"ss":49,"used":true},{"PRN":25,"el":31,"az":101,"ss":47,"used":true},{"PRN":1,"el":27,"az":305,"ss":40,"used":true},{"PRN":14,"el":65,"az":299,"ss":47,"used":true},{"PRN":12,"el":21,"az":56,"ss":48,"used":true},{"PRN":11,"el":14,"az":291,"ss":40,"used":true},{"PRN":31,"el":49,"az":207,"ss":47,"used":true}]} 
81.377          GPSD_json            pGPSd           {"class":"SKY","device":"/dev/garmingps","xdop":0.56,"ydop":0.76,"vdop":1.29,"tdop":0.79,"hdop":0.95,"gdop":1.78,"pdop":1.60,"satellites":[{"PRN":20,"el":17,"az":140,"ss":41,"used":true},{"PRN":10,"el":48,"az":136,"ss":49,"used":true},{"PRN":24,"el":3,"az":46,"ss":36,"used":false},{"PRN":22,"el":18,"az":311,"ss":39,"used":true},{"PRN":32,"el":72,"az":30,"ss":49,"used":true},{"PRN":25,"el":31,"az":101,"ss":46,"used":true},{"PRN":1,"el":28,"az":304,"ss":39,"used":true},{"PRN":14,"el":65,"az":299,"ss":47,"used":true},{"PRN":12,"el":21,"az":56,"ss":47,"used":true},{"PRN":11,"el":14,"az":291,"ss":40,"used":true},{"PRN":31,"el":49,"az":207,"ss":46,"used":true}]} 
82.378          GPSD_json            pGPSd           {"class":"SKY","device":"/dev/garmingps","xdop":0.56,"ydop":0.76,"vdop":1.29,"tdop":0.79,"hdop":0.95,"gdop":1.78,"pdop":1.60,"satellites":[{"PRN":20,"el":17,"az":140,"ss":41,"used":true},{"PRN":10,"el":48,"az":136,"ss":50,"used":true},{"PRN":24,"el":3,"az":46,"ss":36,"used":false},{"PRN":22,"el":18,"az":311,"ss":39,"used":true},{"PRN":32,"el":72,"az":30,"ss":49,"used":true},{"PRN":25,"el":31,"az":101,"ss":47,"used":true},{"PRN":1,"el":28,"az":304,"ss":39,"used":true},{"PRN":14,"el":65,"az":299,"ss":47,"used":true},{"PRN":12,"el":21,"az":56,"ss":47,"used":true},{"PRN":11,"el":14,"az":291,"ss":40,"used":true},{"PRN":31,"el":49,"az":207,"ss":46,"used":true}]} 
