0.964           GPSD_json            pGPSd           {"class":"SKY","device":"/dev/garmingps","xdop":0.58,"ydop":0.59,"vdop":1.17,"tdop":0.73,"hdop":0.82,"gdop":1.60,"pdop":1.43,"satellites":[{"PRN":10,"el":18,"az":150,"ss":43,"used":true},{"PRN":3,"el":24,"az":315,"ss":41,"used":true},{"PRN":26,"el":21,"az":171,"ss":42,"used":true},{"PRN":22,"el":43,"az":302,"ss":46,"used":true},{"PRN":32,"el":50,"az":81,"ss":45,"used":true},{"PRN":25,"el":35,"az":64,"ss":47,"used":true},{"PRN":1,"el":26,"az":271,"ss":43,"used":true},{"PRN":14,"el":73,"az":31,"ss":44,"used":true},{"PRN":12,"el":7,"az":31,"ss":43,"used":true},{"PRN":11,"el":3,"az":264,"ss":43,"used":false},{"PRN":31,"el":83,"az":231,"ss":48,"used":true}]}
1.966           GPSD_json            pGPSd           {"class":"SKY","device":"/dev/garmingps","xdop":0.58,"ydop":0.59,"vdop":1.17,"tdop":0.73,"hdop":0.82,"gdop":1.60,"pdop":1.43,"satellites":[{"PRN":10,"el":18,"az":150,"ss":43,"used":true},{"PRN":3,"el":24,"az":315,"ss":39,"used":true},{"PRN":26,"el":21,"az":171,"ss":42,"used":true},{"PRN":22,"el":43,"az":302,"ss":46,"used":true},{"PRN":32,"el":50,"az":81,"ss":46,"used":true},{"PRN":25,"el":35,"az":64,"ss":46,"used":true},{"PRN":1,"el":26,"az":271,"ss":44,"used":true},{"PRN":14,"el":73,"az":31,"ss":43,"used":true},{"PRN":12,"el":7,"az":31,"ss":43,"used":true},{"PRN":11,"el":3,"az":264,"ss":42,"used":false},{"PRN":31,"el":83,"az":231,"ss":47,"used":true}]} 
2.968           GPSD_json            pGPSd           {"class":"SKY","device":"/dev/garmingps","xdop":0.58,"ydop":0.59,"vdop":1.17,"tdop":0.73,"hdop":0.82,"gdop":1.60,"pdop":1.43,"satellites":[{"PRN":10,"el":18,"az":150,"ss":43,"used":true},{"PRN":3,"el":24,"az":315,"ss":40,"used":true},{"PRN":26,"el":21,"az":171,"ss":42,"used":true},{"PRN":22,"el":43,"az":302,"ss":45,"used":true},{"PRN":32,"el":50,"az":81,"ss":46,"used":true},{"PRN":25,"el":35,"az":64,"ss":46,"used":true},{"PRN":1,"el":26,"az":271,"ss":43,"used":true},{"PRN":14,"el":73,"az":31,"ss":43,"used":true},{"PRN":12,"el":7,"az":31,"ss":43,"used":true},{"PRN":11,"el":3,"az":264,"ss":42,"used":false},{"PRN":31,"el":83,"az":231,"ss":47,"used":true}]} 
2.968           GPSD_json            pGPSd           {"class":"SKY","device":"/dev/garmingps","xdop":0.58,"ydop":0.59,"vdop":1.17,"tdop":0.73,"hdop":0.82,"gdop":1.60,"pdop":1.43,"satellites":[{"PRN":10,"el":18,"az":150,"ss":43,"used":true},{"PRN":3,"el":24,"az":315,"ss":40,"used":true},{"PRN":26,"el":21,"az":171,"ss":42,"used":true},{"PRN":22,"el":43,"az":302,"ss":45,"used":true},{"PRN":32,"el":50,"az":81,"ss":46,"used":true},{"PRN":25,"el":35,"az":64,"ss":46,"used":true},{"PRN":1,"el":26,"az":271,"ss":43,"used":true},{"PRN":14,"el":73,"az":31,"ss":43,"used":true},{"PRN":12,"el":7,"az":31,"ss":43,"used":true},{"PRN":11,"el":3,"az":264,"ss":42,"used":false},{"PRN":31,"el":83,"az":231,"ss":47,"used":true}]} 
3.970           GPSD_json            pGPSd           {"class":"SKY","device":"/dev/garmingps","xdop":0.58,"ydop":0.59,"vdop":1.17,"tdop":0.73,"hdop":0.82,"gdop":1.60,"pdop":1.43,"satellites":[{"PRN":10,"el":18,"az":150,"ss":43,"used":true},{"PRN":3,"el":24,"az":315,"ss":40,"used":true},{"PRN":26,"el":21,"az":171,"ss":43,"used":true},{"PRN":22,"el":44,"az":302,"ss":44,"used":true},{"PRN":32,"el":50,"az":81,"ss":45,"used":true},{"PRN":25,"el":35,"az":64,"ss":46,"used":true},{"PRN":1,"el":26,"az":271,"ss":43,"used":true},{"PRN":14,"el":73,"az":31,"ss":41,"used":true},{"PRN":12,"el":7,"az":31,"ss":43,"used":true},{"PRN":11,"el":3,"az":264,"ss":42,"used":false},{"PRN":31,"el":83,"az":231,"ss":47,"used":true}]} 
3.970           GPSD_json            pGPSd           {"class":"SKY","device":"/dev/garmingps","xdop":0.58,"ydop":0.59,"vdop":1.17,"tdop":0.73,"hdop":0.82,"gdop":1.60,"pdop":1.43,"satellites":[{"PRN":10,"el":18,"az":150,"ss":43,"used":true},{"PRN":3,"el":24,"az":315,"ss":40,"used":true},{"PRN":26,"el":21,"az":171,"ss":43,"used":true},{"PRN":22,"el":44,"az":302,"ss":44,"used":true},{"PRN":32,"el":50,"az":81,"ss":45,"used":true},{"PRN":25,"el":35,"az":64,"ss":46,"used":true},{"PRN":1,"el":26,"az":271,"ss":43,"used":true},{"PRN":14,"el":73,"az":31,"ss":41,"used":true},{"PRN":12,"el":7,"az":31,"ss":43,"used":true},{"PRN":11,"el":3,"az":264,"ss":42,"used":false},{"PRN":31,"el":83,"az":231,"ss":47,"used":true}]} 
5.974           GPSD_json            pGPSd           {"class":"SKY","device":"/dev/garmingps","xdop":0.58,"ydop":0.59,"vdop":1.17,"tdop":0.73,"hdop":0.82,"gdop":1.60,"pdop":1.43,"satellites":[{"PRN":10,"el":18,"az":150,"ss":41,"used":true},{"PRN":3,"el":24,"az":315,"ss":40,"used":true},{"PRN":26,"el":21,"az":171,"ss":42,"used":true},{"PRN":22,"el":44,"az":302,"ss":45,"used":true},{"PRN":32,"el":50,"az":81,"ss":46,"used":true},{"PRN":25,"el":35,"az":64,"ss":47,"used":true},{"PRN":1,"el":26,"az":271,"ss":42,"used":true},{"PRN":14,"el":73,"az":31,"ss":45,"used":true},{"PRN":12,"el":7,"az":31,"ss":43,"used":true},{"PRN":11,"el":3,"az":264,"ss":42,"used":false},{"PRN":31,"el":83,"az":231,"ss":47,"used":true}]} 
6.975           GPSD_json            pGPSd           {"class":"SKY","device":"/dev/garmingps","xdop":0.58,"ydop":0.59,"vdop":1.17,"tdop":0.73,"hdop":0.82,"gdop":1.60,"pdop":1.43,"satellites":[{"PRN":10,"el":18,"az":150,"ss":41,"used":true},{"PRN":3,"el":24,"az":315,"ss":40,"used":true},{"PRN":26,"el":21,"az":171,"ss":42,"used":true},{"PRN":22,"el":44,"az":302,"ss":42,"used":true},{"PRN":32,"el":50,"az":81,"ss":46,"used":true},{"PRN":25,"el":35,"az":64,"ss":46,"used":true},{"PRN":1,"el":26,"az":271,"ss":42,"used":true},{"PRN":14,"el":73,"az":31,"ss":45,"used":true},{"PRN":12,"el":7,"az":31,"ss":43,"used":true},{"PRN":11,"el":3,"az":264,"ss":42,"used":false},{"PRN":31,"el":83,"az":231,"ss":46,"used":true}]} 
6.975           GPSD_json            pGPSd           {"class":"SKY","device":"/dev/garmingps","xdop":0.58,"ydop":0.59,"vdop":1.17,"tdop":0.73,"hdop":0.82,"gdop":1.60,"pdop":1.43,"satellites":[{"PRN":10,"el":18,"az":150,"ss":41,"used":true},{"PRN":3,"el":24,"az":315,"ss":40,"used":true},{"PRN":26,"el":21,"az":171,"ss":42,"used":true},{"PRN":22,"el":44,"az":302,"ss":42,"used":true},{"PRN":32,"el":50,"az":81,"ss":46,"used":true},{"PRN":25,"el":35,"az":64,"ss":46,"used":true},{"PRN":1,"el":26,"az":271,"ss":42,"used":true},{"PRN":14,"el":73,"az":31,"ss":45,"used":true},{"PRN":12,"el":7,"az":31,"ss":43,"used":true},{"PRN":11,"el":3,"az":264,"ss":42,"used":false},{"PRN":31,"el":83,"az":231,"ss":46,"used":true}]} 
8.979           GPSD_json            pGPSd           {"class":"SKY","device":"/dev/garmingps","xdop":0.58,"ydop":0.59,"vdop":1.17,"tdop":0.73,"hdop":0.82,"gdop":1.60,"pdop":1.43,"satellites":[{"PRN":10,"el":18,"az":150,"ss":42,"used":true},{"PRN":3,"el":24,"az":315,"ss":41,"used":true},{"PRN":26,"el":21,"az":171,"ss":41,"used":true},{"PRN":22,"el":44,"az":302,"ss":40,"used":true},{"PRN":32,"el":50,"az":81,"ss":48,"used":true},{"PRN":25,"el":35,"az":64,"ss":44,"used":true},{"PRN":1,"el":26,"az":271,"ss":43,"used":true},{"PRN":14,"el":73,"az":31,"ss":42,"used":true},{"PRN":12,"el":7,"az":31,"ss":43,"used":true},{"PRN":11,"el":3,"az":264,"ss":41,"used":false},{"PRN":31,"el":83,"az":231,"ss":47,"used":true}]} 
9.730           GPSD_json            pGPSd           {"class":"SKY","device":"/dev/garmingps","xdop":0.58,"ydop":0.59,"vdop":1.17,"tdop":0.73,"hdop":0.82,"gdop":1.60,"pdop":1.43,"satellites":[{"PRN":10,"el":18,"az":150,"ss":42,"used":true},{"PRN":3,"el":24,"az":315,"ss":41,"used":true},{"PRN":26,"el":21,"az":171,"ss":42,"used":true},{"PRN":22,"el":44,"az":302,"ss":43,"used":true},{"PRN":32,"el":50,"az":81,"ss":47,"used":true},{"PRN":25,"el":35,"az":63,"ss":44,"used":true},{"PRN":1,"el":26,"az":271,"ss":43,"used":true},{"PRN":14,"el":73,"az":31,"ss":43,"used":true},{"PRN":12,"el":7,"az":31,"ss":43,"used":true},{"PRN":11,"el":3,"az":264,"ss":41,"used":false},{"PRN":31,"el":83,"az":231,"ss":47,"used":true}]} 
10.983          GPSD_json            pGPSd           {"class":"SKY","device":"/dev/garmingps","xdop":0.58,"ydop":0.59,"vdop":1.17,"tdop":0.73,"hdop":0.82,"gdop":1.60,"pdop":1.43,"satellites":[{"PRN":10,"el":18,"az":150,"ss":42,"used":true},{"PRN":3,"el":24,"az":315,"ss":41,"used":true},{"PRN":26,"el":21,"az":171,"ss":41,"used":true},{"PRN":22,"el":44,"az":302,"ss":43,"used":true},{"PRN":32,"el":50,"az":81,"ss":46,"used":true},{"PRN":25,"el":35,"az":63,"ss":45,"used":true},{"PRN":1,"el":26,"az":271,"ss":44,"used":true},{"PRN":14,"el":73,"az":31,"ss":45,"used":true},{"PRN":12,"el":7,"az":31,"ss":42,"used":true},{"PRN":11,"el":3,"az":264,"ss":42,"used":false},{"PRN":31,"el":83,"az":231,"ss":46,"used":true}]} 
11.984          GPSD_json            pGPSd           {"class":"SKY","device":"/dev/garmingps","xdop":0.58,"ydop":0.59,"vdop":1.17,"tdop":0.73,"hdop":0.82,"gdop":1.60,"pdop":1.43,"satellites":[{"PRN":10,"el":18,"az":150,"ss":40,"used":true},{"PRN":3,"el":24,"az":315,"ss":40,"used":true},{"PRN":26,"el":21,"az":171,"ss":42,"used":true},{"PRN":22,"el":44,"az":302,"ss":45,"used":true},{"PRN":32,"el":50,"az":81,"ss":45,"used":true},{"PRN":25,"el":35,"az":63,"ss":47,"used":true},{"PRN":1,"el":26,"az":271,"ss":44,"used":true},{"PRN":14,"el":73,"az":31,"ss":46,"used":true},{"PRN":12,"el":7,"az":31,"ss":43,"used":true},{"PRN":11,"el":3,"az":264,"ss":43,"used":false},{"PRN":31,"el":83,"az":231,"ss":45,"used":true}]} 
12.986          GPSD_json            pGPSd           {"class":"SKY","device":"/dev/garmingps","xdop":0.58,"ydop":0.59,"vdop":1.17,"tdop":0.73,"hdop":0.82,"gdop":1.60,"pdop":1.43,"satellites":[{"PRN":10,"el":18,"az":150,"ss":40,"used":true},{"PRN":3,"el":24,"az":315,"ss":38,"used":true},{"PRN":26,"el":21,"az":171,"ss":42,"used":true},{"PRN":22,"el":44,"az":302,"ss":43,"used":true},{"PRN":32,"el":50,"az":81,"ss":47,"used":true},{"PRN":25,"el":35,"az":63,"ss":48,"used":true},{"PRN":1,"el":26,"az":271,"ss":45,"used":true},{"PRN":14,"el":73,"az":31,"ss":44,"used":true},{"PRN":12,"el":7,"az":31,"ss":44,"used":true},{"PRN":11,"el":3,"az":264,"ss":43,"used":false},{"PRN":31,"el":83,"az":231,"ss":45,"used":true}]} 
13.738          GPSD_json            pGPSd           {"class":"SKY","device":"/dev/garmingps","xdop":0.58,"ydop":0.59,"vdop":1.17,"tdop":0.73,"hdop":0.82,"gdop":1.60,"pdop":1.43,"satellites":[{"PRN":10,"el":18,"az":150,"ss":40,"used":true},{"PRN":3,"el":24,"az":315,"ss":40,"used":true},{"PRN":26,"el":21,"az":171,"ss":42,"used":true},{"PRN":22,"el":44,"az":302,"ss":43,"used":true},{"PRN":32,"el":50,"az":81,"ss":45,"used":true},{"PRN":25,"el":35,"az":63,"ss":46,"used":true},{"PRN":1,"el":26,"az":271,"ss":44,"used":true},{"PRN":14,"el":73,"az":31,"ss":45,"used":true},{"PRN":12,"el":7,"az":31,"ss":43,"used":true},{"PRN":11,"el":3,"az":264,"ss":43,"used":false},{"PRN":31,"el":83,"az":231,"ss":46,"used":true}]} 
14.991          GPSD_json            pGPSd           {"class":"SKY","device":"/dev/garmingps","xdop":0.58,"ydop":0.59,"vdop":1.17,"tdop":0.73,"hdop":0.82,"gdop":1.60,"pdop":1.43,"satellites":[{"PRN":10,"el":18,"az":150,"ss":41,"used":true},{"PRN":3,"el":24,"az":315,"ss":40,"used":true},{"PRN":26,"el":21,"az":171,"ss":42,"used":true},{"PRN":22,"el":44,"az":302,"ss":44,"used":true},{"PRN":32,"el":50,"az":81,"ss":46,"used":true},{"PRN":25,"el":35,"az":63,"ss":45,"used":true},{"PRN":1,"el":26,"az":271,"ss":42,"used":true},{"PRN":14,"el":73,"az":31,"ss":44,"used":true},{"PRN":12,"el":7,"az":31,"ss":42,"used":true},{"PRN":11,"el":3,"az":264,"ss":41,"used":false},{"PRN":31,"el":83,"az":231,"ss":47,"used":true}]} 
15.742          GPSD_json            pGPSd           {"class":"SKY","device":"/dev/garmingps","xdop":0.58,"ydop":0.59,"vdop":1.17,"tdop":0.73,"hdop":0.82,"gdop":1.60,"pdop":1.43,"satellites":[{"PRN":10,"el":18,"az":150,"ss":42,"used":true},{"PRN":3,"el":24,"az":315,"ss":41,"used":true},{"PRN":26,"el":21,"az":171,"ss":43,"used":true},{"PRN":22,"el":44,"az":302,"ss":43,"used":true},{"PRN":32,"el":50,"az":81,"ss":47,"used":true},{"PRN":25,"el":35,"az":63,"ss":45,"used":true},{"PRN":1,"el":26,"az":271,"ss":43,"used":true},{"PRN":14,"el":73,"az":31,"ss":46,"used":true},{"PRN":12,"el":7,"az":31,"ss":40,"used":true},{"PRN":11,"el":3,"az":264,"ss":41,"used":false},{"PRN":31,"el":83,"az":231,"ss":47,"used":true}]} 
16.994          GPSD_json            pGPSd           {"class":"SKY","device":"/dev/garmingps","xdop":0.58,"ydop":0.59,"vdop":1.17,"tdop":0.73,"hdop":0.82,"gdop":1.60,"pdop":1.43,"satellites":[{"PRN":10,"el":18,"az":150,"ss":43,"used":true},{"PRN":3,"el":24,"az":315,"ss":41,"used":true},{"PRN":26,"el":21,"az":171,"ss":42,"used":true},{"PRN":22,"el":44,"az":302,"ss":43,"used":true},{"PRN":32,"el":50,"az":81,"ss":47,"used":true},{"PRN":25,"el":35,"az":63,"ss":45,"used":true},{"PRN":1,"el":26,"az":271,"ss":44,"used":true},{"PRN":14,"el":73,"az":31,"ss":46,"used":true},{"PRN":12,"el":7,"az":31,"ss":41,"used":true},{"PRN":11,"el":3,"az":264,"ss":41,"used":false},{"PRN":31,"el":83,"az":231,"ss":47,"used":true}]} 
17.745          GPSD_json            pGPSd           {"class":"SKY","device":"/dev/garmingps","xdop":0.58,"ydop":0.59,"vdop":1.17,"tdop":0.73,"hdop":0.82,"gdop":1.60,"pdop":1.43,"satellites":[{"PRN":10,"el":18,"az":150,"ss":41,"used":true},{"PRN":3,"el":24,"az":315,"ss":40,"used":true},{"PRN":26,"el":21,"az":171,"ss":42,"used":true},{"PRN":22,"el":44,"az":302,"ss":45,"used":true},{"PRN":32,"el":50,"az":81,"ss":46,"used":true},{"PRN":25,"el":35,"az":63,"ss":46,"used":true},{"PRN":1,"el":26,"az":271,"ss":44,"used":true},{"PRN":14,"el":73,"az":31,"ss":45,"used":true},{"PRN":12,"el":7,"az":31,"ss":41,"used":true},{"PRN":11,"el":3,"az":264,"ss":40,"used":false},{"PRN":31,"el":83,"az":231,"ss":47,"used":true}]} 
18.999          GPSD_json            pGPSd           {"class":"SKY","device":"/dev/garmingps","xdop":0.58,"ydop":0.59,"vdop":1.17,"tdop":0.73,"hdop":0.82,"gdop":1.60,"pdop":1.43,"satellites":[{"PRN":10,"el":18,"az":150,"ss":42,"used":true},{"PRN":3,"el":24,"az":315,"ss":40,"used":true},{"PRN":26,"el":21,"az":171,"ss":42,"used":true},{"PRN":22,"el":44,"az":302,"ss":46,"used":true},{"PRN":32,"el":50,"az":81,"ss":45,"used":true},{"PRN":25,"el":35,"az":63,"ss":45,"used":true},{"PRN":1,"el":26,"az":271,"ss":44,"used":true},{"PRN":14,"el":73,"az":31,"ss":46,"used":true},{"PRN":12,"el":7,"az":31,"ss":42,"used":true},{"PRN":11,"el":3,"az":264,"ss":41,"used":false},{"PRN":31,"el":83,"az":231,"ss":47,"used":true}]} 
19.750          GPSD_json            pGPSd           {"class":"SKY","device":"/dev/garmingps","xdop":0.58,"ydop":0.59,"vdop":1.17,"tdop":0.73,"hdop":0.82,"gdop":1.60,"pdop":1.43,"satellites":[{"PRN":10,"el":18,"az":150,"ss":41,"used":true},{"PRN":3,"el":24,"az":315,"ss":40,"used":true},{"PRN":26,"el":21,"az":171,"ss":43,"used":true},{"PRN":22,"el":44,"az":302,"ss":45,"used":true},{"PRN":32,"el":50,"az":81,"ss":45,"used":true},{"PRN":25,"el":35,"az":63,"ss":46,"used":true},{"PRN":1,"el":26,"az":271,"ss":43,"used":true},{"PRN":14,"el":73,"az":31,"ss":47,"used":true},{"PRN":12,"el":7,"az":31,"ss":43,"used":true},{"PRN":11,"el":3,"az":264,"ss":41,"used":false},{"PRN":31,"el":83,"az":231,"ss":48,"used":true}]} 
21.754          GPSD_json            pGPSd           {"class":"SKY","device":"/dev/garmingps","xdop":0.58,"ydop":0.59,"vdop":1.17,"tdop":0.73,"hdop":0.82,"gdop":1.60,"pdop":1.43,"satellites":[{"PRN":10,"el":18,"az":150,"ss":42,"used":true},{"PRN":3,"el":24,"az":315,"ss":40,"used":true},{"PRN":26,"el":21,"az":171,"ss":43,"used":true},{"PRN":22,"el":44,"az":302,"ss":43,"used":true},{"PRN":32,"el":50,"az":81,"ss":47,"used":true},{"PRN":25,"el":35,"az":63,"ss":46,"used":true},{"PRN":1,"el":26,"az":271,"ss":43,"used":true},{"PRN":14,"el":73,"az":31,"ss":47,"used":true},{"PRN":12,"el":7,"az":31,"ss":40,"used":true},{"PRN":11,"el":3,"az":264,"ss":42,"used":false},{"PRN":31,"el":84,"az":233,"ss":46,"used":true}]} 
23.006          GPSD_json            pGPSd           {"class":"SKY","device":"/dev/garmingps","xdop":0.58,"ydop":0.59,"vdop":1.17,"tdop":0.73,"hdop":0.82,"gdop":1.60,"pdop":1.43,"satellites":[{"PRN":10,"el":18,"az":150,"ss":42,"used":true},{"PRN":3,"el":24,"az":315,"ss":41,"used":true},{"PRN":26,"el":21,"az":171,"ss":42,"used":true},{"PRN":22,"el":44,"az":302,"ss":42,"used":true},{"PRN":32,"el":50,"az":81,"ss":46,"used":true},{"PRN":25,"el":35,"az":63,"ss":47,"used":true},{"PRN":1,"el":26,"az":271,"ss":42,"used":true},{"PRN":14,"el":73,"az":31,"ss":46,"used":true},{"PRN":12,"el":7,"az":31,"ss":42,"used":true},{"PRN":11,"el":3,"az":264,"ss":41,"used":false},{"PRN":31,"el":84,"az":233,"ss":47,"used":true}]} 
23.758          GPSD_json            pGPSd           {"class":"SKY","device":"/dev/garmingps","xdop":0.58,"ydop":0.59,"vdop":1.17,"tdop":0.73,"hdop":0.82,"gdop":1.60,"pdop":1.43,"satellites":[{"PRN":10,"el":18,"az":150,"ss":41,"used":true},{"PRN":3,"el":24,"az":315,"ss":39,"used":true},{"PRN":26,"el":21,"az":171,"ss":42,"used":true},{"PRN":22,"el":44,"az":302,"ss":43,"used":true},{"PRN":32,"el":50,"az":81,"ss":45,"used":true},{"PRN":25,"el":35,"az":63,"ss":47,"used":true},{"PRN":1,"el":26,"az":271,"ss":43,"used":true},{"PRN":14,"el":73,"az":31,"ss":44,"used":true},{"PRN":12,"el":7,"az":31,"ss":43,"used":true},{"PRN":11,"el":3,"az":264,"ss":41,"used":false},{"PRN":31,"el":84,"az":233,"ss":46,"used":true}]} 
25.762          GPSD_json            pGPSd           {"class":"SKY","device":"/dev/garmingps","xdop":0.58,"ydop":0.59,"vdop":1.17,"tdop":0.73,"hdop":0.82,"gdop":1.60,"pdop":1.43,"satellites":[{"PRN":10,"el":18,"az":150,"ss":42,"used":true},{"PRN":3,"el":24,"az":315,"ss":37,"used":true},{"PRN":26,"el":21,"az":171,"ss":42,"used":true},{"PRN":22,"el":44,"az":302,"ss":43,"used":true},{"PRN":32,"el":50,"az":81,"ss":45,"used":true},{"PRN":25,"el":35,"az":63,"ss":46,"used":true},{"PRN":1,"el":26,"az":270,"ss":43,"used":true},{"PRN":14,"el":73,"az":31,"ss":45,"used":true},{"PRN":12,"el":7,"az":31,"ss":44,"used":true},{"PRN":11,"el":3,"az":264,"ss":42,"used":false},{"PRN":31,"el":84,"az":233,"ss":48,"used":true}]} 
26.763          GPSD_json            pGPSd           {"class":"SKY","device":"/dev/garmingps","xdop":0.58,"ydop":0.59,"vdop":1.17,"tdop":0.73,"hdop":0.82,"gdop":1.60,"pdop":1.43,"satellites":[{"PRN":10,"el":18,"az":150,"ss":42,"used":true},{"PRN":3,"el":24,"az":315,"ss":39,"used":true},{"PRN":26,"el":21,"az":171,"ss":42,"used":true},{"PRN":22,"el":44,"az":302,"ss":42,"used":true},{"PRN":32,"el":50,"az":81,"ss":46,"used":true},{"PRN":25,"el":35,"az":63,"ss":47,"used":true},{"PRN":1,"el":26,"az":270,"ss":44,"used":true},{"PRN":14,"el":73,"az":31,"ss":46,"used":true},{"PRN":12,"el":7,"az":31,"ss":45,"used":true},{"PRN":11,"el":3,"az":264,"ss":42,"used":false},{"PRN":31,"el":84,"az":233,"ss":48,"used":true}]} 
27.765          GPSD_json            pGPSd           {"class":"SKY","device":"/dev/garmingps","xdop":0.58,"ydop":0.59,"vdop":1.17,"tdop":0.73,"hdop":0.82,"gdop":1.60,"pdop":1.43,"satellites":[{"PRN":10,"el":18,"az":150,"ss":42,"used":true},{"PRN":3,"el":24,"az":315,"ss":39,"used":true},{"PRN":26,"el":21,"az":171,"ss":42,"used":true},{"PRN":22,"el":44,"az":302,"ss":44,"used":true},{"PRN":32,"el":50,"az":81,"ss":46,"used":true},{"PRN":25,"el":35,"az":63,"ss":48,"used":true},{"PRN":1,"el":26,"az":270,"ss":44,"used":true},{"PRN":14,"el":73,"az":31,"ss":45,"used":true},{"PRN":12,"el":7,"az":31,"ss":44,"used":true},{"PRN":11,"el":3,"az":264,"ss":42,"used":false},{"PRN":31,"el":84,"az":233,"ss":47,"used":true}]} 
28.767          GPSD_json            pGPSd           {"class":"SKY","device":"/dev/garmingps","xdop":0.58,"ydop":0.59,"vdop":1.17,"tdop":0.73,"hdop":0.82,"gdop":1.60,"pdop":1.43,"satellites":[{"PRN":10,"el":18,"az":150,"ss":42,"used":true},{"PRN":3,"el":24,"az":315,"ss":40,"used":true},{"PRN":26,"el":21,"az":171,"ss":42,"used":true},{"PRN":22,"el":44,"az":302,"ss":45,"used":true},{"PRN":32,"el":50,"az":81,"ss":45,"used":true},{"PRN":25,"el":35,"az":63,"ss":49,"used":true},{"PRN":1,"el":26,"az":270,"ss":44,"used":true},{"PRN":14,"el":73,"az":31,"ss":45,"used":true},{"PRN":12,"el":7,"az":31,"ss":44,"used":true},{"PRN":11,"el":3,"az":264,"ss":41,"used":false},{"PRN":31,"el":84,"az":233,"ss":46,"used":true}]} 
29.768          GPSD_json            pGPSd           {"class":"SKY","device":"/dev/garmingps","xdop":0.58,"ydop":0.59,"vdop":1.17,"tdop":0.73,"hdop":0.82,"gdop":1.60,"pdop":1.43,"satellites":[{"PRN":10,"el":18,"az":150,"ss":43,"used":true},{"PRN":3,"el":24,"az":315,"ss":41,"used":true},{"PRN":26,"el":21,"az":171,"ss":42,"used":true},{"PRN":22,"el":44,"az":302,"ss":42,"used":true},{"PRN":32,"el":50,"az":81,"ss":44,"used":true},{"PRN":25,"el":35,"az":63,"ss":49,"used":true},{"PRN":1,"el":26,"az":270,"ss":44,"used":true},{"PRN":14,"el":73,"az":31,"ss":45,"used":true},{"PRN":12,"el":7,"az":31,"ss":44,"used":true},{"PRN":11,"el":3,"az":264,"ss":40,"used":false},{"PRN":31,"el":84,"az":233,"ss":47,"used":true}]} 
30.770          GPSD_json            pGPSd           {"class":"SKY","device":"/dev/garmingps","xdop":0.58,"ydop":0.59,"vdop":1.17,"tdop":0.73,"hdop":0.82,"gdop":1.60,"pdop":1.43,"satellites":[{"PRN":10,"el":18,"az":150,"ss":40,"used":true},{"PRN":3,"el":24,"az":315,"ss":40,"used":true},{"PRN":26,"el":21,"az":171,"ss":43,"used":true},{"PRN":22,"el":44,"az":302,"ss":43,"used":true},{"PRN":32,"el":50,"az":81,"ss":46,"used":true},{"PRN":25,"el":35,"az":63,"ss":49,"used":true},{"PRN":1,"el":26,"az":270,"ss":44,"used":true},{"PRN":14,"el":73,"az":31,"ss":45,"used":true},{"PRN":12,"el":7,"az":31,"ss":44,"used":true},{"PRN":11,"el":3,"az":264,"ss":40,"used":false},{"PRN":31,"el":84,"az":233,"ss":48,"used":true}]} 
32.774          GPSD_json            pGPSd           {"class":"SKY","device":"/dev/garmingps","xdop":0.58,"ydop":0.59,"vdop":1.17,"tdop":0.73,"hdop":0.82,"gdop":1.60,"pdop":1.43,"satellites":[{"PRN":10,"el":18,"az":150,"ss":41,"used":true},{"PRN":3,"el":24,"az":315,"ss":39,"used":true},{"PRN":26,"el":21,"az":171,"ss":42,"used":true},{"PRN":22,"el":44,"az":302,"ss":46,"used":true},{"PRN":32,"el":50,"az":81,"ss":49,"used":true},{"PRN":25,"el":35,"az":63,"ss":47,"used":true},{"PRN":1,"el":26,"az":270,"ss":43,"used":true},{"PRN":14,"el":73,"az":31,"ss":43,"used":true},{"PRN":12,"el":7,"az":31,"ss":45,"used":true},{"PRN":11,"el":3,"az":264,"ss":40,"used":false},{"PRN":31,"el":84,"az":233,"ss":47,"used":true}]} 
33.776          GPSD_json            pGPSd           {"class":"SKY","device":"/dev/garmingps","xdop":0.58,"ydop":0.59,"vdop":1.17,"tdop":0.73,"hdop":0.82,"gdop":1.60,"pdop":1.43,"satellites":[{"PRN":10,"el":18,"az":150,"ss":42,"used":true},{"PRN":3,"el":24,"az":315,"ss":40,"used":true},{"PRN":26,"el":21,"az":171,"ss":42,"used":true},{"PRN":22,"el":44,"az":302,"ss":43,"used":true},{"PRN":32,"el":50,"az":81,"ss":49,"used":true},{"PRN":25,"el":35,"az":63,"ss":46,"used":true},{"PRN":1,"el":26,"az":270,"ss":45,"used":true},{"PRN":14,"el":73,"az":31,"ss":42,"used":true},{"PRN":12,"el":7,"az":31,"ss":43,"used":true},{"PRN":11,"el":3,"az":264,"ss":40,"used":false},{"PRN":31,"el":84,"az":233,"ss":48,"used":true}]} 
34.778          GPSD_json            pGPSd           {"class":"SKY","device":"/dev/garmingps","xdop":0.58,"ydop":0.59,"vdop":1.17,"tdop":0.73,"hdop":0.82,"gdop":1.60,"pdop":1.43,"satellites":[{"PRN":10,"el":18,"az":150,"ss":43,"used":true},{"PRN":3,"el":24,"az":315,"ss":39,"used":true},{"PRN":26,"el":21,"az":171,"ss":41,"used":true},{"PRN":22,"el":44,"az":302,"ss":43,"used":true},{"PRN":32,"el":50,"az":81,"ss":50,"used":true},{"PRN":25,"el":35,"az":63,"ss":46,"used":true},{"PRN":1,"el":26,"az":270,"ss":43,"used":true},{"PRN":14,"el":73,"az":31,"ss":43,"used":true},{"PRN":12,"el":7,"az":31,"ss":43,"used":true},{"PRN":11,"el":3,"az":264,"ss":40,"used":false},{"PRN":31,"el":84,"az":233,"ss":48,"used":true}]} 
35.779          GPSD_json            pGPSd           {"class":"SKY","device":"/dev/garmingps","xdop":0.58,"ydop":0.59,"vdop":1.17,"tdop":0.73,"hdop":0.82,"gdop":1.60,"pdop":1.43,"satellites":[{"PRN":10,"el":18,"az":150,"ss":42,"used":true},{"PRN":3,"el":24,"az":315,"ss":40,"used":true},{"PRN":26,"el":21,"az":171,"ss":42,"used":true},{"PRN":22,"el":44,"az":302,"ss":44,"used":true},{"PRN":32,"el":50,"az":81,"ss":48,"used":true},{"PRN":25,"el":35,"az":63,"ss":45,"used":true},{"PRN":1,"el":26,"az":270,"ss":43,"used":true},{"PRN":14,"el":73,"az":31,"ss":44,"used":true},{"PRN":12,"el":7,"az":31,"ss":44,"used":true},{"PRN":11,"el":3,"az":264,"ss":41,"used":false},{"PRN":31,"el":84,"az":233,"ss":46,"used":true}]} 
36.781          GPSD_json            pGPSd           {"class":"SKY","device":"/dev/garmingps","xdop":0.58,"ydop":0.59,"vdop":1.17,"tdop":0.73,"hdop":0.82,"gdop":1.60,"pdop":1.43,"satellites":[{"PRN":10,"el":18,"az":150,"ss":43,"used":true},{"PRN":3,"el":24,"az":315,"ss":41,"used":true},{"PRN":26,"el":21,"az":171,"ss":42,"used":true},{"PRN":22,"el":44,"az":302,"ss":48,"used":true},{"PRN":32,"el":50,"az":81,"ss":47,"used":true},{"PRN":25,"el":35,"az":63,"ss":47,"used":true},{"PRN":1,"el":26,"az":270,"ss":42,"used":true},{"PRN":14,"el":73,"az":31,"ss":45,"used":true},{"PRN":12,"el":7,"az":31,"ss":44,"used":true},{"PRN":11,"el":3,"az":264,"ss":40,"used":false},{"PRN":31,"el":84,"az":233,"ss":46,"used":true}]} 
37.782          GPSD_json            pGPSd           {"class":"SKY","device":"/dev/garmingps","xdop":0.58,"ydop":0.59,"vdop":1.17,"tdop":0.73,"hdop":0.82,"gdop":1.60,"pdop":1.43,"satellites":[{"PRN":10,"el":18,"az":150,"ss":40,"used":true},{"PRN":3,"el":24,"az":315,"ss":42,"used":true},{"PRN":26,"el":21,"az":171,"ss":43,"used":true},{"PRN":22,"el":44,"az":302,"ss":47,"used":true},{"PRN":32,"el":50,"az":81,"ss":46,"used":true},{"PRN":25,"el":35,"az":63,"ss":46,"used":true},{"PRN":1,"el":26,"az":270,"ss":43,"used":true},{"PRN":14,"el":73,"az":31,"ss":47,"used":true},{"PRN":12,"el":7,"az":31,"ss":44,"used":true},{"PRN":11,"el":3,"az":264,"ss":41,"used":false},{"PRN":31,"el":84,"az":233,"ss":46,"used":true}]} 
38.783          GPSD_json            pGPSd           {"class":"SKY","device":"/dev/garmingps","xdop":0.58,"ydop":0.59,"vdop":1.17,"tdop":0.73,"hdop":0.82,"gdop":1.60,"pdop":1.43,"satellites":[{"PRN":10,"el":18,"az":150,"ss":42,"used":true},{"PRN":3,"el":24,"az":315,"ss":40,"used":true},{"PRN":26,"el":21,"az":171,"ss":42,"used":true},{"PRN":22,"el":44,"az":302,"ss":46,"used":true},{"PRN":32,"el":50,"az":81,"ss":47,"used":true},{"PRN":25,"el":35,"az":63,"ss":49,"used":true},{"PRN":1,"el":26,"az":270,"ss":44,"used":true},{"PRN":14,"el":73,"az":31,"ss":45,"used":true},{"PRN":12,"el":7,"az":31,"ss":44,"used":true},{"PRN":11,"el":3,"az":264,"ss":40,"used":false},{"PRN":31,"el":84,"az":233,"ss":47,"used":true}]} 
39.786          GPSD_json            pGPSd           {"class":"SKY","device":"/dev/garmingps","xdop":0.58,"ydop":0.59,"vdop":1.17,"tdop":0.73,"hdop":0.82,"gdop":1.60,"pdop":1.43,"satellites":[{"PRN":10,"el":18,"az":150,"ss":43,"used":true},{"PRN":3,"el":24,"az":315,"ss":41,"used":true},{"PRN":26,"el":21,"az":171,"ss":42,"used":true},{"PRN":22,"el":44,"az":302,"ss":47,"used":true},{"PRN":32,"el":50,"az":81,"ss":48,"used":true},{"PRN":25,"el":35,"az":63,"ss":48,"used":true},{"PRN":1,"el":26,"az":270,"ss":43,"used":true},{"PRN":14,"el":73,"az":31,"ss":44,"used":true},{"PRN":12,"el":7,"az":31,"ss":43,"used":true},{"PRN":11,"el":3,"az":264,"ss":40,"used":false},{"PRN":31,"el":84,"az":233,"ss":48,"used":true}]} 
40.791          GPSD_json            pGPSd           {"class":"SKY","device":"/dev/garmingps","xdop":0.58,"ydop":0.59,"vdop":1.17,"tdop":0.73,"hdop":0.82,"gdop":1.60,"pdop":1.43,"satellites":[{"PRN":10,"el":18,"az":150,"ss":42,"used":true},{"PRN":3,"el":24,"az":315,"ss":40,"used":true},{"PRN":26,"el":21,"az":171,"ss":42,"used":true},{"PRN":22,"el":44,"az":302,"ss":46,"used":true},{"PRN":32,"el":50,"az":81,"ss":48,"used":true},{"PRN":25,"el":35,"az":63,"ss":46,"used":true},{"PRN":1,"el":26,"az":270,"ss":43,"used":true},{"PRN":14,"el":73,"az":31,"ss":45,"used":true},{"PRN":12,"el":7,"az":31,"ss":44,"used":true},{"PRN":11,"el":3,"az":264,"ss":41,"used":false},{"PRN":31,"el":84,"az":233,"ss":46,"used":true}]} 
41.793          GPSD_json            pGPSd           {"class":"SKY","device":"/dev/garmingps","xdop":0.58,"ydop":0.59,"vdop":1.17,"tdop":0.73,"hdop":0.82,"gdop":1.60,"pdop":1.43,"satellites":[{"PRN":10,"el":18,"az":150,"ss":42,"used":true},{"PRN":3,"el":24,"az":315,"ss":41,"used":true},{"PRN":26,"el":21,"az":171,"ss":42,"used":true},{"PRN":22,"el":44,"az":302,"ss":46,"used":true},{"PRN":32,"el":50,"az":81,"ss":46,"used":true},{"PRN":25,"el":35,"az":63,"ss":46,"used":true},{"PRN":1,"el":26,"az":270,"ss":42,"used":true},{"PRN":14,"el":73,"az":31,"ss":45,"used":true},{"PRN":12,"el":7,"az":31,"ss":45,"used":true},{"PRN":11,"el":3,"az":264,"ss":40,"used":false},{"PRN":31,"el":84,"az":233,"ss":48,"used":true}]} 
42.795          GPSD_json            pGPSd           {"class":"SKY","device":"/dev/garmingps","xdop":0.58,"ydop":0.59,"vdop":1.17,"tdop":0.73,"hdop":0.82,"gdop":1.60,"pdop":1.43,"satellites":[{"PRN":10,"el":18,"az":150,"ss":43,"used":true},{"PRN":3,"el":24,"az":315,"ss":39,"used":true},{"PRN":26,"el":21,"az":171,"ss":42,"used":true},{"PRN":22,"el":44,"az":302,"ss":45,"used":true},{"PRN":32,"el":50,"az":81,"ss":49,"used":true},{"PRN":25,"el":35,"az":63,"ss":47,"used":true},{"PRN":1,"el":26,"az":270,"ss":43,"used":true},{"PRN":14,"el":73,"az":31,"ss":44,"used":true},{"PRN":12,"el":7,"az":31,"ss":45,"used":true},{"PRN":11,"el":3,"az":264,"ss":41,"used":false},{"PRN":31,"el":84,"az":233,"ss":47,"used":true}]} 
43.797          GPSD_json            pGPSd           {"class":"SKY","device":"/dev/garmingps","xdop":0.58,"ydop":0.59,"vdop":1.17,"tdop":0.73,"hdop":0.82,"gdop":1.60,"pdop":1.43,"satellites":[{"PRN":10,"el":17,"az":150,"ss":42,"used":true},{"PRN":3,"el":24,"az":315,"ss":39,"used":true},{"PRN":26,"el":21,"az":171,"ss":43,"used":true},{"PRN":22,"el":44,"az":302,"ss":43,"used":true},{"PRN":32,"el":50,"az":81,"ss":47,"used":true},{"PRN":25,"el":35,"az":63,"ss":48,"used":true},{"PRN":1,"el":26,"az":270,"ss":44,"used":true},{"PRN":14,"el":73,"az":31,"ss":45,"used":true},{"PRN":12,"el":7,"az":31,"ss":44,"used":true},{"PRN":11,"el":3,"az":264,"ss":41,"used":false},{"PRN":31,"el":84,"az":233,"ss":48,"used":true}]} 
44.798          GPSD_json            pGPSd           {"class":"SKY","device":"/dev/garmingps","xdop":0.58,"ydop":0.59,"vdop":1.17,"tdop":0.73,"hdop":0.82,"gdop":1.60,"pdop":1.43,"satellites":[{"PRN":10,"el":17,"az":150,"ss":42,"used":true},{"PRN":3,"el":24,"az":315,"ss":39,"used":true},{"PRN":26,"el":21,"az":171,"ss":43,"used":true},{"PRN":22,"el":44,"az":302,"ss":44,"used":true},{"PRN":32,"el":50,"az":81,"ss":45,"used":true},{"PRN":25,"el":35,"az":63,"ss":47,"used":true},{"PRN":1,"el":26,"az":270,"ss":43,"used":true},{"PRN":14,"el":73,"az":31,"ss":46,"used":true},{"PRN":12,"el":7,"az":31,"ss":43,"used":true},{"PRN":11,"el":3,"az":264,"ss":42,"used":false},{"PRN":31,"el":84,"az":233,"ss":47,"used":true}]} 
45.801          GPSD_json            pGPSd           {"class":"SKY","device":"/dev/garmingps","xdop":0.58,"ydop":0.59,"vdop":1.17,"tdop":0.73,"hdop":0.82,"gdop":1.60,"pdop":1.43,"satellites":[{"PRN":10,"el":17,"az":150,"ss":42,"used":true},{"PRN":3,"el":24,"az":315,"ss":37,"used":true},{"PRN":26,"el":21,"az":171,"ss":43,"used":true},{"PRN":22,"el":44,"az":302,"ss":43,"used":true},{"PRN":32,"el":50,"az":81,"ss":46,"used":true},{"PRN":25,"el":35,"az":63,"ss":48,"used":true},{"PRN":1,"el":26,"az":270,"ss":43,"used":true},{"PRN":14,"el":73,"az":31,"ss":44,"used":true},{"PRN":12,"el":7,"az":31,"ss":43,"used":true},{"PRN":11,"el":2,"az":264,"ss":41,"used":false},{"PRN":31,"el":84,"az":233,"ss":45,"used":true}]} 
46.803          GPSD_json            pGPSd           {"class":"SKY","device":"/dev/garmingps","xdop":0.58,"ydop":0.59,"vdop":1.17,"tdop":0.73,"hdop":0.82,"gdop":1.60,"pdop":1.43,"satellites":[{"PRN":10,"el":17,"az":150,"ss":41,"used":true},{"PRN":3,"el":24,"az":315,"ss":39,"used":true},{"PRN":26,"el":21,"az":171,"ss":42,"used":true},{"PRN":22,"el":44,"az":302,"ss":43,"used":true},{"PRN":32,"el":50,"az":81,"ss":47,"used":true},{"PRN":25,"el":35,"az":63,"ss":47,"used":true},{"PRN":1,"el":26,"az":270,"ss":43,"used":true},{"PRN":14,"el":73,"az":31,"ss":44,"used":true},{"PRN":12,"el":7,"az":31,"ss":43,"used":true},{"PRN":11,"el":2,"az":264,"ss":40,"used":false},{"PRN":31,"el":84,"az":233,"ss":46,"used":true}]} 
47.805          GPSD_json            pGPSd           {"class":"SKY","device":"/dev/garmingps","xdop":0.58,"ydop":0.59,"vdop":1.17,"tdop":0.73,"hdop":0.82,"gdop":1.60,"pdop":1.43,"satellites":[{"PRN":10,"el":17,"az":150,"ss":42,"used":true},{"PRN":3,"el":24,"az":315,"ss":40,"used":true},{"PRN":26,"el":21,"az":171,"ss":42,"used":true},{"PRN":22,"el":44,"az":302,"ss":43,"used":true},{"PRN":32,"el":50,"az":81,"ss":46,"used":true},{"PRN":25,"el":35,"az":63,"ss":48,"used":true},{"PRN":1,"el":26,"az":270,"ss":43,"used":true},{"PRN":14,"el":73,"az":31,"ss":45,"used":true},{"PRN":12,"el":7,"az":31,"ss":43,"used":true},{"PRN":11,"el":2,"az":264,"ss":40,"used":false},{"PRN":31,"el":84,"az":233,"ss":47,"used":true}]} 
48.806          GPSD_json            pGPSd           {"class":"SKY","device":"/dev/garmingps","xdop":0.58,"ydop":0.59,"vdop":1.17,"tdop":0.73,"hdop":0.82,"gdop":1.60,"pdop":1.43,"satellites":[{"PRN":10,"el":17,"az":150,"ss":42,"used":true},{"PRN":3,"el":24,"az":315,"ss":41,"used":true},{"PRN":26,"el":21,"az":171,"ss":42,"used":true},{"PRN":22,"el":44,"az":302,"ss":43,"used":true},{"PRN":32,"el":50,"az":81,"ss":45,"used":true},{"PRN":25,"el":35,"az":63,"ss":47,"used":true},{"PRN":1,"el":26,"az":270,"ss":43,"used":true},{"PRN":14,"el":73,"az":31,"ss":47,"used":true},{"PRN":12,"el":7,"az":31,"ss":44,"used":true},{"PRN":11,"el":2,"az":264,"ss":40,"used":false},{"PRN":31,"el":84,"az":233,"ss":47,"used":true}]} 
49.808          GPSD_json            pGPSd           {"class":"SKY","device":"/dev/garmingps","xdop":0.58,"ydop":0.59,"vdop":1.17,"tdop":0.73,"hdop":0.82,"gdop":1.60,"pdop":1.43,"satellites":[{"PRN":10,"el":17,"az":150,"ss":41,"used":true},{"PRN":3,"el":24,"az":315,"ss":41,"used":true},{"PRN":26,"el":21,"az":171,"ss":42,"used":true},{"PRN":22,"el":44,"az":302,"ss":42,"used":true},{"PRN":32,"el":50,"az":81,"ss":46,"used":true},{"PRN":25,"el":35,"az":63,"ss":47,"used":true},{"PRN":1,"el":26,"az":270,"ss":43,"used":true},{"PRN":14,"el":73,"az":31,"ss":46,"used":true},{"PRN":12,"el":7,"az":31,"ss":43,"used":true},{"PRN":11,"el":2,"az":264,"ss":40,"used":false},{"PRN":31,"el":84,"az":233,"ss":47,"used":true}]} 
50.809          GPSD_json            pGPSd           {"class":"SKY","device":"/dev/garmingps","xdop":0.58,"ydop":0.59,"vdop":1.17,"tdop":0.73,"hdop":0.82,"gdop":1.60,"pdop":1.43,"satellites":[{"PRN":10,"el":17,"az":150,"ss":42,"used":true},{"PRN":3,"el":24,"az":315,"ss":42,"used":true},{"PRN":26,"el":21,"az":171,"ss":43,"used":true},{"PRN":22,"el":44,"az":302,"ss":38,"used":true},{"PRN":32,"el":50,"az":81,"ss":46,"used":true},{"PRN":25,"el":35,"az":63,"ss":47,"used":true},{"PRN":1,"el":26,"az":270,"ss":42,"used":true},{"PRN":14,"el":73,"az":31,"ss":47,"used":true},{"PRN":12,"el":7,"az":31,"ss":43,"used":true},{"PRN":11,"el":2,"az":264,"ss":39,"used":false},{"PRN":31,"el":84,"az":233,"ss":48,"used":true}]} 
51.811          GPSD_json            pGPSd           {"class":"SKY","device":"/dev/garmingps","xdop":0.58,"ydop":0.59,"vdop":1.17,"tdop":0.73,"hdop":0.82,"gdop":1.60,"pdop":1.43,"satellites":[{"PRN":10,"el":17,"az":150,"ss":41,"used":true},{"PRN":3,"el":24,"az":315,"ss":41,"used":true},{"PRN":26,"el":21,"az":171,"ss":42,"used":true},{"PRN":22,"el":44,"az":302,"ss":40,"used":true},{"PRN":32,"el":50,"az":81,"ss":46,"used":true},{"PRN":25,"el":35,"az":63,"ss":47,"used":true},{"PRN":1,"el":26,"az":270,"ss":44,"used":true},{"PRN":14,"el":73,"az":32,"ss":46,"used":true},{"PRN":12,"el":7,"az":31,"ss":43,"used":true},{"PRN":11,"el":2,"az":264,"ss":40,"used":false},{"PRN":31,"el":84,"az":233,"ss":47,"used":true}]} 
52.813          GPSD_json            pGPSd           {"class":"SKY","device":"/dev/garmingps","xdop":0.58,"ydop":0.59,"vdop":1.17,"tdop":0.73,"hdop":0.82,"gdop":1.60,"pdop":1.43,"satellites":[{"PRN":10,"el":17,"az":150,"ss":43,"used":true},{"PRN":3,"el":24,"az":315,"ss":41,"used":true},{"PRN":26,"el":21,"az":171,"ss":41,"used":true},{"PRN":22,"el":44,"az":302,"ss":40,"used":true},{"PRN":32,"el":50,"az":81,"ss":45,"used":true},{"PRN":25,"el":35,"az":63,"ss":47,"used":true},{"PRN":1,"el":26,"az":270,"ss":44,"used":true},{"PRN":14,"el":73,"az":32,"ss":46,"used":true},{"PRN":12,"el":7,"az":31,"ss":42,"used":true},{"PRN":11,"el":2,"az":264,"ss":40,"used":false},{"PRN":31,"el":84,"az":233,"ss":46,"used":true}]} 
53.814          GPSD_json            pGPSd           {"class":"SKY","device":"/dev/garmingps","xdop":0.58,"ydop":0.59,"vdop":1.17,"tdop":0.73,"hdop":0.82,"gdop":1.60,"pdop":1.43,"satellites":[{"PRN":10,"el":17,"az":150,"ss":43,"used":true},{"PRN":3,"el":24,"az":315,"ss":41,"used":true},{"PRN":26,"el":21,"az":171,"ss":42,"used":true},{"PRN":22,"el":44,"az":302,"ss":38,"used":true},{"PRN":32,"el":50,"az":81,"ss":44,"used":true},{"PRN":25,"el":35,"az":63,"ss":47,"used":true},{"PRN":1,"el":26,"az":270,"ss":44,"used":true},{"PRN":14,"el":73,"az":32,"ss":45,"used":true},{"PRN":12,"el":7,"az":31,"ss":43,"used":true},{"PRN":11,"el":2,"az":264,"ss":40,"used":false},{"PRN":31,"el":84,"az":233,"ss":45,"used":true}]} 
54.817          GPSD_json            pGPSd           {"class":"SKY","device":"/dev/garmingps","xdop":0.58,"ydop":0.59,"vdop":1.17,"tdop":0.73,"hdop":0.82,"gdop":1.60,"pdop":1.43,"satellites":[{"PRN":10,"el":17,"az":150,"ss":43,"used":true},{"PRN":3,"el":24,"az":315,"ss":41,"used":true},{"PRN":26,"el":21,"az":171,"ss":41,"used":true},{"PRN":22,"el":44,"az":302,"ss":41,"used":true},{"PRN":32,"el":50,"az":81,"ss":45,"used":true},{"PRN":25,"el":35,"az":63,"ss":46,"used":true},{"PRN":1,"el":26,"az":270,"ss":44,"used":true},{"PRN":14,"el":73,"az":32,"ss":45,"used":true},{"PRN":12,"el":7,"az":31,"ss":43,"used":true},{"PRN":11,"el":2,"az":264,"ss":40,"used":false},{"PRN":31,"el":84,"az":233,"ss":45,"used":true}]} 
55.818          GPSD_json            pGPSd           {"class":"SKY","device":"/dev/garmingps","xdop":0.58,"ydop":0.59,"vdop":1.17,"tdop":0.73,"hdop":0.82,"gdop":1.60,"pdop":1.43,"satellites":[{"PRN":10,"el":17,"az":150,"ss":42,"used":true},{"PRN":3,"el":24,"az":315,"ss":40,"used":true},{"PRN":26,"el":21,"az":171,"ss":42,"used":true},{"PRN":22,"el":44,"az":302,"ss":40,"used":true},{"PRN":32,"el":50,"az":81,"ss":45,"used":true},{"PRN":25,"el":35,"az":63,"ss":46,"used":true},{"PRN":1,"el":26,"az":270,"ss":44,"used":true},{"PRN":14,"el":73,"az":32,"ss":43,"used":true},{"PRN":12,"el":7,"az":31,"ss":43,"used":true},{"PRN":11,"el":2,"az":264,"ss":40,"used":false},{"PRN":31,"el":84,"az":233,"ss":46,"used":true}]} 
56.821          GPSD_json            pGPSd           {"class":"SKY","device":"/dev/garmingps","xdop":0.58,"ydop":0.59,"vdop":1.17,"tdop":0.73,"hdop":0.82,"gdop":1.60,"pdop":1.43,"satellites":[{"PRN":10,"el":17,"az":150,"ss":42,"used":true},{"PRN":3,"el":24,"az":315,"ss":39,"used":true},{"PRN":26,"el":21,"az":171,"ss":42,"used":true},{"PRN":22,"el":44,"az":302,"ss":42,"used":true},{"PRN":32,"el":50,"az":81,"ss":44,"used":true},{"PRN":25,"el":35,"az":63,"ss":47,"used":true},{"PRN":1,"el":26,"az":270,"ss":43,"used":true},{"PRN":14,"el":73,"az":32,"ss":44,"used":true},{"PRN":12,"el":7,"az":31,"ss":43,"used":true},{"PRN":11,"el":2,"az":264,"ss":40,"used":false},{"PRN":31,"el":84,"az":233,"ss":45,"used":true}]} 
57.824          GPSD_json            pGPSd           {"class":"SKY","device":"/dev/garmingps","xdop":0.58,"ydop":0.59,"vdop":1.17,"tdop":0.73,"hdop":0.82,"gdop":1.60,"pdop":1.43,"satellites":[{"PRN":10,"el":17,"az":150,"ss":43,"used":true},{"PRN":3,"el":24,"az":315,"ss":39,"used":true},{"PRN":26,"el":21,"az":171,"ss":42,"used":true},{"PRN":22,"el":44,"az":302,"ss":43,"used":true},{"PRN":32,"el":50,"az":81,"ss":47,"used":true},{"PRN":25,"el":35,"az":63,"ss":46,"used":true},{"PRN":1,"el":26,"az":270,"ss":43,"used":true},{"PRN":14,"el":73,"az":32,"ss":44,"used":true},{"PRN":12,"el":7,"az":31,"ss":44,"used":true},{"PRN":11,"el":2,"az":264,"ss":41,"used":false},{"PRN":31,"el":84,"az":233,"ss":46,"used":true}]} 
58.826          GPSD_json            pGPSd           {"class":"SKY","device":"/dev/garmingps","xdop":0.58,"ydop":0.59,"vdop":1.17,"tdop":0.73,"hdop":0.82,"gdop":1.60,"pdop":1.43,"satellites":[{"PRN":10,"el":17,"az":150,"ss":42,"used":true},{"PRN":3,"el":24,"az":315,"ss":37,"used":true},{"PRN":26,"el":21,"az":171,"ss":43,"used":true},{"PRN":22,"el":44,"az":302,"ss":45,"used":true},{"PRN":32,"el":50,"az":81,"ss":45,"used":true},{"PRN":25,"el":35,"az":63,"ss":46,"used":true},{"PRN":1,"el":26,"az":270,"ss":43,"used":true},{"PRN":14,"el":73,"az":32,"ss":44,"used":true},{"PRN":12,"el":7,"az":31,"ss":44,"used":true},{"PRN":11,"el":2,"az":264,"ss":41,"used":false},{"PRN":31,"el":84,"az":233,"ss":46,"used":true}]} 
59.828          GPSD_json            pGPSd           {"class":"SKY","device":"/dev/garmingps","xdop":0.58,"ydop":0.59,"vdop":1.17,"tdop":0.73,"hdop":0.82,"gdop":1.60,"pdop":1.43,"satellites":[{"PRN":10,"el":17,"az":150,"ss":41,"used":true},{"PRN":3,"el":24,"az":315,"ss":37,"used":true},{"PRN":26,"el":21,"az":171,"ss":42,"used":true},{"PRN":22,"el":44,"az":302,"ss":45,"used":true},{"PRN":32,"el":50,"az":81,"ss":44,"used":true},{"PRN":25,"el":35,"az":63,"ss":48,"used":true},{"PRN":1,"el":26,"az":270,"ss":44,"used":true},{"PRN":14,"el":73,"az":32,"ss":45,"used":true},{"PRN":12,"el":7,"az":31,"ss":44,"used":true},{"PRN":11,"el":2,"az":264,"ss":41,"used":false},{"PRN":31,"el":84,"az":233,"ss":47,"used":true}]} 
60.830          GPSD_json            pGPSd           {"class":"SKY","device":"/dev/garmingps","xdop":0.58,"ydop":0.59,"vdop":1.17,"tdop":0.73,"hdop":0.82,"gdop":1.60,"pdop":1.43,"satellites":[{"PRN":10,"el":17,"az":150,"ss":42,"used":true},{"PRN":3,"el":24,"az":315,"ss":38,"used":true},{"PRN":26,"el":21,"az":171,"ss":42,"used":true},{"PRN":22,"el":44,"az":302,"ss":45,"used":true},{"PRN":32,"el":50,"az":81,"ss":45,"used":true},{"PRN":25,"el":35,"az":63,"ss":48,"used":true},{"PRN":1,"el":26,"az":270,"ss":43,"used":true},{"PRN":14,"el":73,"az":32,"ss":45,"used":true},{"PRN":12,"el":7,"az":31,"ss":45,"used":true},{"PRN":11,"el":2,"az":264,"ss":40,"used":false},{"PRN":31,"el":84,"az":233,"ss":47,"used":true}]} 
61.832          GPSD_json            pGPSd           {"class":"SKY","device":"/dev/garmingps","xdop":0.58,"ydop":0.59,"vdop":1.17,"tdop":0.73,"hdop":0.82,"gdop":1.60,"pdop":1.43,"satellites":[{"PRN":10,"el":17,"az":150,"ss":43,"used":true},{"PRN":3,"el":24,"az":315,"ss":39,"used":true},{"PRN":26,"el":21,"az":171,"ss":43,"used":true},{"PRN":22,"el":44,"az":302,"ss":44,"used":true},{"PRN":32,"el":50,"az":81,"ss":44,"used":true},{"PRN":25,"el":35,"az":63,"ss":48,"used":true},{"PRN":1,"el":26,"az":270,"ss":43,"used":true},{"PRN":14,"el":73,"az":32,"ss":45,"used":true},{"PRN":12,"el":7,"az":31,"ss":45,"used":true},{"PRN":11,"el":2,"az":264,"ss":40,"used":false},{"PRN":31,"el":84,"az":233,"ss":46,"used":true}]} 
62.835          GPSD_json            pGPSd           {"class":"SKY","device":"/dev/garmingps","xdop":0.58,"ydop":0.59,"vdop":1.17,"tdop":0.73,"hdop":0.82,"gdop":1.60,"pdop":1.43,"satellites":[{"PRN":10,"el":17,"az":150,"ss":43,"used":true},{"PRN":3,"el":24,"az":315,"ss":40,"used":true},{"PRN":26,"el":21,"az":171,"ss":43,"used":true},{"PRN":22,"el":44,"az":302,"ss":44,"used":true},{"PRN":32,"el":50,"az":81,"ss":45,"used":true},{"PRN":25,"el":35,"az":63,"ss":49,"used":true},{"PRN":1,"el":26,"az":270,"ss":44,"used":true},{"PRN":14,"el":73,"az":32,"ss":45,"used":true},{"PRN":12,"el":7,"az":31,"ss":45,"used":true},{"PRN":11,"el":2,"az":264,"ss":40,"used":false},{"PRN":31,"el":84,"az":233,"ss":47,"used":true}]} 
63.840          GPSD_json            pGPSd           {"class":"SKY","device":"/dev/garmingps","xdop":0.58,"ydop":0.59,"vdop":1.17,"tdop":0.73,"hdop":0.82,"gdop":1.60,"pdop":1.43,"satellites":[{"PRN":10,"el":17,"az":150,"ss":43,"used":true},{"PRN":3,"el":24,"az":315,"ss":41,"used":true},{"PRN":26,"el":21,"az":171,"ss":43,"used":true},{"PRN":22,"el":44,"az":302,"ss":44,"used":true},{"PRN":32,"el":50,"az":81,"ss":45,"used":true},{"PRN":25,"el":35,"az":63,"ss":50,"used":true},{"PRN":1,"el":26,"az":270,"ss":44,"used":true},{"PRN":14,"el":73,"az":32,"ss":45,"used":true},{"PRN":12,"el":7,"az":31,"ss":45,"used":true},{"PRN":11,"el":2,"az":264,"ss":40,"used":false},{"PRN":31,"el":84,"az":233,"ss":48,"used":true}]} 
64.842          GPSD_json            pGPSd           {"class":"SKY","device":"/dev/garmingps","xdop":0.58,"ydop":0.59,"vdop":1.17,"tdop":0.73,"hdop":0.82,"gdop":1.60,"pdop":1.43,"satellites":[{"PRN":10,"el":17,"az":150,"ss":43,"used":true},{"PRN":3,"el":24,"az":315,"ss":40,"used":true},{"PRN":26,"el":21,"az":171,"ss":42,"used":true},{"PRN":22,"el":44,"az":302,"ss":43,"used":true},{"PRN":32,"el":50,"az":81,"ss":46,"used":true},{"PRN":25,"el":35,"az":63,"ss":48,"used":true},{"PRN":1,"el":26,"az":270,"ss":44,"used":true},{"PRN":14,"el":73,"az":32,"ss":45,"used":true},{"PRN":12,"el":7,"az":31,"ss":45,"used":true},{"PRN":11,"el":2,"az":264,"ss":40,"used":false},{"PRN":31,"el":84,"az":233,"ss":48,"used":true}]} 
65.844          GPSD_json            pGPSd           {"class":"SKY","device":"/dev/garmingps","xdop":0.58,"ydop":0.59,"vdop":1.17,"tdop":0.73,"hdop":0.82,"gdop":1.60,"pdop":1.43,"satellites":[{"PRN":10,"el":17,"az":150,"ss":44,"used":true},{"PRN":3,"el":24,"az":315,"ss":40,"used":true},{"PRN":26,"el":21,"az":171,"ss":40,"used":true},{"PRN":22,"el":44,"az":302,"ss":44,"used":true},{"PRN":32,"el":50,"az":81,"ss":48,"used":true},{"PRN":25,"el":35,"az":63,"ss":45,"used":true},{"PRN":1,"el":26,"az":270,"ss":44,"used":true},{"PRN":14,"el":73,"az":32,"ss":44,"used":true},{"PRN":12,"el":7,"az":31,"ss":45,"used":true},{"PRN":11,"el":2,"az":264,"ss":40,"used":false},{"PRN":31,"el":84,"az":233,"ss":49,"used":true}]} 
66.846          GPSD_json            pGPSd           {"class":"SKY","device":"/dev/garmingps","xdop":0.58,"ydop":0.59,"vdop":1.17,"tdop":0.73,"hdop":0.82,"gdop":1.60,"pdop":1.43,"satellites":[{"PRN":10,"el":17,"az":150,"ss":44,"used":true},{"PRN":3,"el":24,"az":315,"ss":39,"used":true},{"PRN":26,"el":21,"az":171,"ss":42,"used":true},{"PRN":22,"el":44,"az":302,"ss":44,"used":true},{"PRN":32,"el":50,"az":81,"ss":48,"used":true},{"PRN":25,"el":35,"az":63,"ss":45,"used":true},{"PRN":1,"el":26,"az":270,"ss":44,"used":true},{"PRN":14,"el":73,"az":32,"ss":45,"used":true},{"PRN":12,"el":7,"az":31,"ss":45,"used":true},{"PRN":11,"el":2,"az":264,"ss":40,"used":false},{"PRN":31,"el":84,"az":233,"ss":48,"used":true}]} 
67.848          GPSD_json            pGPSd           {"class":"SKY","device":"/dev/garmingps","xdop":0.58,"ydop":0.59,"vdop":1.17,"tdop":0.73,"hdop":0.82,"gdop":1.60,"pdop":1.43,"satellites":[{"PRN":10,"el":17,"az":150,"ss":43,"used":true},{"PRN":3,"el":24,"az":315,"ss":40,"used":true},{"PRN":26,"el":21,"az":171,"ss":40,"used":true},{"PRN":22,"el":44,"az":302,"ss":44,"used":true},{"PRN":32,"el":50,"az":81,"ss":48,"used":true},{"PRN":25,"el":35,"az":63,"ss":46,"used":true},{"PRN":1,"el":26,"az":270,"ss":44,"used":true},{"PRN":14,"el":73,"az":32,"ss":43,"used":true},{"PRN":12,"el":7,"az":31,"ss":45,"used":true},{"PRN":11,"el":2,"az":264,"ss":40,"used":false},{"PRN":31,"el":84,"az":233,"ss":47,"used":true}]} 
68.850          GPSD_json            pGPSd           {"class":"SKY","device":"/dev/garmingps","xdop":0.58,"ydop":0.59,"vdop":1.17,"tdop":0.73,"hdop":0.82,"gdop":1.60,"pdop":1.43,"satellites":[{"PRN":10,"el":17,"az":150,"ss":44,"used":true},{"PRN":3,"el":24,"az":315,"ss":40,"used":true},{"PRN":26,"el":21,"az":171,"ss":40,"used":true},{"PRN":22,"el":44,"az":302,"ss":45,"used":true},{"PRN":32,"el":50,"az":81,"ss":48,"used":true},{"PRN":25,"el":35,"az":63,"ss":46,"used":true},{"PRN":1,"el":26,"az":270,"ss":43,"used":true},{"PRN":14,"el":73,"az":32,"ss":45,"used":true},{"PRN":12,"el":7,"az":31,"ss":45,"used":true},{"PRN":11,"el":2,"az":264,"ss":40,"used":false},{"PRN":31,"el":84,"az":233,"ss":48,"used":true}]} 
69.852          GPSD_json            pGPSd           {"class":"SKY","device":"/dev/garmingps","xdop":0.58,"ydop":0.59,"vdop":1.17,"tdop":0.73,"hdop":0.82,"gdop":1.60,"pdop":1.43,"satellites":[{"PRN":10,"el":17,"az":150,"ss":43,"used":true},{"PRN":3,"el":24,"az":315,"ss":40,"used":true},{"PRN":26,"el":21,"az":171,"ss":41,"used":true},{"PRN":22,"el":44,"az":302,"ss":45,"used":true},{"PRN":32,"el":50,"az":81,"ss":47,"used":true},{"PRN":25,"el":35,"az":63,"ss":46,"used":true},{"PRN":1,"el":26,"az":270,"ss":42,"used":true},{"PRN":14,"el":73,"az":32,"ss":44,"used":true},{"PRN":12,"el":7,"az":31,"ss":45,"used":true},{"PRN":11,"el":2,"az":264,"ss":40,"used":false},{"PRN":31,"el":84,"az":233,"ss":49,"used":true}]} 
70.855          GPSD_json            pGPSd           {"class":"SKY","device":"/dev/garmingps","xdop":0.58,"ydop":0.59,"vdop":1.17,"tdop":0.73,"hdop":0.82,"gdop":1.60,"pdop":1.43,"satellites":[{"PRN":10,"el":17,"az":150,"ss":43,"used":true},{"PRN":3,"el":24,"az":315,"ss":40,"used":true},{"PRN":26,"el":21,"az":171,"ss":42,"used":true},{"PRN":22,"el":44,"az":302,"ss":43,"used":true},{"PRN":32,"el":50,"az":81,"ss":48,"used":true},{"PRN":25,"el":35,"az":63,"ss":44,"used":true},{"PRN":1,"el":26,"az":270,"ss":43,"used":true},{"PRN":14,"el":73,"az":32,"ss":45,"used":true},{"PRN":12,"el":7,"az":31,"ss":45,"used":true},{"PRN":11,"el":2,"az":264,"ss":40,"used":false},{"PRN":31,"el":84,"az":233,"ss":47,"used":true}]} 
71.856          GPSD_json            pGPSd           {"class":"SKY","device":"/dev/garmingps","xdop":0.58,"ydop":0.59,"vdop":1.17,"tdop":0.73,"hdop":0.82,"gdop":1.60,"pdop":1.43,"satellites":[{"PRN":10,"el":17,"az":150,"ss":43,"used":true},{"PRN":3,"el":24,"az":315,"ss":40,"used":true},{"PRN":26,"el":21,"az":171,"ss":43,"used":true},{"PRN":22,"el":44,"az":302,"ss":43,"used":true},{"PRN":32,"el":50,"az":81,"ss":49,"used":true},{"PRN":25,"el":35,"az":63,"ss":45,"used":true},{"PRN":1,"el":26,"az":270,"ss":42,"used":true},{"PRN":14,"el":73,"az":32,"ss":46,"used":true},{"PRN":12,"el":7,"az":31,"ss":45,"used":true},{"PRN":11,"el":2,"az":264,"ss":39,"used":false},{"PRN":31,"el":84,"az":233,"ss":49,"used":true}]} 
72.858          GPSD_json            pGPSd           {"class":"SKY","device":"/dev/garmingps","xdop":0.58,"ydop":0.59,"vdop":1.17,"tdop":0.73,"hdop":0.82,"gdop":1.60,"pdop":1.43,"satellites":[{"PRN":10,"el":17,"az":150,"ss":44,"used":true},{"PRN":3,"el":24,"az":315,"ss":41,"used":true},{"PRN":26,"el":21,"az":171,"ss":42,"used":true},{"PRN":22,"el":44,"az":302,"ss":44,"used":true},{"PRN":32,"el":50,"az":81,"ss":48,"used":true},{"PRN":25,"el":35,"az":63,"ss":46,"used":true},{"PRN":1,"el":26,"az":270,"ss":42,"used":true},{"PRN":14,"el":73,"az":32,"ss":46,"used":true},{"PRN":12,"el":7,"az":31,"ss":45,"used":true},{"PRN":11,"el":2,"az":264,"ss":39,"used":false},{"PRN":31,"el":84,"az":233,"ss":48,"used":true}]} 
73.860          GPSD_json            pGPSd           {"class":"SKY","device":"/dev/garmingps","xdop":0.58,"ydop":0.59,"vdop":1.17,"tdop":0.73,"hdop":0.82,"gdop":1.60,"pdop":1.43,"satellites":[{"PRN":10,"el":17,"az":150,"ss":43,"used":true},{"PRN":3,"el":24,"az":315,"ss":41,"used":true},{"PRN":26,"el":21,"az":171,"ss":41,"used":true},{"PRN":22,"el":44,"az":302,"ss":45,"used":true},{"PRN":32,"el":50,"az":81,"ss":48,"used":true},{"PRN":25,"el":35,"az":63,"ss":45,"used":true},{"PRN":1,"el":26,"az":270,"ss":43,"used":true},{"PRN":14,"el":73,"az":32,"ss":46,"used":true},{"PRN":12,"el":7,"az":31,"ss":45,"used":true},{"PRN":11,"el":2,"az":264,"ss":39,"used":false},{"PRN":31,"el":84,"az":233,"ss":48,"used":true}]} 
74.862          GPSD_json            pGPSd           {"class":"SKY","device":"/dev/garmingps","xdop":0.58,"ydop":0.59,"vdop":1.17,"tdop":0.73,"hdop":0.82,"gdop":1.60,"pdop":1.43,"satellites":[{"PRN":10,"el":17,"az":150,"ss":43,"used":true},{"PRN":3,"el":24,"az":315,"ss":41,"used":true},{"PRN":26,"el":21,"az":171,"ss":42,"used":true},{"PRN":22,"el":44,"az":302,"ss":45,"used":true},{"PRN":32,"el":50,"az":81,"ss":47,"used":true},{"PRN":25,"el":35,"az":63,"ss":46,"used":true},{"PRN":1,"el":26,"az":270,"ss":43,"used":true},{"PRN":14,"el":73,"az":32,"ss":46,"used":true},{"PRN":12,"el":7,"az":31,"ss":44,"used":true},{"PRN":11,"el":2,"az":264,"ss":38,"used":false},{"PRN":31,"el":84,"az":233,"ss":48,"used":true}]} 
75.864          GPSD_json            pGPSd           {"class":"SKY","device":"/dev/garmingps","xdop":0.58,"ydop":0.59,"vdop":1.17,"tdop":0.73,"hdop":0.82,"gdop":1.60,"pdop":1.43,"satellites":[{"PRN":10,"el":17,"az":150,"ss":43,"used":true},{"PRN":3,"el":24,"az":315,"ss":41,"used":true},{"PRN":26,"el":22,"az":171,"ss":42,"used":true},{"PRN":22,"el":44,"az":302,"ss":46,"used":true},{"PRN":32,"el":50,"az":81,"ss":47,"used":true},{"PRN":25,"el":35,"az":63,"ss":46,"used":true},{"PRN":1,"el":26,"az":270,"ss":43,"used":true},{"PRN":14,"el":73,"az":32,"ss":45,"used":true},{"PRN":12,"el":7,"az":31,"ss":45,"used":true},{"PRN":11,"el":2,"az":264,"ss":38,"used":false},{"PRN":31,"el":84,"az":233,"ss":48,"used":true}]} 
76.865          GPSD_json            pGPSd           {"class":"SKY","device":"/dev/garmingps","xdop":0.58,"ydop":0.59,"vdop":1.17,"tdop":0.73,"hdop":0.82,"gdop":1.60,"pdop":1.43,"satellites":[{"PRN":10,"el":17,"az":150,"ss":43,"used":true},{"PRN":3,"el":24,"az":315,"ss":42,"used":true},{"PRN":26,"el":22,"az":171,"ss":42,"used":true},{"PRN":22,"el":44,"az":302,"ss":46,"used":true},{"PRN":32,"el":50,"az":81,"ss":46,"used":true},{"PRN":25,"el":35,"az":63,"ss":45,"used":true},{"PRN":1,"el":26,"az":270,"ss":43,"used":true},{"PRN":14,"el":73,"az":32,"ss":46,"used":true},{"PRN":12,"el":7,"az":31,"ss":45,"used":true},{"PRN":11,"el":2,"az":264,"ss":38,"used":false},{"PRN":31,"el":84,"az":233,"ss":48,"used":true}]} 
77.868          GPSD_json            pGPSd           {"class":"SKY","device":"/dev/garmingps","xdop":0.58,"ydop":0.59,"vdop":1.17,"tdop":0.73,"hdop":0.82,"gdop":1.60,"pdop":1.43,"satellites":[{"PRN":10,"el":17,"az":150,"ss":42,"used":true},{"PRN":3,"el":24,"az":315,"ss":43,"used":true},{"PRN":26,"el":22,"az":171,"ss":42,"used":true},{"PRN":22,"el":44,"az":302,"ss":45,"used":true},{"PRN":32,"el":50,"az":81,"ss":46,"used":true},{"PRN":25,"el":35,"az":63,"ss":46,"used":true},{"PRN":1,"el":26,"az":270,"ss":42,"used":true},{"PRN":14,"el":73,"az":32,"ss":47,"used":true},{"PRN":12,"el":7,"az":31,"ss":45,"used":true},{"PRN":11,"el":2,"az":264,"ss":39,"used":false},{"PRN":31,"el":84,"az":233,"ss":48,"used":true}]} 
78.871          GPSD_json            pGPSd           {"class":"SKY","device":"/dev/garmingps","xdop":0.58,"ydop":0.59,"vdop":1.17,"tdop":0.73,"hdop":0.82,"gdop":1.60,"pdop":1.43,"satellites":[{"PRN":10,"el":17,"az":150,"ss":42,"used":true},{"PRN":3,"el":24,"az":315,"ss":43,"used":true},{"PRN":26,"el":22,"az":171,"ss":42,"used":true},{"PRN":22,"el":44,"az":302,"ss":46,"used":true},{"PRN":32,"el":50,"az":81,"ss":46,"used":true},{"PRN":25,"el":35,"az":63,"ss":45,"used":true},{"PRN":1,"el":26,"az":270,"ss":43,"used":true},{"PRN":14,"el":73,"az":32,"ss":47,"used":true},{"PRN":12,"el":7,"az":31,"ss":45,"used":true},{"PRN":11,"el":2,"az":264,"ss":39,"used":false},{"PRN":31,"el":84,"az":233,"ss":47,"used":true}]} 
79.872          GPSD_json            pGPSd           {"class":"SKY","device":"/dev/garmingps","xdop":0.58,"ydop":0.59,"vdop":1.17,"tdop":0.73,"hdop":0.82,"gdop":1.60,"pdop":1.43,"satellites":[{"PRN":10,"el":17,"az":150,"ss":42,"used":true},{"PRN":3,"el":24,"az":315,"ss":43,"used":true},{"PRN":26,"el":22,"az":171,"ss":42,"used":true},{"PRN":22,"el":44,"az":302,"ss":47,"used":true},{"PRN":32,"el":50,"az":81,"ss":46,"used":true},{"PRN":25,"el":35,"az":63,"ss":47,"used":true},{"PRN":1,"el":26,"az":270,"ss":41,"used":true},{"PRN":14,"el":73,"az":32,"ss":46,"used":true},{"PRN":12,"el":7,"az":31,"ss":44,"used":true},{"PRN":11,"el":2,"az":264,"ss":39,"used":false},{"PRN":31,"el":84,"az":233,"ss":48,"used":true}]} 
80.875          GPSD_json            pGPSd           {"class":"SKY","device":"/dev/garmingps","xdop":0.58,"ydop":0.59,"vdop":1.17,"tdop":0.73,"hdop":0.82,"gdop":1.60,"pdop":1.43,"satellites":[{"PRN":10,"el":17,"az":150,"ss":42,"used":true},{"PRN":3,"el":24,"az":315,"ss":44,"used":true},{"PRN":26,"el":22,"az":171,"ss":42,"used":true},{"PRN":22,"el":44,"az":302,"ss":47,"used":true},{"PRN":32,"el":50,"az":81,"ss":45,"used":true},{"PRN":25,"el":35,"az":63,"ss":47,"used":true},{"PRN":1,"el":26,"az":270,"ss":41,"used":true},{"PRN":14,"el":73,"az":32,"ss":47,"used":true},{"PRN":12,"el":7,"az":31,"ss":44,"used":true},{"PRN":11,"el":2,"az":264,"ss":39,"used":false},{"PRN":31,"el":84,"az":233,"ss":48,"used":true}]} 
81.877          GPSD_json            pGPSd           {"class":"SKY","device":"/dev/garmingps","xdop":0.58,"ydop":0.59,"vdop":1.17,"tdop":0.73,"hdop":0.82,"gdop":1.60,"pdop":1.43,"satellites":[{"PRN":10,"el":17,"az":150,"ss":42,"used":true},{"PRN":3,"el":24,"az":315,"ss":45,"used":true},{"PRN":26,"el":22,"az":171,"ss":42,"used":true},{"PRN":22,"el":44,"az":302,"ss":46,"used":true},{"PRN":32,"el":50,"az":81,"ss":46,"used":true},{"PRN":25,"el":35,"az":63,"ss":47,"used":true},{"PRN":1,"el":26,"az":270,"ss":41,"used":true},{"PRN":14,"el":73,"az":32,"ss":47,"used":true},{"PRN":12,"el":7,"az":31,"ss":43,"used":true},{"PRN":11,"el":2,"az":264,"ss":39,"used":false},{"PRN":31,"el":84,"az":233,"ss":47,"used":true}]} 
82.879          GPSD_json            pGPSd           {"class":"SKY","device":"/dev/garmingps","xdop":0.58,"ydop":0.59,"vdop":1.17,"tdop":0.73,"hdop":0.82,"gdop":1.60,"pdop":1.43,"satellites":[{"PRN":10,"el":17,"az":150,"ss":41,"used":true},{"PRN":3,"el":24,"az":315,"ss":43,"used":true},{"PRN":26,"el":22,"az":171,"ss":42,"used":true},{"PRN":22,"el":44,"az":302,"ss":46,"used":true},{"PRN":32,"el":50,"az":81,"ss":46,"used":true},{"PRN":25,"el":35,"az":63,"ss":47,"used":true},{"PRN":1,"el":26,"az":270,"ss":41,"used":true},{"PRN":14,"el":73,"az":32,"ss":47,"used":true},{"PRN":12,"el":7,"az":31,"ss":43,"used":true},{"PRN":11,"el":2,"az":264,"ss":39,"used":false},{"PRN":31,"el":84,"az":233,"ss":46,"used":true}]} 
83.881          GPSD_json            pGPSd           {"class":"SKY","device":"/dev/garmingps","xdop":0.58,"ydop":0.59,"vdop":1.17,"tdop":0.73,"hdop":0.82,"gdop":1.60,"pdop":1.43,"satellites":[{"PRN":10,"el":17,"az":150,"ss":42,"used":true},{"PRN":3,"el":24,"az":315,"ss":43,"used":true},{"PRN":26,"el":22,"az":171,"ss":42,"used":true},{"PRN":22,"el":44,"az":302,"ss":46,"used":true},{"PRN":32,"el":50,"az":81,"ss":44,"used":true},{"PRN":25,"el":35,"az":63,"ss":46,"used":true},{"PRN":1,"el":26,"az":270,"ss":43,"used":true},{"PRN":14,"el":73,"az":32,"ss":47,"used":true},{"PRN":12,"el":7,"az":31,"ss":43,"used":true},{"PRN":11,"el":2,"az":264,"ss":39,"used":false},{"PRN":31,"el":84,"az":233,"ss":47,"used":true}]} 
84.883          GPSD_json            pGPSd           {"class":"SKY","device":"/dev/garmingps","xdop":0.58,"ydop":0.59,"vdop":1.17,"tdop":0.73,"hdop":0.82,"gdop":1.60,"pdop":1.43,"satellites":[{"PRN":10,"el":17,"az":150,"ss":43,"used":true},{"PRN":3,"el":24,"az":315,"ss":42,"used":true},{"PRN":26,"el":22,"az":171,"ss":42,"used":true},{"PRN":22,"el":44,"az":302,"ss":47,"used":true},{"PRN":32,"el":50,"az":81,"ss":45,"used":true},{"PRN":25,"el":35,"az":63,"ss":46,"used":true},{"PRN":1,"el":26,"az":270,"ss":43,"used":true},{"PRN":14,"el":73,"az":32,"ss":48,"used":true},{"PRN":12,"el":7,"az":31,"ss":44,"used":true},{"PRN":11,"el":2,"az":264,"ss":39,"used":false},{"PRN":31,"el":84,"az":233,"ss":48,"used":true}]} 
